~VERSION INFORMATION
VERS.           2.0   :CWLS Log ASCII Standard - VERSION 2.0
WRAP.           NO    :One Line per depth step
PROD.  Schlumberger   :LAS Producer
PROG.  DLIS to ASCII 2.3                               :LAS Program name and version
CREA.        2023/07/14 00:15                          :LAS Creation date {YYYY/MM/DD hh:mm}
DLIS_CREA.  2023-Jul-14 00:11                          :DLIS Creation date and time {YYYY-MMM-DD hh:mm}
SOURCE.     LIS1_001.dlis                              :DLIS File Name
FILE-ID.     LIS   .001                                :File Identification Number
#--------------------------------------------------
~WELL INFORMATION
#MNEM.UNIT      DATA             DESCRIPTION
#---- ------ --------------   -----------------------------
STRT .M      5165.9028       :START DEPTH     
STOP .M      5210.4036       :STOP DEPTH     
STEP .M         0.1524       :STEP     
NULL .          -999.25      :NULL VALUE
COMP .        PETROBRAS S.A.                           :COMPANY
WELL .        3-BRSA-293D-SPS                          :WELL
FLD  .        BS-400                                   :FIELD
LOC  .        BASE SAD 69:                             :LOCATION
CNTY .        SANTOS                                   :COUNTY
STAT .        BRASIL                                   :STATE
CTRY .        BRASIL                                   :COUNTRY
API  .                                                 :API NUMBER
UWI  .                                                 :UNIQUE WELL ID
DATE .        24/10/2004                               :LOG DATE
SRVC .        Schlumberger                             :SERVICE COMPANY
LATI .DEG                                              :LATITUDE
LONG .DEG                                              :LONGITUDE
GDAT .                                                 :GeoDetic Datum
#-----------------------------------------------------------------------------
~PARAMETER INFORMATION
#MNEM.UNIT    VALUE                      DESCRIPTION
#---- -----   --------------------       ------------------------
APD  .M               24                 :
BHT  .DEGF           280                 :
BLI  .M             5225                 :
BS   .IN         8.50000                 :
CN   .        PETROBRAS S.A.             :
COUN .        SANTOS                     :
CS   .IN         9.62500                 :
DATE .        24/10/2004                 :
DFD  .LB/G      12.30000                 :
DFL  .C3               2                 :
DFPH .        N/A                        :
DFT  .        SINTETICO                  :
DFV  .S               87                 :
DMF  .        MESA ROTATIVA              :
EDF  .M               24                 :
EGL  .M             -500                 :
EKB  .        N/A                        :
ENGI .        HERNANDEZ/LOCK             :
FL1  .        X   7292392.00 M LAT 24 28 47.189 S :
FL2  .        Y    584087.00 M LON 44 10 12.698 W :
FL3  .        MC  45 GRAUS               :
FN   .        BS-400                     :
LMF  .        MESA ROTATIVA              :
LUL  .        MACAE                      :
MCSS .        PRENSA                     :
MCST .DEGF            80                 :
MFSS .        PRENSA                     :
MFST .DEGF            80                 :
MSS  .        LINHA DE FLUXO             :
MST  .DEGF            80                 :
PDAT .        NIVEL DO MAR               :
R1   .        01. APRESENTAÇÃO DE ACORDO COM REQUERIMENTO DO CLIENTE :
R2   .        02. TEMPERATURA MÁXIMA DO POÇO T1=T2= 290 DEGF @  5215 M :
R3   .        03. INICIO DA CIRCULAÇÃO  13 45 H 21/10/2004 :
R4   .        04. FINAL DA CIRCULAÇÃO   16 00 H 21/10/2004 :
R5   .        05. TEMPO TOTAL DE CIRCULAÇÃO  02 15 H :
R6   .        06. FLUIDO DE PERFURAÇÃO  SINTETICO (BR-MUL  BR-MI)  65% TEOR DO OLEO :
R7   .        07. SALINIDADE DA LAMA  266377 PPM NACL NA FASE DE AGUA :
R8   .        08. INCLINAÇÃO MÁXIMA DO POÇO  37.37 GRAUS @ 5100 M :
R9   .        09. PRIMEIRAS E ULTIMAS LEITURAS  :
RMB  .OHMM    > 10                       :
RMCS .OHMM    > 10                       :
RMFS .OHMM    > 10                       :
RMS  .OHMM    > 10                       :
RUN  .                 1                 :
STAT .        BRASIL                     :
TCS  .        16 00 H                    :
TDD  .M             5230                 :
TDL  .        NR                         :
TLAB .        N/A                        :
TLI  .M             5070                 :
WITN .        ALCIDIO/VLADIMIR           :
WN   .        3-BRSA-293D-SPS            :
LUN  .              8808                 :
HIDE .        3-SPS-41D                  :
HID2 .        MAGNETIC RESONANCE         :
HID3 .        EXPLORER LOG               :
HID4 .        GAMMA RAY LOG              :
CLAB .        BACIA                      :
SLAB .        PAIS                       :
CMT1 .        ESC  1 200                 :
CMT2 .        PROF. MEDIDA               :
CMT4 .        SONDA  SS-43               :
HDAT .        SAD 69                     :
FL   .        BASE SAD 69                :
OS1  .        HDIL/XMAC/GR               :
OS3  .        ZDL/CN/GR                  :
OS5  .        SL/GR                      :
LNAM .        MREX/ZDL/CN/XMAC/HDIL/3DEX/RCI/SL/GR :
TOOL .        MREX/ZDL/CN/XMAC/HDIL/3DEX/RCI/SL/GR :
LSOU .        PETROBRAS                  :
LSRV .        OH WIRELINE                :
LTYP .        RAW                        :
EPD  .M                0                 :
LDAT .        24/10/2004                 :
TRIP .                 1                 :
SON  .            783148                 :
CBDR .M             4277                 :
CBLO .        NR                         :
STEM .DEGF    N/A                        :
BSAL .            266377                 :
BARI .        OFF                        :
DLAB .        21/10/2004                 :
MRT  .DEGF           290                 :
TSTR .        MRIL/GR                    :
TSTG .        N/A                        :
STUS .        FINAL                      :
LCNM .        BAKER ATLAS                :
LCC  .               150                 :
NATI .        BRASIL                     :
OPMD .        OH.WIRELINE                :
PANA .        HERNANDEZ/LOCK             :
PCON .        BAKER ATLAS                :
R11  .        MREX     5225.0 M/5070.0 M :
R13  .        10. PONTO FRACO UTILIZADO  8K :
R14  .        12. DECLINAÇÃO MAGNETICA  -20.9 GRAUS :
R15  .        13. COORDENADAS BASE       :
R17  .        X   7292512.00 M           :
R18  .        Y    583936.00 M           :
R19  .        MC  45 GRAUS               :
R21  .        14. CADASTRO ANP  86316021017 :
PVER .           4.10000                 :
WDFN .        /space/expusr/3-SPS-41D/dat1a/pass/mexilhoes/i857d01.xtf :
OCT  .        i857d                      :
0S2  .        3DEX/GR                    :
OS4  .        RCI/GR                     :
#-----------------------------------------------------------------------------
~CURVE INFORMATION
#MNEM.UNIT   API CODE                                  DESCRIPTION
#---- -----  --------                                  -----------------------
DEPT .M                                                :DEPTH (BOREHOLE) {F10.4}
DEPT .M                                                : {F13.4}
GR   .GAPI                                             : {F13.4}
SPD  .M/MN                                             : {F13.4}
TTEN .LBF                                              : {F13.4}
MBVI .PU                                               : {F13.4}
MBVM .PU                                               : {F13.4}
MPHE .PU                                               : {F13.4}
MPHS .PU                                               : {F13.4}
MPRM .MD                                               : {F13.4}
TPOR[0].F/MN                                           : {AF13.4}
#-----------------------------------------------------------------------------
# 
#     DEPT        DEPT         GR           SPD          TTEN         MBVI         MBVM         MPHE         MPHS         MPRM       TPOR[0]
#
~A  
# ...
 5200.6500    5200.6500      49.1491       0.9654    6176.7277       3.4066       1.7415       5.1480       5.9967       0.0187       0.0000
 5200.8024    5200.8024      49.1181       0.9689    6197.2156       3.6310       1.7894       5.4204       6.1423       0.0215       0.0000
 5200.9548    5200.9548      49.3058       0.9721    6192.2112       3.4632       1.9235       5.3867       6.1016       0.0270       0.0000
 5201.1072    5201.1072      49.4645       0.9739    6168.9764       3.0652       2.0920       5.1572       5.9034       0.0343       0.0000
 5201.2596    5201.2596      49.4164       0.9738    6172.0711       2.8063       2.2366       5.0429       5.7350       0.0420       0.0000
 5201.4120    5201.4120      49.4079       0.9718    6210.4877       2.8130       2.3379       5.1509       5.7150       0.0492       0.0000
 5201.5644    5201.5645      49.6303       0.9694    6253.3779       2.8377       2.4182       5.2559       5.7490       0.0560       0.0000
 5201.7168    5201.7168      49.8044       0.9702    6270.4922       2.6488       2.4860       5.1348       5.6752       0.0624       0.0000
 5201.8692    5201.8691      49.5289       0.9751    6262.0537       2.2910       2.5325       4.8236       5.5006       0.0679       0.0000
 5202.0216    5202.0216      49.1011       0.9792    6249.8265       1.9498       2.5581       4.5079       5.3676       0.0725       0.0000
 5202.1740    5202.1740      48.9973       0.9800    6244.7411       1.8117       2.5628       4.3745       5.3657       0.0743       0.0000
 5202.3264    5202.3264    -999.2500       0.9826    6235.6663       1.9816       2.5301       4.5116       5.4424       0.0702       0.0000
 5202.4788    5202.4788    -999.2500       0.9909    6214.5098       2.3506       2.4634       4.8140       5.5083       0.0616       0.0000
 5202.6312    5202.6312    -999.2500       0.9985    6183.7077       2.6596       2.4013       5.0609       5.5174       0.0544       0.0000
 5202.7836    5202.7836    -999.2500       1.0002    6148.5767       2.7431       2.3855       5.1285       5.4629       0.0526       0.0000
 5202.9360    5202.9360    -999.2500       0.9998    6115.3930       2.6544       2.4148       5.0692       5.3901       0.0550       0.0000
 5203.0884    5203.0884    -999.2500       0.9998    6088.8892       2.5429       2.4463       4.9892       5.3561       0.0577       0.0000
 5203.2408    5203.2408    -999.2500       0.9990    6077.0273       2.5439       2.4023       4.9462       5.3485       0.0548       0.0000
 5203.3932    5203.3932    -999.2500       0.9984    6104.1170       2.6231       2.2409       4.8640       5.2428       0.0438       0.0000
 5203.5456    5203.5456    -999.2500       0.9957    6198.0205       2.5685       2.0342       4.6028       4.9354       0.0304       0.0000
 5203.6980    5203.6980    -999.2500       0.9900    6314.4313       2.2364       1.8960       4.1324       4.4702       0.0221       0.0000
 5203.8504    5203.8504    -999.2500       0.9870    6376.2842       1.7253       1.8480       3.5734       4.0007       0.0202       0.0000
 5204.0028    5204.0028    -999.2500       0.9882    6364.5225       1.3081       1.8131       3.1213       3.7177       0.0201       0.0000
 5204.1552    5204.1552    -999.2500       0.9903    6324.4976       1.1873       1.7196       2.9069       3.7156       0.0172       0.0000
 5204.3076    5204.3076    -999.2500       0.9924    6301.0811       1.3272       1.6042       2.9314       3.8971       0.0125       0.0000
 5204.4600    5204.4600    -999.2500       0.9922    6301.9131       1.5110       1.5926       3.1036       4.1018       0.0113       0.0000
 5204.6124    5204.6124    -999.2500       0.9887    6295.9289       1.6384       1.7214       3.3598       4.3576       0.0155       0.0000
 5204.7648    5204.7648    -999.2500       0.9873    6258.1584       1.8333       1.8943       3.7275       4.8482       0.0219       0.0000
 5204.9172    5204.9172    -999.2500       0.9888    6210.2583       2.1980       2.0275       4.2255       5.6060       0.0281       0.0000
 5205.0696    5205.0696    -999.2500       0.9886    6178.8201       2.6520       2.1129       4.7650       6.3680       0.0334       0.0000
 5205.2220    5205.2220    -999.2500       0.9871    6171.4086       3.0499       2.1691       5.2191       6.8090       0.0379       0.0000
 5205.3744    5205.3744    -999.2500       0.9880    6186.2145       3.3186       2.2133       5.5319       6.8216       0.0419       0.0000
 5205.5268    5205.5268    -999.2500       0.9895    6203.0689       3.4084       2.2661       5.6744       6.5277       0.0461       0.0000
 5205.6792    5205.6792    -999.2500       0.9877    6206.6223       3.3211       2.3401       5.6612       6.1519       0.0515       0.0000
 5205.8316    5205.8316    -999.2500       0.9838    6195.2261       3.2291       2.4203       5.6494       5.9421       0.0578       0.0000
 5205.9840    5205.9840    -999.2500       0.9829    6183.5251       3.3198       2.4653       5.7851    -999.2500       0.0621       0.0000
 5206.1364    5206.1364    -999.2500       0.9845    6187.5362       3.5303       2.4598       5.9901    -999.2500       0.0628       0.0000
 5206.2888    5206.2888    -999.2500       0.9857    6212.4297       3.6700       2.4366       6.1066    -999.2500       0.0614       0.0000
 5206.4412    5206.4412    -999.2500       0.9873    6240.3514       3.7087       2.4255       6.1342    -999.2500       0.0606    -999.2500
 5206.5936    5206.5936    -999.2500       0.9887    6248.9963       3.7108       2.4248       6.1356    -999.2500       0.0605    -999.2500
 5206.7460    5206.7460    -999.2500       0.9879    6226.4014       3.7108       2.4248       6.1356    -999.2500       0.0605    -999.2500
 5206.8984    5206.8984    -999.2500       0.9885    6188.0557       3.7108       2.4248       6.1356    -999.2500       0.0605    -999.2500
 5207.0508    5207.0508    -999.2500       1.0043    6174.4727       3.7108       2.4248       6.1356    -999.2500       0.0605    -999.2500
 5207.2032    5207.2032    -999.2500       1.0383    6198.5700       3.7108       2.4248       6.1356    -999.2500       0.0605    -999.2500
 5207.3556    5207.3556    -999.2500       1.0531    6209.9619       3.7108       2.4248       6.1356    -999.2500       0.0605    -999.2500
 5207.5080    5207.5080    -999.2500       0.9516    6171.9998       3.7108       2.4248       6.1356    -999.2500       0.0605    -999.2500
 5207.6604    5207.6604    -999.2500       0.7676    6128.4795       3.7108       2.4248       6.1356    -999.2500       0.0605    -999.2500
 5207.8128    5207.8128    -999.2500       0.6680    6117.2912       3.7108       2.4248       6.1356    -999.2500       0.0605    -999.2500
 5207.9652    5207.9652    -999.2500       0.6983    6108.8029       3.7108       2.4248       6.1356    -999.2500       0.0605    -999.2500
 5208.1176    5208.1176    -999.2500       0.7507    6077.3132       3.7108       2.4248       6.1356    -999.2500       0.0605    -999.2500
 5208.2700    5208.2700    -999.2500       0.7756    6032.6611       3.7108       2.4248       6.1356    -999.2500       0.0605    -999.2500
 5208.4224    5208.4224    -999.2500       0.7910    5981.5926    -999.2500    -999.2500    -999.2500    -999.2500    -999.2500    -999.2500
 5208.5748    5208.5748    -999.2500       0.7935    5925.9220    -999.2500    -999.2500    -999.2500    -999.2500    -999.2500    -999.2500
 5208.7272    5208.7272    -999.2500       0.7946    5877.5394    -999.2500    -999.2500    -999.2500    -999.2500    -999.2500    -999.2500
 5208.8796    5208.8796    -999.2500       0.7988    5835.4570    -999.2500    -999.2500    -999.2500    -999.2500    -999.2500    -999.2500
 5209.0320    5209.0320    -999.2500       0.7970    5781.7673    -999.2500    -999.2500    -999.2500    -999.2500    -999.2500    -999.2500
 5209.1844    5209.1844    -999.2500       0.7882    5713.3432    -999.2500    -999.2500    -999.2500    -999.2500    -999.2500    -999.2500
