~VERSION INFORMATION
VERS.           2.0   :CWLS Log ASCII Standard - VERSION 2.0
WRAP.           NO    :One Line per depth step
PROD.  Schlumberger   :LAS Producer
PROG.  DLIS to ASCII 2.3                               :LAS Program name and version
CREA.        2023/07/14 00:15                          :LAS Creation date {YYYY/MM/DD hh:mm}
DLIS_CREA.  2023-Jul-14 00:11                          :DLIS Creation date and time {YYYY-MMM-DD hh:mm}
SOURCE.     LIS1_001.dlis                              :DLIS File Name
FILE-ID.     LIS   .001                                :File Identification Number
#--------------------------------------------------
~WELL INFORMATION
#MNEM.UNIT      DATA             DESCRIPTION
#---- ------ --------------   -----------------------------
STRT .M      5165.9028       :START DEPTH     
STOP .M      5210.4036       :STOP DEPTH     
STEP .M         0.1524       :STEP     
NULL .          -999.25      :NULL VALUE
COMP .        PETROBRAS S.A.                           :COMPANY
WELL .        3-BRSA-293D-SPS                          :WELL
FLD  .        BS-400                                   :FIELD
LOC  .        BASE SAD 69:                             :LOCATION
CNTY .        SANTOS                                   :COUNTY
STAT .        BRASIL                                   :STATE
CTRY .        BRASIL                                   :COUNTRY
API  .                                                 :API NUMBER
UWI  .                                                 :UNIQUE WELL ID
DATE .        24/10/2004                               :LOG DATE
SRVC .        Schlumberger                             :SERVICE COMPANY
LATI .DEG                                              :LATITUDE
LONG .DEG                                              :LONGITUDE
GDAT .                                                 :GeoDetic Datum
#-----------------------------------------------------------------------------
~PARAMETER INFORMATION
#MNEM.UNIT    VALUE                      DESCRIPTION
#---- -----   --------------------       ------------------------
APD  .M               24                 :
BHT  .DEGF           280                 :
BLI  .M             5225                 :
BS   .IN         8.50000                 :
CN   .        PETROBRAS S.A.             :
COUN .        SANTOS                     :
CS   .IN         9.62500                 :
DATE .        24/10/2004                 :
DFD  .LB/G      12.30000                 :
DFL  .C3               2                 :
DFPH .        N/A                        :
DFT  .        SINTETICO                  :
DFV  .S               87                 :
DMF  .        MESA ROTATIVA              :
EDF  .M               24                 :
EGL  .M             -500                 :
EKB  .        N/A                        :
ENGI .        HERNANDEZ/LOCK             :
FL1  .        X   7292392.00 M LAT 24 28 47.189 S :
FL2  .        Y    584087.00 M LON 44 10 12.698 W :
FL3  .        MC  45 GRAUS               :
FN   .        BS-400                     :
LMF  .        MESA ROTATIVA              :
LUL  .        MACAE                      :
MCSS .        PRENSA                     :
MCST .DEGF            80                 :
MFSS .        PRENSA                     :
MFST .DEGF            80                 :
MSS  .        LINHA DE FLUXO             :
MST  .DEGF            80                 :
PDAT .        NIVEL DO MAR               :
R1   .        01. APRESENTAÇÃO DE ACORDO COM REQUERIMENTO DO CLIENTE :
R2   .        02. TEMPERATURA MÁXIMA DO POÇO T1=T2= 290 DEGF @  5215 M :
R3   .        03. INICIO DA CIRCULAÇÃO  13 45 H 21/10/2004 :
R4   .        04. FINAL DA CIRCULAÇÃO   16 00 H 21/10/2004 :
R5   .        05. TEMPO TOTAL DE CIRCULAÇÃO  02 15 H :
R6   .        06. FLUIDO DE PERFURAÇÃO  SINTETICO (BR-MUL  BR-MI)  65% TEOR DO OLEO :
R7   .        07. SALINIDADE DA LAMA  266377 PPM NACL NA FASE DE AGUA :
R8   .        08. INCLINAÇÃO MÁXIMA DO POÇO  37.37 GRAUS @ 5100 M :
R9   .        09. PRIMEIRAS E ULTIMAS LEITURAS  :
RMB  .OHMM    > 10                       :
RMCS .OHMM    > 10                       :
RMFS .OHMM    > 10                       :
RMS  .OHMM    > 10                       :
RUN  .                 1                 :
STAT .        BRASIL                     :
TCS  .        16 00 H                    :
TDD  .M             5230                 :
TDL  .        NR                         :
TLAB .        N/A                        :
TLI  .M             5070                 :
WITN .        ALCIDIO/VLADIMIR           :
WN   .        3-BRSA-293D-SPS            :
LUN  .              8808                 :
HIDE .        3-SPS-41D                  :
HID2 .        MAGNETIC RESONANCE         :
HID3 .        EXPLORER LOG               :
HID4 .        GAMMA RAY LOG              :
CLAB .        BACIA                      :
SLAB .        PAIS                       :
CMT1 .        ESC  1 200                 :
CMT2 .        PROF. MEDIDA               :
CMT4 .        SONDA  SS-43               :
HDAT .        SAD 69                     :
FL   .        BASE SAD 69                :
OS1  .        HDIL/XMAC/GR               :
OS3  .        ZDL/CN/GR                  :
OS5  .        SL/GR                      :
LNAM .        MREX/ZDL/CN/XMAC/HDIL/3DEX/RCI/SL/GR :
TOOL .        MREX/ZDL/CN/XMAC/HDIL/3DEX/RCI/SL/GR :
LSOU .        PETROBRAS                  :
LSRV .        OH WIRELINE                :
LTYP .        RAW                        :
EPD  .M                0                 :
LDAT .        24/10/2004                 :
TRIP .                 1                 :
SON  .            783148                 :
CBDR .M             4277                 :
CBLO .        NR                         :
STEM .DEGF    N/A                        :
BSAL .            266377                 :
BARI .        OFF                        :
DLAB .        21/10/2004                 :
MRT  .DEGF           290                 :
TSTR .        MRIL/GR                    :
TSTG .        N/A                        :
STUS .        FINAL                      :
LCNM .        BAKER ATLAS                :
LCC  .               150                 :
NATI .        BRASIL                     :
OPMD .        OH.WIRELINE                :
PANA .        HERNANDEZ/LOCK             :
PCON .        BAKER ATLAS                :
R11  .        MREX     5225.0 M/5070.0 M :
R13  .        10. PONTO FRACO UTILIZADO  8K :
R14  .        12. DECLINAÇÃO MAGNETICA  -20.9 GRAUS :
R15  .        13. COORDENADAS BASE       :
R17  .        X   7292512.00 M           :
R18  .        Y    583936.00 M           :
R19  .        MC  45 GRAUS               :
R21  .        14. CADASTRO ANP  86316021017 :
PVER .           4.10000                 :
WDFN .        /space/expusr/3-SPS-41D/dat1a/pass/mexilhoes/i857d01.xtf :
OCT  .        i857d                      :
0S2  .        3DEX/GR                    :
OS4  .        RCI/GR                     :
#-----------------------------------------------------------------------------
~CURVE INFORMATION
#MNEM.UNIT   API CODE                                  DESCRIPTION
#---- -----  --------                                  -----------------------
DEPT .M                                                :DEPTH (BOREHOLE) {F10.4}
DEPT .M                                                : {F13.4}
GR   .GAPI                                             : {F13.4}
SPD  .M/MN                                             : {F13.4}
TTEN .LBF                                              : {F13.4}
MBVI .PU                                               : {F13.4}
MBVM .PU                                               : {F13.4}
MPHE .PU                                               : {F13.4}
MPHS .PU                                               : {F13.4}
MPRM .MD                                               : {F13.4}
TPOR[0].F/MN                                           : {AF13.4}
#-----------------------------------------------------------------------------
# 
#     DEPT        DEPT         GR           SPD          TTEN         MBVI         MBVM         MPHE         MPHS         MPRM       TPOR[0]
#
~A  
# ...
 5183.2764    5183.2764      49.0352       1.0092    6002.6016    -999.2500    -999.2500    -999.2500    -999.2500    -999.2500    -999.2500
 5183.4288    5183.4288      49.3443       1.0099    6027.8872    -999.2500    -999.2500    -999.2500    -999.2500    -999.2500    -999.2500
 5183.5812    5183.5812      50.4003       1.0087    6052.3454    -999.2500    -999.2500    -999.2500    -999.2500    -999.2500    -999.2500
 5183.7336    5183.7336      52.1047       1.0084    6068.5439    -999.2500    -999.2500    -999.2500    -999.2500    -999.2500    -999.2500
 5183.8860    5183.8860      53.4494       1.0114    6091.3517    -999.2500    -999.2500    -999.2500    -999.2500    -999.2500    -999.2500
 5184.0384    5184.0384      54.2518       1.0154    6102.6342    -999.2500    -999.2500    -999.2500    -999.2500    -999.2500    -999.2500
 5184.1908    5184.1908      55.0068       1.0153    6085.1753    -999.2500    -999.2500    -999.2500    -999.2500    -999.2500    -999.2500
 5184.3432    5184.3432      55.3364       1.0108    6065.7995    -999.2500    -999.2500    -999.2500    -999.2500    -999.2500       0.0000
 5184.4956    5184.4956      54.6139       1.0053    6071.9049    -999.2500    -999.2500    -999.2500    -999.2500    -999.2500       0.0000
 5184.6480    5184.6480      53.4310       1.0011    6099.1004 -967796.5601 -967968.3797 -972116.6473 -972335.8042 -964274.7073       0.0000
 5184.8004    5184.8004      52.1593       0.9993    6126.3011       4.2394       4.4342       8.6735       8.9127       0.6215       0.0000
 5184.9528    5184.9528      50.5472       1.0005    6139.2176       4.1720       4.3326       8.5047       8.7854       0.5672       0.0000
 5185.1052    5185.1052      48.8404       1.0037    6138.5826       4.2229       4.2110       8.4339       8.7904       0.5086       0.0000
 5185.2576    5185.2576      47.7528       1.0040    6139.7044       4.4499       4.0455       8.4954       8.9372       0.4393       0.0000
 5185.4100    5185.4100      47.2124       0.9994    6151.6336       4.8071       3.8299       8.6371       9.1098       0.3636       0.0000
 5185.5624    5185.5624      46.9006       0.9934    6194.5351       5.1603       3.5863       8.7466       9.1737       0.2912       0.0000
 5185.7148    5185.7148      46.9491       0.9895    6276.7295       5.4249       3.3448       8.7697       9.1215       0.2308       0.0000
 5185.8672    5185.8672      47.2430       0.9886    6352.8008       5.5885       3.1075       8.6960       8.9958       0.1823       0.0000
 5186.0196    5186.0196      47.8360       0.9905    6367.8132       5.6112       2.8420       8.4533       8.7455       0.1380       0.0000
 5186.1720    5186.1720      49.2646       0.9933    6323.2078       5.4199       2.5326       7.9525       8.2823       0.0958       0.0000
 5186.3244    5186.3244      54.6952       0.9957    6260.3366       4.9660       2.2039       7.1699       7.5713       0.0595       0.0000
 5186.4768    5186.4768      64.8419       0.9973    6201.4179       4.1869       1.9218       6.1088       6.6232       0.0340       0.0000
 5186.6292    5186.6292      73.9363       0.9984    6148.8154       3.0752       1.7278       4.8030       5.5238       0.0208       0.0000
 5186.7816    5186.7816      76.5506       1.0004    6094.6050       1.8155       1.5711       3.3866       4.5305       0.0189       0.0000
 5186.9340    5186.9340      74.8521       1.0048    6041.2885       0.7858       1.3411       2.1268       3.9878       0.0202       0.0000
 5187.0864    5187.0864      73.9025       1.0080    6009.4045       0.2467       1.0155       1.2622       3.9845       0.0154       0.0000
 5187.2388    5187.2388      75.9467       1.0066    6018.0228       0.1100       0.6971       0.8071       4.2853       0.0065       0.0000
 5187.3912    5187.3912      79.8209       1.0041    6048.2904       0.1359       0.4879       0.6238       4.6462       0.0014       0.0000
 5187.5436    5187.5436      82.2442       1.0050    6066.9982       0.1708       0.3968       0.5677       4.9480       0.0002       0.0000
 5187.6960    5187.6960      82.0146       1.0077    6071.1578       0.2072       0.3739       0.5810       5.1635       0.0000       0.0000
 5187.8484    5187.8484      79.7987       1.0080    6066.1986       0.2892       0.3487       0.6379       5.3201       0.0000       0.0000
 5188.0008    5188.0008      75.0490       1.0055    6065.3452       0.4393       0.2857       0.7250       5.4532       0.0000       0.0000
 5188.1532    5188.1532      67.3049       1.0007    6113.9038       0.5769       0.1986       0.7755       5.5280       0.0000       0.0000
 5188.3056    5188.3056      60.0164       0.9952    6209.6695       0.6008       0.1328       0.7336       5.4965       0.0000       0.0000
 5188.4580    5188.4580      56.4237       0.9923    6293.0801       0.5383       0.1075       0.6458       5.3897       0.0000       0.0000
 5188.6104    5188.6104      56.3038       0.9944    6329.1611       0.5026       0.1039       0.6065       5.2359       0.0000       0.0000
 5188.7628    5188.7628      58.0585       0.9982    6328.0681       0.5676       0.0993       0.6669       5.0325       0.0000       0.0000
 5188.9152    5188.9152      61.2485       0.9984    6310.8039       0.7446       0.0937       0.8384       4.8749       0.0000       0.0000
 5189.0676    5189.0676      65.3178       0.9946    6296.9177       1.0009       0.0880       1.0888       4.8880       0.0000       0.0000
 5189.2200    5189.2200      70.3622       0.9907    6290.6579       1.2725       0.0771       1.3496       5.0551       0.0000       0.0000
 5189.3724    5189.3724      75.9906       0.9900    6287.6711       1.5354       0.0601       1.5954       5.2794       0.0000       0.0000
 5189.5248    5189.5248      80.0074       0.9905    6292.3021       1.7628       0.0569       1.8197       5.4888       0.0000       0.0000
 5189.6772    5189.6772      80.8931       0.9909    6298.6920       1.8179       0.0938       1.9117       5.5621       0.0000       0.0000
 5189.8296    5189.8296      79.3314       0.9913    6293.0906       1.5767       0.1773       1.7540       5.4483       0.0000       0.0000
 5189.9820    5189.9820      76.6366       0.9927    6272.5081       1.1169       0.3028       1.4197       5.3584       0.0001       0.0000
 5190.1344    5190.1344      74.0252       0.9954    6245.3381       0.6620       0.4567       1.1186       5.5403       0.0002       0.0000
 5190.2868    5190.2868      72.6994       0.9989    6214.8515       0.3582       0.6052       0.9634       5.9477       0.0007       0.0000
 5190.4392    5190.4392      73.2245       1.0025    6198.5385       0.1878       0.7022       0.8900       6.2926       0.0014       0.0000
 5190.5916    5190.5916      74.2575       1.0033    6215.6592       0.0831       0.7266       0.8097       6.4283       0.0021       0.0000
 5190.7440    5190.7440      73.4829       0.9986    6258.9713       0.0208       0.6938       0.7146       6.4287       0.0022       0.0000
 5190.8964    5190.8964      70.6929       0.9927    6317.3892       0.0011       0.6501       0.6513       6.4212       0.0018       0.0000
 5191.0488    5191.0488      68.2242       0.9927    6370.3105       0.0002       0.6404       0.6406       6.3801       0.0017       0.0000
 5191.2012    5191.2012      67.8025       0.9964    6388.3818       0.0045       0.6615       0.6660       6.2158       0.0020       0.0000
 5191.3536    5191.3536      69.7051       0.9979    6371.2592       0.0188       0.6647       0.6836       5.9087       0.0021       0.0000
 5191.5060    5191.5060      73.1336       0.9970    6357.1185       0.0463       0.6182       0.6645       5.5622       0.0017       0.0000
 5191.6584    5191.6584      76.0927       0.9958    6362.8106       0.0964       0.5498       0.6462       5.3168       0.0009       0.0000
 5191.8108    5191.8108      77.1929       0.9953    6372.9876       0.1958       0.5088       0.7046       5.2347       0.0004       0.0000
