~VERSION INFORMATION
VERS.           2.0   :CWLS Log ASCII Standard - VERSION 2.0
WRAP.           NO    :One Line per depth step
PROD.  Schlumberger   :LAS Producer
PROG.  DLIS to ASCII 2.3                               :LAS Program name and version
CREA.        2023/07/14 00:15                          :LAS Creation date {YYYY/MM/DD hh:mm}
DLIS_CREA.  2023-Jul-14 00:11                          :DLIS Creation date and time {YYYY-MMM-DD hh:mm}
SOURCE.     LIS1_001.dlis                              :DLIS File Name
FILE-ID.     LIS   .001                                :File Identification Number
#--------------------------------------------------
~WELL INFORMATION
#MNEM.UNIT      DATA             DESCRIPTION
#---- ------ --------------   -----------------------------
STRT .M      5165.9028       :START DEPTH     
STOP .M      5210.4036       :STOP DEPTH     
STEP .M         0.1524       :STEP     
NULL .          -999.25      :NULL VALUE
COMP .        PETROBRAS S.A.                           :COMPANY
WELL .        3-BRSA-293D-SPS                          :WELL
FLD  .        BS-400                                   :FIELD
LOC  .        BASE SAD 69:                             :LOCATION
CNTY .        SANTOS                                   :COUNTY
STAT .        BRASIL                                   :STATE
CTRY .        BRASIL                                   :COUNTRY
API  .                                                 :API NUMBER
UWI  .                                                 :UNIQUE WELL ID
DATE .        24/10/2004                               :LOG DATE
SRVC .        Schlumberger                             :SERVICE COMPANY
LATI .DEG                                              :LATITUDE
LONG .DEG                                              :LONGITUDE
GDAT .                                                 :GeoDetic Datum
#-----------------------------------------------------------------------------
~PARAMETER INFORMATION
#MNEM.UNIT    VALUE                      DESCRIPTION
#---- -----   --------------------       ------------------------
APD  .M               24                 :
BHT  .DEGF           280                 :
BLI  .M             5225                 :
BS   .IN         8.50000                 :
CN   .        PETROBRAS S.A.             :
COUN .        SANTOS                     :
CS   .IN         9.62500                 :
DATE .        24/10/2004                 :
DFD  .LB/G      12.30000                 :
DFL  .C3               2                 :
DFPH .        N/A                        :
DFT  .        SINTETICO                  :
DFV  .S               87                 :
DMF  .        MESA ROTATIVA              :
EDF  .M               24                 :
EGL  .M             -500                 :
EKB  .        N/A                        :
ENGI .        HERNANDEZ/LOCK             :
FL1  .        X   7292392.00 M LAT 24 28 47.189 S :
FL2  .        Y    584087.00 M LON 44 10 12.698 W :
FL3  .        MC  45 GRAUS               :
FN   .        BS-400                     :
LMF  .        MESA ROTATIVA              :
LUL  .        MACAE                      :
MCSS .        PRENSA                     :
MCST .DEGF            80                 :
MFSS .        PRENSA                     :
MFST .DEGF            80                 :
MSS  .        LINHA DE FLUXO             :
MST  .DEGF            80                 :
PDAT .        NIVEL DO MAR               :
R1   .        01. APRESENTAÇÃO DE ACORDO COM REQUERIMENTO DO CLIENTE :
R2   .        02. TEMPERATURA MÁXIMA DO POÇO T1=T2= 290 DEGF @  5215 M :
R3   .        03. INICIO DA CIRCULAÇÃO  13 45 H 21/10/2004 :
R4   .        04. FINAL DA CIRCULAÇÃO   16 00 H 21/10/2004 :
R5   .        05. TEMPO TOTAL DE CIRCULAÇÃO  02 15 H :
R6   .        06. FLUIDO DE PERFURAÇÃO  SINTETICO (BR-MUL  BR-MI)  65% TEOR DO OLEO :
R7   .        07. SALINIDADE DA LAMA  266377 PPM NACL NA FASE DE AGUA :
R8   .        08. INCLINAÇÃO MÁXIMA DO POÇO  37.37 GRAUS @ 5100 M :
R9   .        09. PRIMEIRAS E ULTIMAS LEITURAS  :
RMB  .OHMM    > 10                       :
RMCS .OHMM    > 10                       :
RMFS .OHMM    > 10                       :
RMS  .OHMM    > 10                       :
RUN  .                 1                 :
STAT .        BRASIL                     :
TCS  .        16 00 H                    :
TDD  .M             5230                 :
TDL  .        NR                         :
TLAB .        N/A                        :
TLI  .M             5070                 :
WITN .        ALCIDIO/VLADIMIR           :
WN   .        3-BRSA-293D-SPS            :
LUN  .              8808                 :
HIDE .        3-SPS-41D                  :
HID2 .        MAGNETIC RESONANCE         :
HID3 .        EXPLORER LOG               :
HID4 .        GAMMA RAY LOG              :
CLAB .        BACIA                      :
SLAB .        PAIS                       :
CMT1 .        ESC  1 200                 :
CMT2 .        PROF. MEDIDA               :
CMT4 .        SONDA  SS-43               :
HDAT .        SAD 69                     :
FL   .        BASE SAD 69                :
OS1  .        HDIL/XMAC/GR               :
OS3  .        ZDL/CN/GR                  :
OS5  .        SL/GR                      :
LNAM .        MREX/ZDL/CN/XMAC/HDIL/3DEX/RCI/SL/GR :
TOOL .        MREX/ZDL/CN/XMAC/HDIL/3DEX/RCI/SL/GR :
LSOU .        PETROBRAS                  :
LSRV .        OH WIRELINE                :
LTYP .        RAW                        :
EPD  .M                0                 :
LDAT .        24/10/2004                 :
TRIP .                 1                 :
SON  .            783148                 :
CBDR .M             4277                 :
CBLO .        NR                         :
STEM .DEGF    N/A                        :
BSAL .            266377                 :
BARI .        OFF                        :
DLAB .        21/10/2004                 :
MRT  .DEGF           290                 :
TSTR .        MRIL/GR                    :
TSTG .        N/A                        :
STUS .        FINAL                      :
LCNM .        BAKER ATLAS                :
LCC  .               150                 :
NATI .        BRASIL                     :
OPMD .        OH.WIRELINE                :
PANA .        HERNANDEZ/LOCK             :
PCON .        BAKER ATLAS                :
R11  .        MREX     5225.0 M/5070.0 M :
R13  .        10. PONTO FRACO UTILIZADO  8K :
R14  .        12. DECLINAÇÃO MAGNETICA  -20.9 GRAUS :
R15  .        13. COORDENADAS BASE       :
R17  .        X   7292512.00 M           :
R18  .        Y    583936.00 M           :
R19  .        MC  45 GRAUS               :
R21  .        14. CADASTRO ANP  86316021017 :
PVER .           4.10000                 :
WDFN .        /space/expusr/3-SPS-41D/dat1a/pass/mexilhoes/i857d01.xtf :
OCT  .        i857d                      :
0S2  .        3DEX/GR                    :
OS4  .        RCI/GR                     :
#-----------------------------------------------------------------------------
~CURVE INFORMATION
#MNEM.UNIT   API CODE                                  DESCRIPTION
#---- -----  --------                                  -----------------------
DEPT .M                                                :DEPTH (BOREHOLE) {F10.4}
DEPT .M                                                : {F13.4}
GR   .GAPI                                             : {F13.4}
SPD  .M/MN                                             : {F13.4}
TTEN .LBF                                              : {F13.4}
MBVI .PU                                               : {F13.4}
MBVM .PU                                               : {F13.4}
MPHE .PU                                               : {F13.4}
MPHS .PU                                               : {F13.4}
MPRM .MD                                               : {F13.4}
TPOR[0].F/MN                                           : {AF13.4}
#-----------------------------------------------------------------------------
# 
#     DEPT        DEPT         GR           SPD          TTEN         MBVI         MBVM         MPHE         MPHS         MPRM       TPOR[0]
#
~A  
# ...
 5191.9632    5191.9632      76.5328       0.9949    6365.5272       0.3334       0.5021       0.8355       5.2490       0.0002       0.0000
 5192.1156    5192.1156      74.3586       0.9949    6339.0103       0.4204       0.4898       0.9102       5.2321       0.0001       0.0000
 5192.2680    5192.2680      71.7514       0.9965    6323.6229       0.3948       0.4484       0.8432       5.1064       0.0001       0.0000
 5192.4204    5192.4204      69.7368       0.9991    6346.6827       0.3161       0.3980       0.7142       4.9229       0.0000       0.0000
 5192.5728    5192.5728      68.2754       1.0002    6392.4727       0.3284       0.3714       0.6998       4.8211       0.0000       0.0000
 5192.7252    5192.7252      68.3042       0.9977    6417.9791       0.5427       0.3672       0.9099       4.9421       0.0000       0.0000
 5192.8776    5192.8776      71.0285       0.9941    6411.9021       0.9206       0.3547       1.2753       5.2793       0.0000       0.0000
 5193.0300    5193.0300      74.8336       0.9922    6396.8073       1.1770       0.3248       1.5018       5.5333       0.0000       0.0000
 5193.1824    5193.1824      77.2545       0.9919    6373.4283       1.0831       0.3099       1.3929       5.4831       0.0000       0.0000
 5193.3348    5193.3348      77.7196       0.9934    6342.1305       0.8342       0.3287       1.1629       5.3225       0.0000       0.0000
 5193.4872    5193.4872      76.6785       0.9975    6333.0934       0.8163       0.3592       1.1754       5.3658       0.0000       0.0000
 5193.6396    5193.6396      73.8966       0.9995    6356.4502       1.0595       0.3725       1.4319       5.5917       0.0001       0.0000
 5193.7920    5193.7920      69.7000       0.9959    6376.7061       1.2350       0.3872       1.6223       5.7585       0.0001       0.0000
 5193.9444    5193.9444      65.8925       0.9914    6361.4530       1.0836       0.4495       1.5331       5.7050       0.0001       0.0000
 5194.0968    5194.0968      63.1514       0.9905    6324.4189       0.7095       0.5608       1.2702       5.5272       0.0003       0.0000
 5194.2492    5194.2492      60.2442       0.9908    6313.2176       0.3850       0.6713       1.0563       5.4276       0.0008       0.0000
 5194.4016    5194.4016      57.3847       0.9906    6338.8596       0.2254       0.7494       0.9748       5.4244       0.0015       0.0000
 5194.5540    5194.5540      56.2760       0.9907    6364.8187       0.1625       0.8031       0.9656       5.3607       0.0025       0.0000
 5194.7064    5194.7064      57.0414       0.9939    6368.0058       0.1408       0.8485       0.9893       5.2011       0.0039       0.0000
 5194.8588    5194.8588      58.8277       0.9986    6360.5426       0.1288       0.8903       1.0190       5.0414       0.0056       0.0000
 5195.0112    5195.0112      61.2389       0.9979    6345.0108       0.1204       0.9140       1.0344       4.9368       0.0070       0.0000
 5195.1636    5195.1636      63.9294       0.9918    6333.5171       0.1218       0.8972       1.0190       4.8174       0.0066       0.0000
 5195.3160    5195.3160      66.4364       0.9879    6351.7108       0.1403       0.8362       0.9765       4.6228       0.0046       0.0000
 5195.4684    5195.4684      68.5282       0.9876    6379.1995       0.1845       0.7471       0.9316       4.3472       0.0022       0.0000
 5195.6208    5195.6208      71.1111       0.9886    6377.5899       0.2825       0.6481       0.9306       4.0782       0.0009       0.0000
 5195.7732    5195.7732      74.2749       0.9917    6349.7013       0.5226       0.5360       1.0587       3.9982       0.0003       0.0000
 5195.9256    5195.9256      76.6623       0.9932    6322.3574       0.9594       0.4253       1.3847       4.2232       0.0001       0.0000
 5196.0780    5196.0780      77.0800       0.9912    6306.8151       1.5133       0.3648       1.8781       4.6739       0.0001       0.0000
 5196.2304    5196.2304      74.7002       0.9891    6302.3761       2.0407       0.3861       2.4268       5.1834       0.0002       0.0000
 5196.3828    5196.3828      67.0738       0.9892    6297.9482       2.4312       0.4775       2.9087       5.6488       0.0004       0.0000
 5196.5352    5196.5352      55.9392       0.9909    6286.3486       2.6570       0.6456       3.3026       6.0473       0.0011       0.0000
 5196.6876    5196.6876      47.5494       0.9923    6278.4650       2.8116       0.8994       3.7110       6.3908       0.0029       0.0000
 5196.8400    5196.8400      44.6870       0.9911    6278.1700       3.0128       1.2144       4.2272       6.6947       0.0073       0.0000
 5196.9924    5196.9924      44.8755       0.9889    6277.8111       3.2104       1.5759       4.7863       6.9425       0.0173       0.0000
 5197.1448    5197.1448      47.6126       0.9892    6278.8486       3.2565       1.9891       5.2456       7.1069       0.0364       0.0000
 5197.2972    5197.2972      54.5064       0.9890    6282.3945       3.1883       2.4201       5.6085       7.2724       0.0677       0.0000
 5197.4496    5197.4496      62.3468       0.9862    6276.4816       3.1621       2.8099       5.9720       7.5077       0.1109       0.0000
 5197.6020    5197.6020      64.5498       0.9811    6261.9565       3.1936       3.1298       6.3234       7.6386       0.1627       0.0000
 5197.7544    5197.7544      60.0533       0.9756    6249.5447       3.1865       3.4000       6.5865       7.4895       0.2242       0.0000
 5197.9068    5197.9068      54.1696       0.9720    6248.8574       3.1260       3.6607       6.7867       7.2537       0.3053       0.0000
 5198.0592    5198.0592      51.0579       0.9703    6256.5731       3.0425       3.9092       6.9517       7.1617       0.3994       0.0000
 5198.2116    5198.2116      50.6250       0.9701    6257.1065       2.9610       4.0615       7.0225       7.1412       0.4647       0.0000
 5198.3640    5198.3640      51.0864       0.9719    6246.8614       2.8909       4.0623       6.9532       7.0234       0.4663       0.0000
 5198.5164    5198.5164      50.8945       0.9729    6238.2799       2.7512       3.9670       6.7182       6.7551       0.4301       0.0000
 5198.6688    5198.6688      50.0767       0.9708    6241.0337       2.4271       3.8856       6.3127       6.3357       0.4289       0.0000
 5198.8212    5198.8212      49.5998       0.9694    6243.5514       1.9558       3.8601       5.8159       5.8403       0.4928       0.0000
 5198.9736    5198.9736      49.6251       0.9692    6240.2773       1.5924       3.8240       5.4164       5.4645       0.5359       0.0000
 5199.1260    5199.1260      49.5088       0.9674    6237.9482       1.4869       3.7114       5.1983       5.3082       0.4809       0.0000
 5199.2784    5199.2784      49.0129       0.9660    6245.9646       1.5290       3.5269       5.0559       5.2665       0.3663       0.0000
 5199.4308    5199.4308      48.4350       0.9678    6255.8369       1.5560       3.3041       4.8602       5.1954       0.2658       0.0000
 5199.5832    5199.5832      48.1892       0.9698    6264.5873       1.5740       3.0515       4.6255       5.0908       0.1867       0.0000
 5199.7356    5199.7356      48.3768       0.9675    6264.9275       1.6465       2.7907       4.4372       5.0572       0.1235       0.0000
 5199.8880    5199.8880      48.7635       0.9632    6244.8305       1.8142       2.5357       4.3499       5.2153       0.0792       0.0000
 5200.0404    5200.0404      49.0065       0.9623    6217.0012       2.0491       2.2867       4.3358       5.5086       0.0498       0.0000
 5200.1928    5200.1928      49.0827       0.9637    6196.3215       2.2844       2.0688       4.3531       5.7040       0.0320       0.0000
 5200.3452    5200.3452      49.1615       0.9635    6177.7779       2.5561       1.9040       4.4601       5.7441       0.0229       0.0000
 5200.4976    5200.4976      49.2127       0.9631    6164.3798       2.9596       1.7891       4.7487       5.8156       0.0191       0.0000
