~VERSION INFORMATION
VERS.           2.0   :CWLS Log ASCII Standard - VERSION 2.0
WRAP.           NO    :One Line per depth step
PROD.  Schlumberger   :LAS Producer
PROG.  DLIS to ASCII 2.3                               :LAS Program name and version
CREA.        2023/07/14 00:15                          :LAS Creation date {YYYY/MM/DD hh:mm}
DLIS_CREA.  2023-Jul-14 00:11                          :DLIS Creation date and time {YYYY-MMM-DD hh:mm}
SOURCE.     LIS2_002.dlis                              :DLIS File Name
FILE-ID.     LIS   .002                                :File Identification Number
#--------------------------------------------------
~WELL INFORMATION
#MNEM.UNIT      DATA             DESCRIPTION
#---- ------ --------------   -----------------------------
STRT .M      5051.7552       :START DEPTH     
STOP .M      5231.7396       :STOP DEPTH     
STEP .M         0.1524       :STEP     
NULL .          -999.25      :NULL VALUE
COMP .        PETROBRAS S.A.                           :COMPANY
WELL .        3-BRSA-293D-SPS                          :WELL
FLD  .        BS-400                                   :FIELD
LOC  .        BASE SAD 69:                             :LOCATION
CNTY .        SANTOS                                   :COUNTY
STAT .        BRASIL                                   :STATE
CTRY .        BRASIL                                   :COUNTRY
API  .                                                 :API NUMBER
UWI  .                                                 :UNIQUE WELL ID
DATE .        24/10/2004                               :LOG DATE
SRVC .        Schlumberger                             :SERVICE COMPANY
LATI .DEG                                              :LATITUDE
LONG .DEG                                              :LONGITUDE
GDAT .                                                 :GeoDetic Datum
#-----------------------------------------------------------------------------
~PARAMETER INFORMATION
#MNEM.UNIT    VALUE                      DESCRIPTION
#---- -----   --------------------       ------------------------
APD  .M               24                 :
BHT  .DEGF           280                 :
BLI  .M             5225                 :
BS   .IN         8.50000                 :
CN   .        PETROBRAS S.A.             :
COUN .        SANTOS                     :
CS   .IN         9.62500                 :
DATE .        24/10/2004                 :
DFD  .LB/G      12.30000                 :
DFL  .C3               2                 :
DFPH .        N/A                        :
DFT  .        SINTETICO                  :
DFV  .S               87                 :
DMF  .        MESA ROTATIVA              :
EDF  .M               24                 :
EGL  .M             -500                 :
EKB  .        N/A                        :
ENGI .        HERNANDEZ/LOCK             :
FL1  .        X   7292392.00 M LAT 24 28 47.189 S :
FL2  .        Y    584087.00 M LON 44 10 12.698 W :
FL3  .        MC  45 GRAUS               :
FN   .        BS-400                     :
LMF  .        MESA ROTATIVA              :
LUL  .        MACAE                      :
MCSS .        PRENSA                     :
MCST .DEGF            80                 :
MFSS .        PRENSA                     :
MFST .DEGF            80                 :
MSS  .        LINHA DE FLUXO             :
MST  .DEGF            80                 :
PDAT .        NIVEL DO MAR               :
R1   .        01. APRESENTAÇÃO DE ACORDO COM REQUERIMENTO DO CLIENTE :
R2   .        02. TEMPERATURA MÁXIMA DO POÇO T1=T2= 290 DEGF @  5215 M :
R3   .        03. INICIO DA CIRCULAÇÃO  13 45 H 21/10/2004 :
R4   .        04. FINAL DA CIRCULAÇÃO   16 00 H 21/10/2004 :
R5   .        05. TEMPO TOTAL DE CIRCULAÇÃO  02 15 H :
R6   .        06. FLUIDO DE PERFURAÇÃO  SINTETICO (BR-MUL  BR-MI)  65% TEOR DO OLEO :
R7   .        07. SALINIDADE DA LAMA  266377 PPM NACL NA FASE DE AGUA :
R8   .        08. INCLINAÇÃO MÁXIMA DO POÇO  37.37 GRAUS @ 5100 M :
R9   .        09. PRIMEIRAS E ULTIMAS LEITURAS  :
RMB  .OHMM    > 10                       :
RMCS .OHMM    > 10                       :
RMFS .OHMM    > 10                       :
RMS  .OHMM    > 10                       :
RUN  .                 1                 :
STAT .        BRASIL                     :
TCS  .        16 00 H                    :
TDD  .M             5230                 :
TDL  .        NR                         :
TLAB .        N/A                        :
TLI  .M             5070                 :
WITN .        ALCIDIO/VLADIMIR           :
WN   .        3-BRSA-293D-SPS            :
LUN  .              8808                 :
HIDE .        3-SPS-41D                  :
HID2 .        MAGNETIC RESONANCE         :
HID3 .        EXPLORER LOG               :
HID4 .        GAMMA RAY LOG              :
CLAB .        BACIA                      :
SLAB .        PAIS                       :
CMT1 .        ESC  1 200                 :
CMT2 .        PROF. MEDIDA               :
CMT4 .        SONDA  SS-43               :
HDAT .        SAD 69                     :
FL   .        BASE SAD 69                :
OS1  .        HDIL/XMAC/GR               :
OS3  .        ZDL/CN/GR                  :
OS5  .        SL/GR                      :
LNAM .        MREX/ZDL/CN/XMAC/HDIL/3DEX/RCI/SL/GR :
TOOL .        MREX/ZDL/CN/XMAC/HDIL/3DEX/RCI/SL/GR :
LSOU .        PETROBRAS                  :
LSRV .        OH WIRELINE                :
LTYP .        RAW                        :
EPD  .M                0                 :
LDAT .        24/10/2004                 :
TRIP .                 1                 :
SON  .            783148                 :
CBDR .M             4277                 :
CBLO .        NR                         :
STEM .DEGF    N/A                        :
BSAL .            266377                 :
BARI .        OFF                        :
DLAB .        21/10/2004                 :
MRT  .DEGF           290                 :
TSTR .        MRIL/GR                    :
TSTG .        N/A                        :
STUS .        FINAL                      :
LCNM .        BAKER ATLAS                :
LCC  .               150                 :
NATI .        BRASIL                     :
OPMD .        OH.WIRELINE                :
PANA .        HERNANDEZ/LOCK             :
PCON .        BAKER ATLAS                :
R11  .        MREX     5225.0 M/5070.0 M :
R13  .        10. PONTO FRACO UTILIZADO  8K :
R14  .        12. DECLINAÇÃO MAGNETICA  -20.9 GRAUS :
R15  .        13. COORDENADAS BASE       :
R17  .        X   7292512.00 M           :
R18  .        Y    583936.00 M           :
R19  .        MC  45 GRAUS               :
R21  .        14. CADASTRO ANP  86316021017 :
PVER .           4.10000                 :
WDFN .        /space/expusr/3-SPS-41D/dat1a/pass/mexilhoes/i857d04.aff :
OCT  .        i857d                      :
0S2  .        3DEX/GR                    :
OS4  .        RCI/GR                     :
#-----------------------------------------------------------------------------
~CURVE INFORMATION
#MNEM.UNIT   API CODE                                  DESCRIPTION
#---- -----  --------                                  -----------------------
DEPT .M                                                :DEPTH (BOREHOLE) {F10.4}
DEPT .M                                                : {F13.4}
GR   .GAPI                                             : {F13.4}
SPD  .M/MN                                             : {F13.4}
TTEN .LBF                                              : {F13.4}
MBVI .PU                                               : {F13.4}
MBVM .PU                                               : {F13.4}
MPHE .PU                                               : {F13.4}
MPHS .PU                                               : {F13.4}
MPRM .MD                                               : {F13.4}
TPOR[0].                                               : {AF13.4}
#-----------------------------------------------------------------------------
# 
#     DEPT        DEPT         GR           SPD          TTEN         MBVI         MBVM         MPHE         MPHS         MPRM       TPOR[0]
#
~A  
# ...
 5164.6836    5164.6836      61.1110       1.0348    5922.8760       4.2996       9.5955      13.8950      13.8950      20.9477       0.0000
 5164.8360    5164.8360      58.9662       1.0448    5926.2877       3.4644       9.9371      13.4015      13.4015      30.2597       0.0000
 5164.9884    5164.9884      56.7466       1.0500    5906.3784       2.8356      10.2351      13.0708      13.0708      41.5450       0.0000
 5165.1408    5165.1408      55.3146       1.0444    5878.0559       2.4515      10.4151      12.8666      12.8666      51.3175       0.0000
 5165.2932    5165.2932      54.9602       1.0394    5867.5933       2.2404      10.4551      12.6955      12.6955      57.0884       0.0000
 5165.4456    5165.4456      55.9195       1.0437    5873.9004       2.1405      10.4067      12.5472      12.5472      58.7490       0.0000
 5165.5980    5165.5980      58.1612       1.0499    5875.6560       2.1036      10.3350      12.4386      12.4386      57.8672       0.0000
 5165.7504    5165.7504      61.0410       1.0508    5881.0479       2.0939      10.2418      12.3357      12.3357      55.7026       0.0000
 5165.9028    5165.9028      63.3904       1.0492    5894.5775       2.1336      10.0592      12.1928      12.1928      50.4599       0.0000
 5166.0552    5166.0552      64.5527       1.0496    5896.3940       2.2825       9.7679      12.0504      12.0504      41.0325       0.0000
 5166.2076    5166.2076      64.5349       1.0501    5883.7287       2.5327       9.4522      11.9850      11.9850      30.6775       0.0000
 5166.3600    5166.3600      63.7875       1.0469    5883.7177       2.7928       9.2174      12.0102      12.0102      23.5285       0.0000
 5166.5124    5166.5124      62.9888       1.0415    5905.6904       2.9813       9.0999      12.0812      12.0812      20.0781       0.0000
 5166.6648    5166.6648      62.8675       1.0397    5925.7955       3.0596       9.0797      12.1394      12.1394      19.1643       0.0000
 5166.8172    5166.8172      63.9322       1.0396    5932.8601       3.0523       9.0864      12.1387      12.1387      19.2692       0.0000
 5166.9696    5166.9696      65.1592       1.0393    5936.8653       3.0522       9.0247      12.0769      12.0769      18.7792       0.0000
 5167.1220    5167.1220      64.9904       1.0411    5936.4180       3.1672       8.8371      12.0042      12.0042      16.6617       0.0000
 5167.2744    5167.2744      63.2720       1.0430    5929.0479       3.4027       8.5676      11.9703      11.9703      13.5476       0.0000
 5167.4268    5167.4268      61.2688       1.0426    5918.2246       3.6092       8.3230      11.9322      11.9322      11.0198       0.0000
 5167.5792    5167.5792      60.2351       1.0440    5898.3154       3.6275       8.1647      11.7922      11.7922       9.8682       0.0000
 5167.7316    5167.7316      60.8753       1.0463    5874.0946       3.4587       8.0526      11.5113      11.5114       9.5585       0.0000
 5167.8840    5167.8840      61.8980       1.0433    5864.4046       3.2138       7.9261      11.1399      11.1423       9.4077       0.0000
 5168.0364    5168.0364      61.6866       1.0361    5864.1282       2.9806       7.7761      10.7567      10.7659       9.1500       0.0000
 5168.1888    5168.1888      61.0222       1.0351    5860.7540       2.8206       7.6383      10.4589      10.4762       8.8047       0.0000
 5168.3412    5168.3412      61.3725       1.0456    5868.4423       2.7636       7.5323      10.2959      10.3177       8.3861       0.0000
 5168.4936    5168.4936      62.1805       1.0612    5892.1540       2.7159       7.4875      10.2034      10.2265       8.3119       0.0000
 5168.6460    5168.6460      62.5903       1.0716    5913.3609       2.5734       7.4977      10.0711      10.0952       8.8678       0.0000
 5168.7984    5168.7984      62.8359       1.0738    5924.8899       2.3596       7.4864       9.8460       9.8722       9.5828       0.0000
 5168.9508    5168.9508      63.1199       1.0733    5931.1356       2.1636       7.3671       9.5307       9.5623       9.6421       0.0000
 5169.1032    5169.1032      63.2889       1.0747    5926.4077       2.0211       7.1428       9.1639       9.2055       8.8888       0.0000
 5169.2556    5169.2556      63.3814       1.0759    5910.3332       1.9262       6.8664       8.7925       8.8446       7.6951       0.0000
 5169.4080    5169.4080      63.1732       1.0742    5899.2889       1.8694       6.5699       8.4393       8.4940       6.3977       0.0000
 5169.5604    5169.5604      61.9650       1.0722    5898.8277       1.8208       6.2671       8.0879       8.1351       5.1899       0.0000
 5169.7128    5169.7128      59.8341       1.0751    5902.6800       1.7406       5.9709       7.7115       7.7466       4.2515       0.0000
 5169.8652    5169.8652      58.0109       1.0811    5909.9697       1.6913       5.6779       7.3692       7.3917       3.4681       0.0000
 5170.0176    5170.0176      57.3601       1.0824    5919.6172       1.7756       5.3990       7.1745       7.1852       2.6486       0.0000
 5170.1700    5170.1700      57.3683       1.0773    5915.9701       1.9513       5.1737       7.1249       7.1278       1.9317       0.0000
 5170.3224    5170.3224      57.4926       1.0730    5894.5289       2.0096       5.0289       7.0385       7.0388       1.5814       0.0000
 5170.4748    5170.4748      57.9763       1.0745    5869.9042       1.8579       4.9563       6.8142       6.8142       1.5845       0.0000
 5170.6272    5170.6272      60.0303       1.0765    5853.1723       1.5983       4.9464       6.5447       6.5447       1.8820       0.0000
 5170.7796    5170.7796      63.2461       1.0750    5842.8349       1.3295       5.0073       6.3368       6.3368       2.6780       0.0000
 5170.9320    5170.9320      64.4891       1.0695    5835.9759       1.0834       5.1243       6.2077       6.2077       3.8819       0.0000
 5171.0844    5171.0844      62.1400       1.0621    5834.7913       0.9471       5.2638       6.2109       6.2110       4.8725       0.0000
 5171.2368    5171.2368      58.9509       1.0569    5847.8105       0.9963       5.4372       6.4335       6.4342       5.2311       0.0000
 5171.3892    5171.3892      57.2571       1.0546    5881.3318       1.1885       5.7047       6.8932       6.8947       5.3811       0.0000
 5171.5416    5171.5416      56.2475       1.0538    5923.0251       1.4434       6.0961       7.5396       7.5411       5.9543       0.0000
 5171.6940    5171.6940      55.1811       1.0570    5949.5367       1.7359       6.5921       8.3280       8.3287       7.1784       0.0000
 5171.8464    5171.8464      54.3905       1.0630    5957.5662       1.9809       7.1419       9.1228       9.1229       9.5996       0.0000
 5171.9988    5171.9988      54.1106       1.0656    5957.3148       2.0794       7.7022       9.7816       9.7816      13.7198       0.0000
 5172.1512    5172.1512      54.4000       1.0657    5948.3304       2.1693       8.2382      10.4076      10.4076      17.9422       0.0000
 5172.3036    5172.3036      55.0114       1.0681    5930.4611       2.4846       8.7056      11.1902      11.1902      20.0066       0.0000
 5172.4560    5172.4561      54.9513       1.0740    5917.3242       2.9816       9.0791      12.0607      12.0607      20.1807       0.0000
 5172.6084    5172.6084      53.9602       1.0791    5919.2842       3.3423       9.3620      12.7043      12.7043      20.7290       0.0000
 5172.7608    5172.7607      53.3266       1.0768    5924.1191       3.4236       9.5497      12.9733      12.9733      22.2295       0.0000
 5172.9132    5172.9132      53.5146       1.0730    5915.8339       3.3366       9.6259      12.9625      12.9625      23.5857       0.0000
 5173.0656    5173.0656      53.6332       1.0756    5890.9373       3.1997       9.5744      12.7741      12.7742      23.9090       0.0000
 5173.2180    5173.2180      52.8638       1.0823    5864.3472       2.9957       9.3756      12.3713      12.3835      23.1616       0.0000
