~VERSION INFORMATION
VERS.           2.0   :CWLS Log ASCII Standard - VERSION 2.0
WRAP.           NO    :One Line per depth step
PROD.  Schlumberger   :LAS Producer
PROG.  DLIS to ASCII 2.3                               :LAS Program name and version
CREA.        2023/07/14 00:15                          :LAS Creation date {YYYY/MM/DD hh:mm}
DLIS_CREA.  2023-Jul-14 00:11                          :DLIS Creation date and time {YYYY-MMM-DD hh:mm}
SOURCE.     LIS2_002.dlis                              :DLIS File Name
FILE-ID.     LIS   .002                                :File Identification Number
#--------------------------------------------------
~WELL INFORMATION
#MNEM.UNIT      DATA             DESCRIPTION
#---- ------ --------------   -----------------------------
STRT .M      5051.7552       :START DEPTH     
STOP .M      5231.7396       :STOP DEPTH     
STEP .M         0.1524       :STEP     
NULL .          -999.25      :NULL VALUE
COMP .        PETROBRAS S.A.                           :COMPANY
WELL .        3-BRSA-293D-SPS                          :WELL
FLD  .        BS-400                                   :FIELD
LOC  .        BASE SAD 69:                             :LOCATION
CNTY .        SANTOS                                   :COUNTY
STAT .        BRASIL                                   :STATE
CTRY .        BRASIL                                   :COUNTRY
API  .                                                 :API NUMBER
UWI  .                                                 :UNIQUE WELL ID
DATE .        24/10/2004                               :LOG DATE
SRVC .        Schlumberger                             :SERVICE COMPANY
LATI .DEG                                              :LATITUDE
LONG .DEG                                              :LONGITUDE
GDAT .                                                 :GeoDetic Datum
#-----------------------------------------------------------------------------
~PARAMETER INFORMATION
#MNEM.UNIT    VALUE                      DESCRIPTION
#---- -----   --------------------       ------------------------
APD  .M               24                 :
BHT  .DEGF           280                 :
BLI  .M             5225                 :
BS   .IN         8.50000                 :
CN   .        PETROBRAS S.A.             :
COUN .        SANTOS                     :
CS   .IN         9.62500                 :
DATE .        24/10/2004                 :
DFD  .LB/G      12.30000                 :
DFL  .C3               2                 :
DFPH .        N/A                        :
DFT  .        SINTETICO                  :
DFV  .S               87                 :
DMF  .        MESA ROTATIVA              :
EDF  .M               24                 :
EGL  .M             -500                 :
EKB  .        N/A                        :
ENGI .        HERNANDEZ/LOCK             :
FL1  .        X   7292392.00 M LAT 24 28 47.189 S :
FL2  .        Y    584087.00 M LON 44 10 12.698 W :
FL3  .        MC  45 GRAUS               :
FN   .        BS-400                     :
LMF  .        MESA ROTATIVA              :
LUL  .        MACAE                      :
MCSS .        PRENSA                     :
MCST .DEGF            80                 :
MFSS .        PRENSA                     :
MFST .DEGF            80                 :
MSS  .        LINHA DE FLUXO             :
MST  .DEGF            80                 :
PDAT .        NIVEL DO MAR               :
R1   .        01. APRESENTAÇÃO DE ACORDO COM REQUERIMENTO DO CLIENTE :
R2   .        02. TEMPERATURA MÁXIMA DO POÇO T1=T2= 290 DEGF @  5215 M :
R3   .        03. INICIO DA CIRCULAÇÃO  13 45 H 21/10/2004 :
R4   .        04. FINAL DA CIRCULAÇÃO   16 00 H 21/10/2004 :
R5   .        05. TEMPO TOTAL DE CIRCULAÇÃO  02 15 H :
R6   .        06. FLUIDO DE PERFURAÇÃO  SINTETICO (BR-MUL  BR-MI)  65% TEOR DO OLEO :
R7   .        07. SALINIDADE DA LAMA  266377 PPM NACL NA FASE DE AGUA :
R8   .        08. INCLINAÇÃO MÁXIMA DO POÇO  37.37 GRAUS @ 5100 M :
R9   .        09. PRIMEIRAS E ULTIMAS LEITURAS  :
RMB  .OHMM    > 10                       :
RMCS .OHMM    > 10                       :
RMFS .OHMM    > 10                       :
RMS  .OHMM    > 10                       :
RUN  .                 1                 :
STAT .        BRASIL                     :
TCS  .        16 00 H                    :
TDD  .M             5230                 :
TDL  .        NR                         :
TLAB .        N/A                        :
TLI  .M             5070                 :
WITN .        ALCIDIO/VLADIMIR           :
WN   .        3-BRSA-293D-SPS            :
LUN  .              8808                 :
HIDE .        3-SPS-41D                  :
HID2 .        MAGNETIC RESONANCE         :
HID3 .        EXPLORER LOG               :
HID4 .        GAMMA RAY LOG              :
CLAB .        BACIA                      :
SLAB .        PAIS                       :
CMT1 .        ESC  1 200                 :
CMT2 .        PROF. MEDIDA               :
CMT4 .        SONDA  SS-43               :
HDAT .        SAD 69                     :
FL   .        BASE SAD 69                :
OS1  .        HDIL/XMAC/GR               :
OS3  .        ZDL/CN/GR                  :
OS5  .        SL/GR                      :
LNAM .        MREX/ZDL/CN/XMAC/HDIL/3DEX/RCI/SL/GR :
TOOL .        MREX/ZDL/CN/XMAC/HDIL/3DEX/RCI/SL/GR :
LSOU .        PETROBRAS                  :
LSRV .        OH WIRELINE                :
LTYP .        RAW                        :
EPD  .M                0                 :
LDAT .        24/10/2004                 :
TRIP .                 1                 :
SON  .            783148                 :
CBDR .M             4277                 :
CBLO .        NR                         :
STEM .DEGF    N/A                        :
BSAL .            266377                 :
BARI .        OFF                        :
DLAB .        21/10/2004                 :
MRT  .DEGF           290                 :
TSTR .        MRIL/GR                    :
TSTG .        N/A                        :
STUS .        FINAL                      :
LCNM .        BAKER ATLAS                :
LCC  .               150                 :
NATI .        BRASIL                     :
OPMD .        OH.WIRELINE                :
PANA .        HERNANDEZ/LOCK             :
PCON .        BAKER ATLAS                :
R11  .        MREX     5225.0 M/5070.0 M :
R13  .        10. PONTO FRACO UTILIZADO  8K :
R14  .        12. DECLINAÇÃO MAGNETICA  -20.9 GRAUS :
R15  .        13. COORDENADAS BASE       :
R17  .        X   7292512.00 M           :
R18  .        Y    583936.00 M           :
R19  .        MC  45 GRAUS               :
R21  .        14. CADASTRO ANP  86316021017 :
PVER .           4.10000                 :
WDFN .        /space/expusr/3-SPS-41D/dat1a/pass/mexilhoes/i857d04.aff :
OCT  .        i857d                      :
0S2  .        3DEX/GR                    :
OS4  .        RCI/GR                     :
#-----------------------------------------------------------------------------
~CURVE INFORMATION
#MNEM.UNIT   API CODE                                  DESCRIPTION
#---- -----  --------                                  -----------------------
DEPT .M                                                :DEPTH (BOREHOLE) {F10.4}
DEPT .M                                                : {F13.4}
GR   .GAPI                                             : {F13.4}
SPD  .M/MN                                             : {F13.4}
TTEN .LBF                                              : {F13.4}
MBVI .PU                                               : {F13.4}
MBVM .PU                                               : {F13.4}
MPHE .PU                                               : {F13.4}
MPHS .PU                                               : {F13.4}
MPRM .MD                                               : {F13.4}
TPOR[0].                                               : {AF13.4}
#-----------------------------------------------------------------------------
# 
#     DEPT        DEPT         GR           SPD          TTEN         MBVI         MBVM         MPHE         MPHS         MPRM       TPOR[0]
#
~A  
# ...
 5121.2496    5121.2496      67.9331       0.9821    6334.3650       0.4964       0.8584       1.3548       6.2613       0.0014       0.0000
 5121.4020    5121.4020      61.9236       0.9821    6293.8240       0.5228       0.9738       1.4965       5.8753       0.0019       0.0000
 5121.5544    5121.5544      57.9401       0.9797    6246.6741       0.6411       1.0206       1.6617       5.5450       0.0021       0.0000
 5121.7068    5121.7068      57.9695       0.9816    6222.9641       0.8395       1.0356       1.8751       5.4048       0.0020       0.0000
 5121.8592    5121.8592      60.2685       0.9877    6220.8481       1.0439       1.0546       2.0985       5.4512       0.0020       0.0000
 5122.0116    5122.0116      63.3161       0.9910    6223.5433       1.0792       1.0576       2.1368       5.4857       0.0021       0.0000
 5122.1640    5122.1640      65.9511       0.9885    6222.8455       0.8226       0.9930       1.8156       5.3286       0.0021       0.0000
 5122.3164    5122.3164      67.2673       0.9841    6222.8037       0.4203       0.8509       1.2711       5.0712       0.0019       0.0000
 5122.4688    5122.4688      67.5827       0.9818    6244.2842       0.1685       0.6858       0.8543       4.9739       0.0015       0.0000
 5122.6212    5122.6212      67.4361       0.9826    6283.9390       0.2231       0.5576       0.7807       5.1616       0.0008       0.0000
 5122.7736    5122.7736      67.0727       0.9855    6309.1536       0.5136       0.4806       0.9942       5.5246       0.0003       0.0000
 5122.9260    5122.9260      65.9599       0.9885    6301.5500       0.8910       0.4442       1.3352       5.8805       0.0001       0.0000
 5123.0784    5123.0784      64.1798       0.9896    6279.9453       1.1934       0.4260       1.6194       6.0897       0.0001       0.0000
 5123.2308    5123.2308      63.7633       0.9917    6259.7828       1.4080       0.3953       1.8033       6.1853       0.0001       0.0000
 5123.3832    5123.3832      65.2509       0.9953    6233.7697       1.7097       0.3428       2.0525       6.3695       0.0001       0.0000
 5123.5356    5123.5356      66.5638       0.9976    6202.1622       2.2255       0.2832       2.5087       6.7650       0.0001       0.0000
 5123.6880    5123.6880      66.4807       0.9993    6203.6666       2.7507       0.2366       2.9873       7.1222       0.0001       0.0000
 5123.8404    5123.8404      66.4699       0.9988    6252.8973       2.9031       0.2240       3.1271       7.0292       0.0001       0.0000
 5123.9928    5123.9928      66.9087       0.9942    6297.8662       2.5276       0.2790       2.8066       6.4229       0.0001       0.0000
 5124.1452    5124.1452      67.0365       0.9902    6290.1581       1.8441       0.3905       2.2346       5.6579       0.0001       0.0000
 5124.2976    5124.2976      66.4386       0.9905    6264.1511       1.2246       0.4903       1.7149       5.1347       0.0001       0.0000
 5124.4500    5124.4500      65.2615       0.9914    6265.8427       0.9257       0.5380       1.4637       5.0369       0.0002       0.0000
 5124.6024    5124.6024      64.0267       0.9890    6275.9541       0.9794       0.5624       1.5418       5.3306       0.0002       0.0000
 5124.7548    5124.7548      64.2835       0.9874    6273.4429       1.1312       0.6114       1.7426       5.7051       0.0003       0.0000
 5124.9072    5124.9072      66.7493       0.9906    6271.4111       1.0987       0.7059       1.8046       5.8674       0.0005       0.0000
 5125.0596    5125.0596      69.6811       0.9951    6267.2412       0.9515       0.8174       1.7689       5.9310       0.0008       0.0000
 5125.2120    5125.2120      71.1396       0.9956    6245.4445       0.9918       0.8909       1.8828       6.2201       0.0011       0.0000
 5125.3644    5125.3644      71.4219       0.9946    6243.5257       1.3739       0.9064       2.2804       6.8294       0.0013       0.0000
 5125.5168    5125.5168      71.0378       0.9939    6291.2173       2.1609       0.8987       3.0597       7.7114       0.0017       0.0000
 5125.6692    5125.6692      69.9865       0.9892    6350.3125       3.4282       0.9126       4.3408       8.8391       0.0030       0.0000
 5125.8216    5125.8216      69.0136       0.9835    6366.0715       4.8779       0.9806       5.8585       9.9412       0.0056       0.0000
 5125.9740    5125.9740      68.8509       0.9814    6351.2255       5.9981       1.1319       7.1300      10.6638       0.0114       0.0000
 5126.1264    5126.1264      68.9220       0.9804    6333.4082       6.6038       1.4279       8.0318      10.9761       0.0261       0.0000
 5126.2788    5126.2788      68.9963       0.9776    6301.9335       6.8796       1.8990       8.7787      11.1195       0.0615       0.0000
 5126.4312    5126.4312      71.0160       0.9748    6252.2470       6.9638       2.5001       9.4639      11.2251       0.1334       0.0000
 5126.5836    5126.5836      76.0807       0.9763    6207.4407       6.8799       3.2027      10.0826      11.3222       0.2930       0.0000
 5126.7360    5126.7360      81.0775       0.9830    6170.3159       6.5974       4.0619      10.6593      11.4360       0.6512       0.0000
 5126.8884    5126.8884      80.0295       0.9887    6137.7192       6.0979       5.0399      11.1378      11.5529       1.3798       0.0000
 5127.0408    5127.0408      71.7504       0.9893    6142.7640       5.3952       6.0266      11.4218      11.6238       2.7746       0.0000
 5127.1932    5127.1932      63.0196       0.9887    6189.2439       4.5525       6.9528      11.5053      11.6214       5.3571       0.0000
 5127.3456    5127.3456      59.8756       0.9879    6231.4848       3.8273       7.7516      11.5789      11.6586       8.7336       0.0000
 5127.4980    5127.4980      61.1109       0.9846    6229.4033       3.5398       8.3067      11.8465      11.9000      11.4266       0.0000
 5127.6504    5127.6504      62.7660       0.9823    6205.1934       3.7128       8.5903      12.3031      12.3346      12.4092       0.0000
 5127.8028    5127.8028      63.9084       0.9847    6208.8632       4.0614       8.6653      12.7267      12.7422      12.0641       0.0000
 5127.9552    5127.9552      64.4062       0.9860    6249.1523       4.3186       8.5741      12.8927      12.8987      11.0272       0.0000
 5128.1076    5128.1076      63.4206       0.9818    6275.1369       4.4281       8.3065      12.7346      12.7359       9.4622       0.0000
 5128.2600    5128.2600      61.4662       0.9768    6271.2474       4.4076       7.8902      12.2978      12.2979       7.5686       0.0000
 5128.4124    5128.4124      60.4001       0.9779    6272.3895       4.2331       7.4105      11.6436      11.6436       5.8143       0.0000
 5128.5648    5128.5648      60.4851       0.9824    6278.3130       3.8630       6.9205      10.7836      10.7856       4.4836       0.0000
 5128.7172    5128.7172      60.3117       0.9888    6261.3211       3.3587       6.3927       9.7514       9.7694       3.4232       0.0000
 5128.8696    5128.8696      59.2004       0.9998    6228.9185       2.8409       5.7896       8.6305       8.7445       2.4775       0.0000
 5129.0220    5129.0220      58.3797       1.0091    6221.2942       2.3773       5.1141       7.4914       7.8911       1.6299       0.0000
 5129.1744    5129.1744      59.2726       1.0089    6249.6365       1.9625       4.4182       6.3807       7.3422       0.9715       0.0000
 5129.3268    5129.3268      61.5289       1.0071    6273.0308       1.6218       3.7555       5.3773       7.0848       0.5395       0.0000
 5129.4792    5129.4792      63.1484       1.0098    6265.2553       1.4057       3.0919       4.4976       6.9523       0.2757       0.0000
 5129.6316    5129.6316      63.3229       1.0101    6257.6234       1.3339       2.4220       3.7559       6.8291       0.1177       0.0000
 5129.7840    5129.7840      62.5612       1.0089    6299.9962       1.3282       1.7993       3.1276       6.7377       0.0383       0.0000
