~VERSION INFORMATION
VERS.           2.0   :CWLS Log ASCII Standard - VERSION 2.0
WRAP.           NO    :One Line per depth step
PROD.  Schlumberger   :LAS Producer
PROG.  DLIS to ASCII 2.3                               :LAS Program name and version
CREA.        2023/07/14 00:15                          :LAS Creation date {YYYY/MM/DD hh:mm}
DLIS_CREA.  2023-Jul-14 00:11                          :DLIS Creation date and time {YYYY-MMM-DD hh:mm}
SOURCE.     LIS2_002.dlis                              :DLIS File Name
FILE-ID.     LIS   .002                                :File Identification Number
#--------------------------------------------------
~WELL INFORMATION
#MNEM.UNIT      DATA             DESCRIPTION
#---- ------ --------------   -----------------------------
STRT .M      5051.7552       :START DEPTH     
STOP .M      5231.7396       :STOP DEPTH     
STEP .M         0.1524       :STEP     
NULL .          -999.25      :NULL VALUE
COMP .        PETROBRAS S.A.                           :COMPANY
WELL .        3-BRSA-293D-SPS                          :WELL
FLD  .        BS-400                                   :FIELD
LOC  .        BASE SAD 69:                             :LOCATION
CNTY .        SANTOS                                   :COUNTY
STAT .        BRASIL                                   :STATE
CTRY .        BRASIL                                   :COUNTRY
API  .                                                 :API NUMBER
UWI  .                                                 :UNIQUE WELL ID
DATE .        24/10/2004                               :LOG DATE
SRVC .        Schlumberger                             :SERVICE COMPANY
LATI .DEG                                              :LATITUDE
LONG .DEG                                              :LONGITUDE
GDAT .                                                 :GeoDetic Datum
#-----------------------------------------------------------------------------
~PARAMETER INFORMATION
#MNEM.UNIT    VALUE                      DESCRIPTION
#---- -----   --------------------       ------------------------
APD  .M               24                 :
BHT  .DEGF           280                 :
BLI  .M             5225                 :
BS   .IN         8.50000                 :
CN   .        PETROBRAS S.A.             :
COUN .        SANTOS                     :
CS   .IN         9.62500                 :
DATE .        24/10/2004                 :
DFD  .LB/G      12.30000                 :
DFL  .C3               2                 :
DFPH .        N/A                        :
DFT  .        SINTETICO                  :
DFV  .S               87                 :
DMF  .        MESA ROTATIVA              :
EDF  .M               24                 :
EGL  .M             -500                 :
EKB  .        N/A                        :
ENGI .        HERNANDEZ/LOCK             :
FL1  .        X   7292392.00 M LAT 24 28 47.189 S :
FL2  .        Y    584087.00 M LON 44 10 12.698 W :
FL3  .        MC  45 GRAUS               :
FN   .        BS-400                     :
LMF  .        MESA ROTATIVA              :
LUL  .        MACAE                      :
MCSS .        PRENSA                     :
MCST .DEGF            80                 :
MFSS .        PRENSA                     :
MFST .DEGF            80                 :
MSS  .        LINHA DE FLUXO             :
MST  .DEGF            80                 :
PDAT .        NIVEL DO MAR               :
R1   .        01. APRESENTAÇÃO DE ACORDO COM REQUERIMENTO DO CLIENTE :
R2   .        02. TEMPERATURA MÁXIMA DO POÇO T1=T2= 290 DEGF @  5215 M :
R3   .        03. INICIO DA CIRCULAÇÃO  13 45 H 21/10/2004 :
R4   .        04. FINAL DA CIRCULAÇÃO   16 00 H 21/10/2004 :
R5   .        05. TEMPO TOTAL DE CIRCULAÇÃO  02 15 H :
R6   .        06. FLUIDO DE PERFURAÇÃO  SINTETICO (BR-MUL  BR-MI)  65% TEOR DO OLEO :
R7   .        07. SALINIDADE DA LAMA  266377 PPM NACL NA FASE DE AGUA :
R8   .        08. INCLINAÇÃO MÁXIMA DO POÇO  37.37 GRAUS @ 5100 M :
R9   .        09. PRIMEIRAS E ULTIMAS LEITURAS  :
RMB  .OHMM    > 10                       :
RMCS .OHMM    > 10                       :
RMFS .OHMM    > 10                       :
RMS  .OHMM    > 10                       :
RUN  .                 1                 :
STAT .        BRASIL                     :
TCS  .        16 00 H                    :
TDD  .M             5230                 :
TDL  .        NR                         :
TLAB .        N/A                        :
TLI  .M             5070                 :
WITN .        ALCIDIO/VLADIMIR           :
WN   .        3-BRSA-293D-SPS            :
LUN  .              8808                 :
HIDE .        3-SPS-41D                  :
HID2 .        MAGNETIC RESONANCE         :
HID3 .        EXPLORER LOG               :
HID4 .        GAMMA RAY LOG              :
CLAB .        BACIA                      :
SLAB .        PAIS                       :
CMT1 .        ESC  1 200                 :
CMT2 .        PROF. MEDIDA               :
CMT4 .        SONDA  SS-43               :
HDAT .        SAD 69                     :
FL   .        BASE SAD 69                :
OS1  .        HDIL/XMAC/GR               :
OS3  .        ZDL/CN/GR                  :
OS5  .        SL/GR                      :
LNAM .        MREX/ZDL/CN/XMAC/HDIL/3DEX/RCI/SL/GR :
TOOL .        MREX/ZDL/CN/XMAC/HDIL/3DEX/RCI/SL/GR :
LSOU .        PETROBRAS                  :
LSRV .        OH WIRELINE                :
LTYP .        RAW                        :
EPD  .M                0                 :
LDAT .        24/10/2004                 :
TRIP .                 1                 :
SON  .            783148                 :
CBDR .M             4277                 :
CBLO .        NR                         :
STEM .DEGF    N/A                        :
BSAL .            266377                 :
BARI .        OFF                        :
DLAB .        21/10/2004                 :
MRT  .DEGF           290                 :
TSTR .        MRIL/GR                    :
TSTG .        N/A                        :
STUS .        FINAL                      :
LCNM .        BAKER ATLAS                :
LCC  .               150                 :
NATI .        BRASIL                     :
OPMD .        OH.WIRELINE                :
PANA .        HERNANDEZ/LOCK             :
PCON .        BAKER ATLAS                :
R11  .        MREX     5225.0 M/5070.0 M :
R13  .        10. PONTO FRACO UTILIZADO  8K :
R14  .        12. DECLINAÇÃO MAGNETICA  -20.9 GRAUS :
R15  .        13. COORDENADAS BASE       :
R17  .        X   7292512.00 M           :
R18  .        Y    583936.00 M           :
R19  .        MC  45 GRAUS               :
R21  .        14. CADASTRO ANP  86316021017 :
PVER .           4.10000                 :
WDFN .        /space/expusr/3-SPS-41D/dat1a/pass/mexilhoes/i857d04.aff :
OCT  .        i857d                      :
0S2  .        3DEX/GR                    :
OS4  .        RCI/GR                     :
#-----------------------------------------------------------------------------
~CURVE INFORMATION
#MNEM.UNIT   API CODE                                  DESCRIPTION
#---- -----  --------                                  -----------------------
DEPT .M                                                :DEPTH (BOREHOLE) {F10.4}
DEPT .M                                                : {F13.4}
GR   .GAPI                                             : {F13.4}
SPD  .M/MN                                             : {F13.4}
TTEN .LBF                                              : {F13.4}
MBVI .PU                                               : {F13.4}
MBVM .PU                                               : {F13.4}
MPHE .PU                                               : {F13.4}
MPHS .PU                                               : {F13.4}
MPRM .MD                                               : {F13.4}
TPOR[0].                                               : {AF13.4}
#-----------------------------------------------------------------------------
# 
#     DEPT        DEPT         GR           SPD          TTEN         MBVI         MBVM         MPHE         MPHS         MPRM       TPOR[0]
#
~A  
# ...
 5173.3704    5173.3704      51.0900       1.0872    5849.6015       2.7672       8.9679      11.7350      11.8158      20.5339       0.0000
 5173.5228    5173.5228      49.1048       1.0866    5858.6704       2.5742       8.3142      10.8884      11.1283      15.7492       0.0000
 5173.6752    5173.6752      48.0854       1.0805    5882.8679       2.3742       7.4793       9.8535      10.3152      10.4044       0.0000
 5173.8276    5173.8276      50.3401       1.0764    5906.3888       2.0998       6.5844       8.6842       9.3525       6.3007       0.0000
 5173.9800    5173.9800      59.2076       1.0771    5923.9183       1.7908       5.6940       7.4848       8.2780       3.6828       0.0000
 5174.1324    5174.1324      71.9241       1.0793    5935.3689       1.5159       4.7973       6.3133       7.1477       2.0263       0.0000
 5174.2848    5174.2848      80.7646       1.0829    5938.2626       1.2735       3.8902       5.1637       6.0523       0.9634       0.0000
 5174.4372    5174.4372      83.6914       1.0890    5928.8090       1.0406       3.0088       4.0495       5.1361       0.3768       0.0000
 5174.5896    5174.5896      84.1468       1.0938    5914.8520       0.8614       2.2004       3.0617       4.5393       0.1277       0.0000
 5174.7420    5174.7420      83.8670       1.0913    5903.5376       0.8175       1.4956       2.3131       4.2798       0.0351       0.0000
 5174.8944    5174.8944      83.6989       1.0799    5904.6138       0.9126       0.9578       1.8703       4.2403       0.0073       0.0000
 5175.0468    5175.0468      84.4082       1.0676    5918.6521       1.0782       0.6310       1.7092       4.2623       0.0010       0.0000
 5175.1992    5175.1992      85.8457       1.0632    5936.7373       1.2740       0.4999       1.7739       4.3214       0.0002       0.0000
 5175.3516    5175.3516      87.4519       1.0668    5944.0557       1.5395       0.5391       2.0786       4.5574       0.0004       0.0000
 5175.5040    5175.5040      87.8356       1.0728    5956.2812       1.9117       0.7367       2.6484       5.0792       0.0016       0.0000
 5175.6564    5175.6564      84.6468       1.0753    6001.2938       2.3454       1.0585       3.4039       5.7754       0.0048       0.0000
 5175.8088    5175.8088      77.2040       1.0740    6055.6154       2.7481       1.4400       4.1881       6.3550       0.0124       0.0000
 5175.9612    5175.9612      67.7185       1.0710    6062.5691       3.0846       1.8523       4.9369       6.6502       0.0293       0.0000
 5176.1136    5176.1136      60.0979       1.0665    6011.9752       3.4176       2.3197       5.7372       6.8815       0.0658       0.0000
 5176.2660    5176.2660      57.0419       1.0631    5956.7849       3.7574       2.8431       6.6005       7.3462       0.1360       0.0000
 5176.4184    5176.4184      58.7806       1.0621    5936.3982       4.0111       3.3871       7.3982       8.0365       0.2512       0.0000
 5176.5708    5176.5708      62.5290       1.0600    5944.7957       4.0840       3.9080       7.9919       8.6505       0.4185       0.0000
 5176.7232    5176.7232      62.9762       1.0558    5959.3684       4.0373       4.3578       8.3951       8.9981       0.6189       0.0000
 5176.8756    5176.8756      57.9902       1.0541    5963.3959       4.0339       4.6995       8.7334       9.1503       0.8139       0.0000
 5177.0280    5177.0280      51.7236       1.0556    5943.5257       4.2039       4.9589       9.1628       9.3815       0.9961       0.0000
 5177.1804    5177.1804      48.8036       1.0557    5913.3904       4.5501       5.1961       9.7462       9.8611       1.1961       0.0000
 5177.3328    5177.3328      48.6022       1.0512    5909.3206       4.9816       5.4584      10.4400      10.5444       1.4540       0.0000
 5177.4852    5177.4852      48.9958       1.0421    5956.5566       5.3854       5.7573      11.1427      11.2643       1.7997       0.0000
 5177.6376    5177.6376      49.2325       1.0301    6079.8000       5.6488       6.0731      11.7220      11.8512       2.2262       0.0000
 5177.7900    5177.7900      49.1363       1.0224    6250.1533       5.7319       6.3572      12.0891      12.2043       2.6642       0.0000
 5177.9424    5177.9424      48.8178       1.0264    6375.1406       5.7788       6.5469      12.3256      12.4156       2.9801       0.0000
 5178.0948    5178.0948      48.5340       1.0353    6411.8683       5.9688       6.6160      12.5848      12.6589       3.0916       0.0000
 5178.2472    5178.2472      48.4826       1.0404    6393.3632       6.2968       6.5991      12.8960      12.9765       3.0475       0.0000
 5178.3996    5178.3996      48.5172       1.0449    6351.0362       6.5777       6.5539      13.1316      13.2380       2.9582       0.0000
 5178.5520    5178.5520      48.5496       1.0535    6317.5434       6.6384       6.5099      13.1483      13.2810       2.8779       0.0000
 5178.7044    5178.7044      48.5865       1.0600    6322.2245       6.4375       6.4629      12.9004      13.0356       2.7984       0.0000
 5178.8568    5178.8568      48.7224       1.0575    6333.9467       6.1433       6.3699      12.5132      12.6190       2.6491       0.0000
 5179.0092    5179.0092      48.7484       1.0510    6320.1251       6.0260       6.1992      12.2252      12.2869       2.3899       0.0000
 5179.1616    5179.1616      48.8891       1.0520    6293.1684       6.2162       5.9772      12.1935      12.2197       2.0759       0.0000
 5179.3140    5179.3140      49.8555       1.0611    6276.2088       6.5357       5.7826      12.3184      12.3264       1.8211       0.0000
 5179.4664    5179.4664      51.3739       1.0670    6261.9184       6.7100       5.6692      12.3792      12.3810       1.6810       0.0000
 5179.6188    5179.6188      52.0116       1.0629    6232.9278       6.6376       5.6280      12.2656      12.2659       1.6287       0.0000
 5179.7712    5179.7712      51.2610       1.0558    6184.4312       6.4177       5.6157      12.0334      12.0335       1.6074       0.0000
 5179.9236    5179.9236      50.6330       1.0557    6128.3381       6.1336       5.6121      11.7457      11.7457       1.5961       0.0000
 5180.0760    5180.0760      51.2444       1.0597    6081.1681       5.7960       5.6126      11.4086      11.4086       1.5932       0.0000
 5180.2284    5180.2284      52.7795       1.0597    6061.5383       5.3885       5.6116      11.0001      11.0001       1.5947       0.0000
 5180.3808    5180.3809      54.6029       1.0534    6078.4688       4.9800       5.5965      10.5766      10.5766       1.5865       0.0000
 5180.5332    5180.5332      55.2054       1.0464    6116.3184       4.6463       5.5668      10.2131      10.2131       1.5673       0.0000
 5180.6856    5180.6855      53.7612       1.0445    6140.3711       4.3110       5.5447       9.8557       9.8557       1.5744       0.0000
 5180.8380    5180.8380      51.6185       1.0456    6132.3125       3.8292       5.5380       9.3671       9.3671       1.6534       0.0000
 5180.9904    5180.9904      50.7429       1.0435    6100.0361       3.2263       5.5133       8.7396       8.7401       1.7729       0.0000
 5181.1428    5181.1428      51.1701       1.0397    6080.2858       2.7923       5.4118       8.2041       8.2078       1.7629       0.0000
 5181.2952    5181.2952      52.2345       1.0418    6089.5735       2.8130       5.2244       8.0374       8.0477       1.5278       0.0000
 5181.4476    5181.4476      52.9784       1.0497    6101.2622       3.3196       5.0064       8.3260       8.3445       1.1898       0.0000
 5181.6000    5181.6000      52.6875       1.0577    6092.7803       4.1068       4.8295       8.9363       8.9605       0.9379       0.0000
 5181.7524    5181.7524      51.5646       1.0598    6080.7240       4.9065       4.7334       9.6400       9.6663       0.8231       0.0000
 5181.9048    5181.9048      50.1838       1.0559    6093.4997       5.5116       4.7284      10.2400      10.2671       0.8152       0.0000
