~VERSION INFORMATION
VERS.           2.0   :CWLS Log ASCII Standard - VERSION 2.0
WRAP.           NO    :One Line per depth step
PROD.  Schlumberger   :LAS Producer
PROG.  DLIS to ASCII 2.3                               :LAS Program name and version
CREA.        2023/07/14 00:15                          :LAS Creation date {YYYY/MM/DD hh:mm}
DLIS_CREA.  2023-Jul-14 00:11                          :DLIS Creation date and time {YYYY-MMM-DD hh:mm}
SOURCE.     LIS2_002.dlis                              :DLIS File Name
FILE-ID.     LIS   .002                                :File Identification Number
#--------------------------------------------------
~WELL INFORMATION
#MNEM.UNIT      DATA             DESCRIPTION
#---- ------ --------------   -----------------------------
STRT .M      5051.7552       :START DEPTH     
STOP .M      5231.7396       :STOP DEPTH     
STEP .M         0.1524       :STEP     
NULL .          -999.25      :NULL VALUE
COMP .        PETROBRAS S.A.                           :COMPANY
WELL .        3-BRSA-293D-SPS                          :WELL
FLD  .        BS-400                                   :FIELD
LOC  .        BASE SAD 69:                             :LOCATION
CNTY .        SANTOS                                   :COUNTY
STAT .        BRASIL                                   :STATE
CTRY .        BRASIL                                   :COUNTRY
API  .                                                 :API NUMBER
UWI  .                                                 :UNIQUE WELL ID
DATE .        24/10/2004                               :LOG DATE
SRVC .        Schlumberger                             :SERVICE COMPANY
LATI .DEG                                              :LATITUDE
LONG .DEG                                              :LONGITUDE
GDAT .                                                 :GeoDetic Datum
#-----------------------------------------------------------------------------
~PARAMETER INFORMATION
#MNEM.UNIT    VALUE                      DESCRIPTION
#---- -----   --------------------       ------------------------
APD  .M               24                 :
BHT  .DEGF           280                 :
BLI  .M             5225                 :
BS   .IN         8.50000                 :
CN   .        PETROBRAS S.A.             :
COUN .        SANTOS                     :
CS   .IN         9.62500                 :
DATE .        24/10/2004                 :
DFD  .LB/G      12.30000                 :
DFL  .C3               2                 :
DFPH .        N/A                        :
DFT  .        SINTETICO                  :
DFV  .S               87                 :
DMF  .        MESA ROTATIVA              :
EDF  .M               24                 :
EGL  .M             -500                 :
EKB  .        N/A                        :
ENGI .        HERNANDEZ/LOCK             :
FL1  .        X   7292392.00 M LAT 24 28 47.189 S :
FL2  .        Y    584087.00 M LON 44 10 12.698 W :
FL3  .        MC  45 GRAUS               :
FN   .        BS-400                     :
LMF  .        MESA ROTATIVA              :
LUL  .        MACAE                      :
MCSS .        PRENSA                     :
MCST .DEGF            80                 :
MFSS .        PRENSA                     :
MFST .DEGF            80                 :
MSS  .        LINHA DE FLUXO             :
MST  .DEGF            80                 :
PDAT .        NIVEL DO MAR               :
R1   .        01. APRESENTAÇÃO DE ACORDO COM REQUERIMENTO DO CLIENTE :
R2   .        02. TEMPERATURA MÁXIMA DO POÇO T1=T2= 290 DEGF @  5215 M :
R3   .        03. INICIO DA CIRCULAÇÃO  13 45 H 21/10/2004 :
R4   .        04. FINAL DA CIRCULAÇÃO   16 00 H 21/10/2004 :
R5   .        05. TEMPO TOTAL DE CIRCULAÇÃO  02 15 H :
R6   .        06. FLUIDO DE PERFURAÇÃO  SINTETICO (BR-MUL  BR-MI)  65% TEOR DO OLEO :
R7   .        07. SALINIDADE DA LAMA  266377 PPM NACL NA FASE DE AGUA :
R8   .        08. INCLINAÇÃO MÁXIMA DO POÇO  37.37 GRAUS @ 5100 M :
R9   .        09. PRIMEIRAS E ULTIMAS LEITURAS  :
RMB  .OHMM    > 10                       :
RMCS .OHMM    > 10                       :
RMFS .OHMM    > 10                       :
RMS  .OHMM    > 10                       :
RUN  .                 1                 :
STAT .        BRASIL                     :
TCS  .        16 00 H                    :
TDD  .M             5230                 :
TDL  .        NR                         :
TLAB .        N/A                        :
TLI  .M             5070                 :
WITN .        ALCIDIO/VLADIMIR           :
WN   .        3-BRSA-293D-SPS            :
LUN  .              8808                 :
HIDE .        3-SPS-41D                  :
HID2 .        MAGNETIC RESONANCE         :
HID3 .        EXPLORER LOG               :
HID4 .        GAMMA RAY LOG              :
CLAB .        BACIA                      :
SLAB .        PAIS                       :
CMT1 .        ESC  1 200                 :
CMT2 .        PROF. MEDIDA               :
CMT4 .        SONDA  SS-43               :
HDAT .        SAD 69                     :
FL   .        BASE SAD 69                :
OS1  .        HDIL/XMAC/GR               :
OS3  .        ZDL/CN/GR                  :
OS5  .        SL/GR                      :
LNAM .        MREX/ZDL/CN/XMAC/HDIL/3DEX/RCI/SL/GR :
TOOL .        MREX/ZDL/CN/XMAC/HDIL/3DEX/RCI/SL/GR :
LSOU .        PETROBRAS                  :
LSRV .        OH WIRELINE                :
LTYP .        RAW                        :
EPD  .M                0                 :
LDAT .        24/10/2004                 :
TRIP .                 1                 :
SON  .            783148                 :
CBDR .M             4277                 :
CBLO .        NR                         :
STEM .DEGF    N/A                        :
BSAL .            266377                 :
BARI .        OFF                        :
DLAB .        21/10/2004                 :
MRT  .DEGF           290                 :
TSTR .        MRIL/GR                    :
TSTG .        N/A                        :
STUS .        FINAL                      :
LCNM .        BAKER ATLAS                :
LCC  .               150                 :
NATI .        BRASIL                     :
OPMD .        OH.WIRELINE                :
PANA .        HERNANDEZ/LOCK             :
PCON .        BAKER ATLAS                :
R11  .        MREX     5225.0 M/5070.0 M :
R13  .        10. PONTO FRACO UTILIZADO  8K :
R14  .        12. DECLINAÇÃO MAGNETICA  -20.9 GRAUS :
R15  .        13. COORDENADAS BASE       :
R17  .        X   7292512.00 M           :
R18  .        Y    583936.00 M           :
R19  .        MC  45 GRAUS               :
R21  .        14. CADASTRO ANP  86316021017 :
PVER .           4.10000                 :
WDFN .        /space/expusr/3-SPS-41D/dat1a/pass/mexilhoes/i857d04.aff :
OCT  .        i857d                      :
0S2  .        3DEX/GR                    :
OS4  .        RCI/GR                     :
#-----------------------------------------------------------------------------
~CURVE INFORMATION
#MNEM.UNIT   API CODE                                  DESCRIPTION
#---- -----  --------                                  -----------------------
DEPT .M                                                :DEPTH (BOREHOLE) {F10.4}
DEPT .M                                                : {F13.4}
GR   .GAPI                                             : {F13.4}
SPD  .M/MN                                             : {F13.4}
TTEN .LBF                                              : {F13.4}
MBVI .PU                                               : {F13.4}
MBVM .PU                                               : {F13.4}
MPHE .PU                                               : {F13.4}
MPHS .PU                                               : {F13.4}
MPRM .MD                                               : {F13.4}
TPOR[0].                                               : {AF13.4}
#-----------------------------------------------------------------------------
# 
#     DEPT        DEPT         GR           SPD          TTEN         MBVI         MBVM         MPHE         MPHS         MPRM       TPOR[0]
#
~A  
# ...
 5069.1288    5069.1288      73.9122       1.0421    6182.7289    -999.2500    -999.2500    -999.2500    -999.2500    -999.2500    -999.2500
 5069.2812    5069.2813      74.4142       1.0425    6161.7285    -999.2500    -999.2500    -999.2500    -999.2500    -999.2500    -999.2500
 5069.4336    5069.4336      72.9273       1.0385    6175.0967    -999.2500    -999.2500    -999.2500    -999.2500    -999.2500    -999.2500
 5069.5860    5069.5860      71.2250       1.0345    6210.4450    -999.2500    -999.2500    -999.2500    -999.2500    -999.2500    -999.2500
 5069.7384    5069.7384      69.8132       1.0280    6226.4623    -999.2500    -999.2500    -999.2500    -999.2500    -999.2500    -999.2500
 5069.8908    5069.8908      68.3723       1.0216    6208.8474    -999.2500    -999.2500    -999.2500    -999.2500    -999.2500    -999.2500
 5070.0432    5070.0432      67.1594       1.0211    6196.2454    -999.2500    -999.2500    -999.2500    -999.2500    -999.2500 -985430.5071
 5070.1956    5070.1956      66.6457       1.0211    6220.7678    -999.2500    -999.2500    -999.2500    -999.2500    -999.2500       0.0000
 5070.3480    5070.3480      66.8609       1.0196    6254.1235    -999.2500    -999.2500    -999.2500    -999.2500    -999.2500       0.0000
 5070.5004    5070.5004      67.4404       1.0255    6255.7755       0.9843       0.6300       1.6142       6.1823       0.0004       0.0000
 5070.6528    5070.6528      68.5923       1.0304    6232.5588       0.8160       0.7615       1.5775       6.4179       0.0006       0.0000
 5070.8052    5070.8052      69.6009       1.0218    6207.9890       0.7485       0.8604       1.6088       6.5750       0.0011       0.0000
 5070.9576    5070.9576      69.1388       1.0119    6175.5552       0.6648       0.9812       1.6460       6.5604       0.0022       0.0000
 5071.1100    5071.1100      66.9648       1.0125    6146.7425       0.5863       1.1148       1.7011       6.4830       0.0038       0.0000
 5071.2624    5071.2624      63.7717       1.0154    6154.6239       0.5658       1.1960       1.7618       6.4567       0.0047       0.0000
 5071.4148    5071.4148      60.7175       1.0161    6194.7608       0.6395       1.1830       1.8224       6.4683       0.0042       0.0000
 5071.5672    5071.5672      59.7950       1.0158    6227.0516       0.7378       1.1094       1.8472       6.3829       0.0031       0.0000
 5071.7196    5071.7196      61.6272       1.0128    6228.9044       0.6779       1.0170       1.6949       6.0705       0.0024       0.0000
 5071.8720    5071.8720      63.6761       1.0109    6195.6258       0.4139       0.9148       1.3286       5.6596       0.0027       0.0000
 5072.0244    5072.0244      63.3467       1.0096    6138.1826       0.1423       0.7921       0.9344       5.4743       0.0030       0.0000
 5072.1768    5072.1768      61.2056       1.0087    6086.4902       0.0194       0.6487       0.6681       5.5750       0.0022       0.0000
 5072.3292    5072.3292      59.3597       1.0146    6060.7774       0.0000       0.5091       0.5091       5.6922       0.0010       0.0000
 5072.4816    5072.4816      58.5444       1.0246    6054.5475       0.0000       0.4163       0.4163       5.6712       0.0004       0.0000
 5072.6340    5072.6340      57.7140       1.0307    6052.0725       0.0000       0.3846       0.3846       5.6130       0.0002       0.0000
 5072.7864    5072.7864      55.2022       1.0331    6036.6829       0.0000       0.3884       0.3884       5.6191       0.0002       0.0000
 5072.9388    5072.9388      50.5239       1.0340    6019.3599       0.0023       0.4042       0.4065       5.6484       0.0003       0.0000
 5073.0912    5073.0912      45.7578       1.0315    6055.3142       0.0422       0.4320       0.4743       5.6498       0.0003       0.0000
 5073.2436    5073.2436      43.6368       1.0269    6147.2948       0.2164       0.4640       0.6804       5.6954       0.0003       0.0000
 5073.3960    5073.3960      45.5008       1.0178    6217.4846       0.6953       0.4723       1.1677       5.9848       0.0002       0.0000
 5073.5484    5073.5484      51.2539       1.0041    6231.3304       1.5040       0.4619       1.9659       6.5459       0.0002       0.0000
 5073.7008    5073.7008      58.8565       0.9992    6222.0931       2.4491       0.4730       2.9221       7.1721       0.0003       0.0000
 5073.8532    5073.8532      65.2593       1.0124    6202.7569       3.3894       0.5142       3.9037       7.7056       0.0006       0.0000
 5074.0056    5074.0056      69.6517       1.0335    6182.5711       4.2641       0.5623       4.8264       8.0997       0.0010       0.0000
 5074.1580    5074.1580      72.1030       1.0450    6181.0475       4.9675       0.6187       5.5862       8.2792       0.0016       0.0000
 5074.3104    5074.3104      70.8733       1.0431    6202.1099       5.3485       0.6923       6.0408       8.1580       0.0023       0.0000
 5074.4628    5074.4628      64.4073       1.0344    6234.6717       5.3287       0.7781       6.1068       7.8203       0.0030       0.0000
 5074.6152    5074.6152      54.9290       1.0276    6253.9365       4.9577       0.8904       5.8481       7.4539       0.0038       0.0000
 5074.7676    5074.7676      47.2385       1.0242    6232.3027       4.3821       1.0337       5.4158       7.1401       0.0049       0.0000
 5074.9200    5074.9200      44.2612       1.0219    6183.5403       3.7721       1.1316       4.9037       6.8262       0.0054       0.0000
 5075.0724    5075.0724      46.6983       1.0225    6136.3287       3.2488       1.0940       4.3428       6.4607       0.0045       0.0000
 5075.2248    5075.2248      53.5500       1.0262    6096.6408       2.8355       0.9267       3.7622       6.0570       0.0028       0.0000
 5075.3772    5075.3772      60.7731       1.0304    6059.7516       2.4760       0.7328       3.2089       5.6906       0.0013       0.0000
 5075.5296    5075.5296      64.7870       1.0313    6031.9237       2.1354       0.5918       2.7272       5.4861       0.0005       0.0000
 5075.6820    5075.6820      66.4099       1.0268    6060.7700       1.7717       0.5202       2.2919       5.4114       0.0003       0.0000
 5075.8344    5075.8344      67.6061       1.0215    6155.0848       1.3644       0.4938       1.8582       5.2207       0.0002       0.0000
 5075.9868    5075.9868      68.4167       1.0174    6235.3107       0.9405       0.4826       1.4231       4.7341       0.0001       0.0000
 5076.1392    5076.1392      68.3734       1.0133    6241.3403       0.5584       0.4744       1.0328       4.1018       0.0002       0.0000
 5076.2916    5076.2916      67.5303       1.0081    6210.1084       0.2616       0.4906       0.7522       3.6284       0.0004       0.0000
 5076.4440    5076.4440      66.7006       1.0050    6188.7390       0.0822       0.5443       0.6265       3.4417       0.0009       0.0000
 5076.5964    5076.5964      66.6918       1.0066    6187.1464       0.0120       0.6153       0.6272       3.4984       0.0016       0.0000
 5076.7488    5076.7488      66.9865       1.0059    6206.8612       0.0000       0.6853       0.6853       3.7142       0.0024       0.0000
 5076.9012    5076.9012      67.2050       0.9980    6240.0738       0.0000       0.7528       0.7528       3.9933       0.0034       0.0000
 5077.0536    5077.0536      67.8246       0.9930    6257.1113       0.0000       0.8100       0.8100       4.2151       0.0044       0.0000
 5077.2060    5077.2061      68.9913       0.9962    6228.0391       0.0000       0.8318       0.8318       4.3128       0.0049       0.0000
 5077.3584    5077.3584      69.6969       0.9946    6165.3545       0.0000       0.8013       0.8013       4.3392       0.0043       0.0000
 5077.5108    5077.5107      69.4576       0.9875    6098.4355       0.0000       0.7422       0.7422       4.4377       0.0032       0.0000
 5077.6632    5077.6632      68.9419       0.9876    6049.8825       0.0000       0.6982       0.6982       4.7188       0.0024       0.0000
