~VERSION INFORMATION
VERS.           2.0   :CWLS Log ASCII Standard - VERSION 2.0
WRAP.           NO    :One Line per depth step
PROD.  Schlumberger   :LAS Producer
PROG.  DLIS to ASCII 2.3                               :LAS Program name and version
CREA.        2023/07/14 00:15                          :LAS Creation date {YYYY/MM/DD hh:mm}
DLIS_CREA.  2023-Jul-14 00:11                          :DLIS Creation date and time {YYYY-MMM-DD hh:mm}
SOURCE.     LIS2_002.dlis                              :DLIS File Name
FILE-ID.     LIS   .002                                :File Identification Number
#--------------------------------------------------
~WELL INFORMATION
#MNEM.UNIT      DATA             DESCRIPTION
#---- ------ --------------   -----------------------------
STRT .M      5051.7552       :START DEPTH     
STOP .M      5231.7396       :STOP DEPTH     
STEP .M         0.1524       :STEP     
NULL .          -999.25      :NULL VALUE
COMP .        PETROBRAS S.A.                           :COMPANY
WELL .        3-BRSA-293D-SPS                          :WELL
FLD  .        BS-400                                   :FIELD
LOC  .        BASE SAD 69:                             :LOCATION
CNTY .        SANTOS                                   :COUNTY
STAT .        BRASIL                                   :STATE
CTRY .        BRASIL                                   :COUNTRY
API  .                                                 :API NUMBER
UWI  .                                                 :UNIQUE WELL ID
DATE .        24/10/2004                               :LOG DATE
SRVC .        Schlumberger                             :SERVICE COMPANY
LATI .DEG                                              :LATITUDE
LONG .DEG                                              :LONGITUDE
GDAT .                                                 :GeoDetic Datum
#-----------------------------------------------------------------------------
~PARAMETER INFORMATION
#MNEM.UNIT    VALUE                      DESCRIPTION
#---- -----   --------------------       ------------------------
APD  .M               24                 :
BHT  .DEGF           280                 :
BLI  .M             5225                 :
BS   .IN         8.50000                 :
CN   .        PETROBRAS S.A.             :
COUN .        SANTOS                     :
CS   .IN         9.62500                 :
DATE .        24/10/2004                 :
DFD  .LB/G      12.30000                 :
DFL  .C3               2                 :
DFPH .        N/A                        :
DFT  .        SINTETICO                  :
DFV  .S               87                 :
DMF  .        MESA ROTATIVA              :
EDF  .M               24                 :
EGL  .M             -500                 :
EKB  .        N/A                        :
ENGI .        HERNANDEZ/LOCK             :
FL1  .        X   7292392.00 M LAT 24 28 47.189 S :
FL2  .        Y    584087.00 M LON 44 10 12.698 W :
FL3  .        MC  45 GRAUS               :
FN   .        BS-400                     :
LMF  .        MESA ROTATIVA              :
LUL  .        MACAE                      :
MCSS .        PRENSA                     :
MCST .DEGF            80                 :
MFSS .        PRENSA                     :
MFST .DEGF            80                 :
MSS  .        LINHA DE FLUXO             :
MST  .DEGF            80                 :
PDAT .        NIVEL DO MAR               :
R1   .        01. APRESENTAÇÃO DE ACORDO COM REQUERIMENTO DO CLIENTE :
R2   .        02. TEMPERATURA MÁXIMA DO POÇO T1=T2= 290 DEGF @  5215 M :
R3   .        03. INICIO DA CIRCULAÇÃO  13 45 H 21/10/2004 :
R4   .        04. FINAL DA CIRCULAÇÃO   16 00 H 21/10/2004 :
R5   .        05. TEMPO TOTAL DE CIRCULAÇÃO  02 15 H :
R6   .        06. FLUIDO DE PERFURAÇÃO  SINTETICO (BR-MUL  BR-MI)  65% TEOR DO OLEO :
R7   .        07. SALINIDADE DA LAMA  266377 PPM NACL NA FASE DE AGUA :
R8   .        08. INCLINAÇÃO MÁXIMA DO POÇO  37.37 GRAUS @ 5100 M :
R9   .        09. PRIMEIRAS E ULTIMAS LEITURAS  :
RMB  .OHMM    > 10                       :
RMCS .OHMM    > 10                       :
RMFS .OHMM    > 10                       :
RMS  .OHMM    > 10                       :
RUN  .                 1                 :
STAT .        BRASIL                     :
TCS  .        16 00 H                    :
TDD  .M             5230                 :
TDL  .        NR                         :
TLAB .        N/A                        :
TLI  .M             5070                 :
WITN .        ALCIDIO/VLADIMIR           :
WN   .        3-BRSA-293D-SPS            :
LUN  .              8808                 :
HIDE .        3-SPS-41D                  :
HID2 .        MAGNETIC RESONANCE         :
HID3 .        EXPLORER LOG               :
HID4 .        GAMMA RAY LOG              :
CLAB .        BACIA                      :
SLAB .        PAIS                       :
CMT1 .        ESC  1 200                 :
CMT2 .        PROF. MEDIDA               :
CMT4 .        SONDA  SS-43               :
HDAT .        SAD 69                     :
FL   .        BASE SAD 69                :
OS1  .        HDIL/XMAC/GR               :
OS3  .        ZDL/CN/GR                  :
OS5  .        SL/GR                      :
LNAM .        MREX/ZDL/CN/XMAC/HDIL/3DEX/RCI/SL/GR :
TOOL .        MREX/ZDL/CN/XMAC/HDIL/3DEX/RCI/SL/GR :
LSOU .        PETROBRAS                  :
LSRV .        OH WIRELINE                :
LTYP .        RAW                        :
EPD  .M                0                 :
LDAT .        24/10/2004                 :
TRIP .                 1                 :
SON  .            783148                 :
CBDR .M             4277                 :
CBLO .        NR                         :
STEM .DEGF    N/A                        :
BSAL .            266377                 :
BARI .        OFF                        :
DLAB .        21/10/2004                 :
MRT  .DEGF           290                 :
TSTR .        MRIL/GR                    :
TSTG .        N/A                        :
STUS .        FINAL                      :
LCNM .        BAKER ATLAS                :
LCC  .               150                 :
NATI .        BRASIL                     :
OPMD .        OH.WIRELINE                :
PANA .        HERNANDEZ/LOCK             :
PCON .        BAKER ATLAS                :
R11  .        MREX     5225.0 M/5070.0 M :
R13  .        10. PONTO FRACO UTILIZADO  8K :
R14  .        12. DECLINAÇÃO MAGNETICA  -20.9 GRAUS :
R15  .        13. COORDENADAS BASE       :
R17  .        X   7292512.00 M           :
R18  .        Y    583936.00 M           :
R19  .        MC  45 GRAUS               :
R21  .        14. CADASTRO ANP  86316021017 :
PVER .           4.10000                 :
WDFN .        /space/expusr/3-SPS-41D/dat1a/pass/mexilhoes/i857d04.aff :
OCT  .        i857d                      :
0S2  .        3DEX/GR                    :
OS4  .        RCI/GR                     :
#-----------------------------------------------------------------------------
~CURVE INFORMATION
#MNEM.UNIT   API CODE                                  DESCRIPTION
#---- -----  --------                                  -----------------------
DEPT .M                                                :DEPTH (BOREHOLE) {F10.4}
DEPT .M                                                : {F13.4}
GR   .GAPI                                             : {F13.4}
SPD  .M/MN                                             : {F13.4}
TTEN .LBF                                              : {F13.4}
MBVI .PU                                               : {F13.4}
MBVM .PU                                               : {F13.4}
MPHE .PU                                               : {F13.4}
MPHS .PU                                               : {F13.4}
MPRM .MD                                               : {F13.4}
TPOR[0].                                               : {AF13.4}
#-----------------------------------------------------------------------------
# 
#     DEPT        DEPT         GR           SPD          TTEN         MBVI         MBVM         MPHE         MPHS         MPRM       TPOR[0]
#
~A  
# ...
 5086.5024    5086.5024      66.9863       1.0252    6138.3228       2.1864       0.0922       2.2786       7.2615       0.0000       0.0000
 5086.6548    5086.6548      66.8240       1.0256    6184.5456       2.3693       0.1453       2.5146       7.5221       0.0000       0.0000
 5086.8072    5086.8072      67.0689       1.0248    6190.5929       2.6329       0.1907       2.8236       7.8555       0.0000       0.0000
 5086.9596    5086.9596      68.1304       1.0285    6135.9955       2.7232       0.2172       2.9405       8.0102       0.0000       0.0000
 5087.1120    5087.1120      68.9212       1.0339    6081.9997       2.4951       0.2276       2.7227       7.9275       0.0000       0.0000
 5087.2644    5087.2644      68.3969       1.0345    6091.1778       2.0521       0.2329       2.2850       7.6879       0.0000       0.0000
 5087.4168    5087.4168      67.3807       1.0276    6148.7533       1.6410       0.2438       1.8848       7.4333       0.0000       0.0000
 5087.5692    5087.5692      67.1596       1.0209    6183.1850       1.4161       0.2658       1.6819       7.2824       0.0000       0.0000
 5087.7216    5087.7216      67.7755       1.0196    6176.9161       1.3582       0.2977       1.6560       7.2880       0.0000       0.0000
 5087.8740    5087.8740      68.1276       1.0230    6176.2334       1.3718       0.3272       1.6990       7.4028       0.0000       0.0000
 5088.0264    5088.0264      67.5512       1.0319    6187.9004       1.3393       0.3372       1.6766       7.4963       0.0001       0.0000
 5088.1788    5088.1788      67.1111       1.0380    6188.9550       1.1803       0.3271       1.5073       7.4825       0.0000       0.0000
 5088.3312    5088.3312      67.6074       1.0316    6200.0056       0.9124       0.3262       1.2386       7.3672       0.0000       0.0000
 5088.4836    5088.4836      68.2782       1.0224    6229.0074       0.6345       0.3703       1.0048       7.1910       0.0001       0.0000
 5088.6360    5088.6360      68.5132       1.0214    6250.1761       0.4322       0.4667       0.8989       7.0229       0.0002       0.0000
 5088.7884    5088.7884      68.4196       1.0285    6255.8593       0.3239       0.5727       0.8966       6.9388       0.0003       0.0000
 5088.9408    5088.9408      67.9898       1.0349    6242.5886       0.3018       0.6318       0.9336       6.9343       0.0004       0.0000
 5089.0932    5089.0932      67.0299       1.0320    6197.1168       0.3513       0.6352       0.9865       6.9247       0.0003       0.0000
 5089.2456    5089.2456      65.6782       1.0243    6152.0371       0.4406       0.6133       1.0539       6.8670       0.0003       0.0000
 5089.3980    5089.3980      64.5919       1.0213    6149.4777       0.5201       0.6035       1.1237       6.7757       0.0002       0.0000
 5089.5504    5089.5504      64.0510       1.0197    6178.3850       0.5606       0.6294       1.1900       6.6669       0.0003       0.0000
 5089.7028    5089.7028      63.7533       1.0179    6206.6085       0.5775       0.6858       1.2633       6.5381       0.0004       0.0000
 5089.8552    5089.8552      63.5277       1.0184    6230.7667       0.5820       0.7294       1.3115       6.3759       0.0005       0.0000
 5090.0076    5090.0076      63.6827       1.0146    6256.2751       0.5836       0.7109       1.2945       6.1457       0.0005       0.0000
 5090.1600    5090.1600      64.3837       1.0080    6266.6348       0.5989       0.6269       1.2259       5.8837       0.0003       0.0000
 5090.3124    5090.3124      65.3130       1.0054    6247.3340       0.5501       0.5370       1.0871       5.6654       0.0002       0.0000
 5090.4648    5090.4648      65.8577       0.9995    6207.9541       0.4014       0.4897       0.8911       5.5396       0.0002       0.0000
 5090.6172    5090.6172      66.0912       0.9878    6160.2363       0.3057       0.4637       0.7694       5.5280       0.0001       0.0000
 5090.7696    5090.7696      66.6620       0.9813    6114.2066       0.4283       0.4186       0.8469       5.5985       0.0001       0.0000
 5090.9220    5090.9220      67.6212       0.9815    6093.3162       0.7172       0.3512       1.0684       5.6586       0.0000       0.0000
 5091.0744    5091.0744      68.3856       0.9813    6099.2851       1.0309       0.2923       1.3232       5.7023       0.0000       0.0000
 5091.2268    5091.2268      68.6525       0.9844    6108.6440       1.3171       0.2733       1.5905       5.8304       0.0000       0.0000
 5091.3792    5091.3792      68.4607       0.9893    6124.5946       1.6808       0.2831       1.9639       6.1514       0.0000       0.0000
 5091.5316    5091.5316      67.6551       0.9884    6153.9808       2.2139       0.2880       2.5020       6.6814       0.0001       0.0000
 5091.6840    5091.6840      66.5328       0.9820    6180.6024       2.8123       0.2851       3.0974       7.3021       0.0001       0.0000
 5091.8364    5091.8364      65.8884       0.9775    6208.0895       3.2281       0.2978       3.5259       7.8061       0.0001       0.0000
 5091.9888    5091.9888      65.7211       0.9764    6231.8082       3.2677       0.3390       3.6067       8.0520       0.0002       0.0000
 5092.1412    5092.1412      65.3048       0.9783    6229.3571       2.8791       0.4018       3.2809       8.0244       0.0002       0.0000
 5092.2936    5092.2936      64.5906       0.9825    6214.3365       2.2408       0.4625       2.7033       7.8047       0.0002       0.0000
 5092.4460    5092.4460      64.2455       0.9875    6216.2504       1.6210       0.5089       2.1298       7.4806       0.0002       0.0000
 5092.5984    5092.5984      64.7774       0.9901    6226.2968       1.1865       0.5448       1.7312       7.1380       0.0002       0.0000
 5092.7508    5092.7508      65.9225       0.9898    6229.9379       0.8932       0.5737       1.4669       6.7889       0.0002       0.0000
 5092.9032    5092.9032      66.9380       0.9886    6219.1108       0.6531       0.5848       1.2379       6.3448       0.0002       0.0000
 5093.0556    5093.0556      67.1181       0.9856    6182.1958       0.4266       0.5699       0.9965       5.7596       0.0002       0.0000
 5093.2080    5093.2080      66.5754       0.9846    6149.7031       0.2228       0.5339       0.7567       5.1415       0.0004       0.0000
 5093.3604    5093.3604      66.0429       0.9941    6147.8477       0.0828       0.4967       0.5795       4.6839       0.0005       0.0000
 5093.5128    5093.5128      65.7876       1.0072    6175.1973       0.0186       0.4741       0.4927       4.4844       0.0005       0.0000
 5093.6652    5093.6652      65.5677       1.0092    6211.5293       0.0024       0.4594       0.4618       4.4937       0.0005       0.0000
 5093.8176    5093.8176      65.6823       1.0011    6233.3066       0.0001       0.4407       0.4409       4.5788       0.0004       0.0000
 5093.9700    5093.9700      66.3296       0.9960    6226.5150       0.0000       0.4371       0.4371       4.6347       0.0004       0.0000
 5094.1224    5094.1224      66.9827       0.9927    6223.6340       0.0000       0.4841       0.4841       4.6481       0.0007       0.0000
 5094.2748    5094.2748      67.1474       0.9899    6237.0586       0.0000       0.6032       0.6032       4.6728       0.0020       0.0000
 5094.4272    5094.4272      67.1308       0.9921    6235.3442       0.0000       0.7645       0.7645       4.7157       0.0045       0.0000
 5094.5796    5094.5796      67.0187       0.9950    6211.1325       0.0004       0.9055       0.9058       4.6956       0.0074       0.0000
 5094.7320    5094.7320      66.5569       0.9901    6195.5901       0.0064       0.9954       1.0018       4.5704       0.0103       0.0000
 5094.8844    5094.8844      65.8672       0.9848    6200.6870       0.0341       1.0621       1.0963       4.4080       0.0131       0.0000
 5095.0368    5095.0368      65.5670       0.9808    6199.1804       0.1147       1.1416       1.2563       4.3262       0.0143       0.0000
