~VERSION INFORMATION
VERS.           2.0   :CWLS Log ASCII Standard - VERSION 2.0
WRAP.           NO    :One Line per depth step
PROD.  Schlumberger   :LAS Producer
PROG.  DLIS to ASCII 2.3                               :LAS Program name and version
CREA.        2023/07/14 00:15                          :LAS Creation date {YYYY/MM/DD hh:mm}
DLIS_CREA.  2023-Jul-14 00:11                          :DLIS Creation date and time {YYYY-MMM-DD hh:mm}
SOURCE.     LIS2_002.dlis                              :DLIS File Name
FILE-ID.     LIS   .002                                :File Identification Number
#--------------------------------------------------
~WELL INFORMATION
#MNEM.UNIT      DATA             DESCRIPTION
#---- ------ --------------   -----------------------------
STRT .M      5051.7552       :START DEPTH     
STOP .M      5231.7396       :STOP DEPTH     
STEP .M         0.1524       :STEP     
NULL .          -999.25      :NULL VALUE
COMP .        PETROBRAS S.A.                           :COMPANY
WELL .        3-BRSA-293D-SPS                          :WELL
FLD  .        BS-400                                   :FIELD
LOC  .        BASE SAD 69:                             :LOCATION
CNTY .        SANTOS                                   :COUNTY
STAT .        BRASIL                                   :STATE
CTRY .        BRASIL                                   :COUNTRY
API  .                                                 :API NUMBER
UWI  .                                                 :UNIQUE WELL ID
DATE .        24/10/2004                               :LOG DATE
SRVC .        Schlumberger                             :SERVICE COMPANY
LATI .DEG                                              :LATITUDE
LONG .DEG                                              :LONGITUDE
GDAT .                                                 :GeoDetic Datum
#-----------------------------------------------------------------------------
~PARAMETER INFORMATION
#MNEM.UNIT    VALUE                      DESCRIPTION
#---- -----   --------------------       ------------------------
APD  .M               24                 :
BHT  .DEGF           280                 :
BLI  .M             5225                 :
BS   .IN         8.50000                 :
CN   .        PETROBRAS S.A.             :
COUN .        SANTOS                     :
CS   .IN         9.62500                 :
DATE .        24/10/2004                 :
DFD  .LB/G      12.30000                 :
DFL  .C3               2                 :
DFPH .        N/A                        :
DFT  .        SINTETICO                  :
DFV  .S               87                 :
DMF  .        MESA ROTATIVA              :
EDF  .M               24                 :
EGL  .M             -500                 :
EKB  .        N/A                        :
ENGI .        HERNANDEZ/LOCK             :
FL1  .        X   7292392.00 M LAT 24 28 47.189 S :
FL2  .        Y    584087.00 M LON 44 10 12.698 W :
FL3  .        MC  45 GRAUS               :
FN   .        BS-400                     :
LMF  .        MESA ROTATIVA              :
LUL  .        MACAE                      :
MCSS .        PRENSA                     :
MCST .DEGF            80                 :
MFSS .        PRENSA                     :
MFST .DEGF            80                 :
MSS  .        LINHA DE FLUXO             :
MST  .DEGF            80                 :
PDAT .        NIVEL DO MAR               :
R1   .        01. APRESENTAÇÃO DE ACORDO COM REQUERIMENTO DO CLIENTE :
R2   .        02. TEMPERATURA MÁXIMA DO POÇO T1=T2= 290 DEGF @  5215 M :
R3   .        03. INICIO DA CIRCULAÇÃO  13 45 H 21/10/2004 :
R4   .        04. FINAL DA CIRCULAÇÃO   16 00 H 21/10/2004 :
R5   .        05. TEMPO TOTAL DE CIRCULAÇÃO  02 15 H :
R6   .        06. FLUIDO DE PERFURAÇÃO  SINTETICO (BR-MUL  BR-MI)  65% TEOR DO OLEO :
R7   .        07. SALINIDADE DA LAMA  266377 PPM NACL NA FASE DE AGUA :
R8   .        08. INCLINAÇÃO MÁXIMA DO POÇO  37.37 GRAUS @ 5100 M :
R9   .        09. PRIMEIRAS E ULTIMAS LEITURAS  :
RMB  .OHMM    > 10                       :
RMCS .OHMM    > 10                       :
RMFS .OHMM    > 10                       :
RMS  .OHMM    > 10                       :
RUN  .                 1                 :
STAT .        BRASIL                     :
TCS  .        16 00 H                    :
TDD  .M             5230                 :
TDL  .        NR                         :
TLAB .        N/A                        :
TLI  .M             5070                 :
WITN .        ALCIDIO/VLADIMIR           :
WN   .        3-BRSA-293D-SPS            :
LUN  .              8808                 :
HIDE .        3-SPS-41D                  :
HID2 .        MAGNETIC RESONANCE         :
HID3 .        EXPLORER LOG               :
HID4 .        GAMMA RAY LOG              :
CLAB .        BACIA                      :
SLAB .        PAIS                       :
CMT1 .        ESC  1 200                 :
CMT2 .        PROF. MEDIDA               :
CMT4 .        SONDA  SS-43               :
HDAT .        SAD 69                     :
FL   .        BASE SAD 69                :
OS1  .        HDIL/XMAC/GR               :
OS3  .        ZDL/CN/GR                  :
OS5  .        SL/GR                      :
LNAM .        MREX/ZDL/CN/XMAC/HDIL/3DEX/RCI/SL/GR :
TOOL .        MREX/ZDL/CN/XMAC/HDIL/3DEX/RCI/SL/GR :
LSOU .        PETROBRAS                  :
LSRV .        OH WIRELINE                :
LTYP .        RAW                        :
EPD  .M                0                 :
LDAT .        24/10/2004                 :
TRIP .                 1                 :
SON  .            783148                 :
CBDR .M             4277                 :
CBLO .        NR                         :
STEM .DEGF    N/A                        :
BSAL .            266377                 :
BARI .        OFF                        :
DLAB .        21/10/2004                 :
MRT  .DEGF           290                 :
TSTR .        MRIL/GR                    :
TSTG .        N/A                        :
STUS .        FINAL                      :
LCNM .        BAKER ATLAS                :
LCC  .               150                 :
NATI .        BRASIL                     :
OPMD .        OH.WIRELINE                :
PANA .        HERNANDEZ/LOCK             :
PCON .        BAKER ATLAS                :
R11  .        MREX     5225.0 M/5070.0 M :
R13  .        10. PONTO FRACO UTILIZADO  8K :
R14  .        12. DECLINAÇÃO MAGNETICA  -20.9 GRAUS :
R15  .        13. COORDENADAS BASE       :
R17  .        X   7292512.00 M           :
R18  .        Y    583936.00 M           :
R19  .        MC  45 GRAUS               :
R21  .        14. CADASTRO ANP  86316021017 :
PVER .           4.10000                 :
WDFN .        /space/expusr/3-SPS-41D/dat1a/pass/mexilhoes/i857d04.aff :
OCT  .        i857d                      :
0S2  .        3DEX/GR                    :
OS4  .        RCI/GR                     :
#-----------------------------------------------------------------------------
~CURVE INFORMATION
#MNEM.UNIT   API CODE                                  DESCRIPTION
#---- -----  --------                                  -----------------------
DEPT .M                                                :DEPTH (BOREHOLE) {F10.4}
DEPT .M                                                : {F13.4}
GR   .GAPI                                             : {F13.4}
SPD  .M/MN                                             : {F13.4}
TTEN .LBF                                              : {F13.4}
MBVI .PU                                               : {F13.4}
MBVM .PU                                               : {F13.4}
MPHE .PU                                               : {F13.4}
MPHS .PU                                               : {F13.4}
MPRM .MD                                               : {F13.4}
TPOR[0].                                               : {AF13.4}
#-----------------------------------------------------------------------------
# 
#     DEPT        DEPT         GR           SPD          TTEN         MBVI         MBVM         MPHE         MPHS         MPRM       TPOR[0]
#
~A  
# ...
 5138.6232    5138.6232      53.4218       1.0303    6002.0070       4.8310       8.4496      13.2806      13.2806       9.6519       0.0000
 5138.7756    5138.7756      54.1145       1.0342    5986.4576       4.7558       8.1195      12.8754      12.8754       8.1442       0.0000
 5138.9280    5138.9280      54.3728       1.0384    5961.7980       4.7519       7.7625      12.5145      12.5145       6.7089       0.0000
 5139.0804    5139.0804      54.4028       1.0382    5938.6612       4.8778       7.4320      12.3098      12.3098       5.4499       0.0000
 5139.2328    5139.2328      54.5277       1.0306    5941.8061       4.9778       7.1915      12.1693      12.1693       4.6252       0.0000
 5139.3852    5139.3852      53.9299       1.0192    5963.7670       4.9246       7.0787      12.0034      12.0034       4.3084       0.0000
 5139.5376    5139.5376      51.7678       1.0163    5992.9375       4.7405       7.1246      11.8651      11.8651       4.5373       0.0000
 5139.6900    5139.6900      48.7768       1.0263    6024.7782       4.5408       7.3718      11.9126      11.9126       5.5021       0.0000
 5139.8424    5139.8424      47.4072       1.0355    6042.6265       4.4132       7.7968      12.2100      12.2100       7.2582       0.0000
 5139.9948    5139.9948      48.7604       1.0312    6033.9186       4.3788       8.3040      12.6829      12.6829       9.6788       0.0000
 5140.1472    5140.1472      51.2543       1.0194    6007.5114       4.3564       8.8250      13.1813      13.1813      12.9093       0.0000
 5140.2996    5140.2996      53.3437       1.0122    5973.6289       4.3133       9.3375      13.6508      13.6508      16.8482       0.0000
 5140.4520    5140.4520      54.6766       1.0106    5944.6576       4.2590       9.7668      14.0258      14.0261      20.7608       0.0000
 5140.6044    5140.6044      54.8317       1.0101    5940.5484       4.0798      10.0559      14.1356      14.1432      25.6725       0.0000
 5140.7568    5140.7568      53.8308       1.0123    5964.2695       3.5249      10.2507      13.7756      13.8214      37.2239       0.0000
 5140.9092    5140.9092      52.2858       1.0188    5983.1758       2.6223      10.3906      13.0130      13.1314      60.8493       0.0000
 5141.0616    5141.0616      51.1203       1.0259    5959.5744       1.7219      10.4410      12.1629      12.3466      93.6111       0.0000
 5141.2140    5141.2140      51.0412       1.0256    5920.9850       1.1567      10.4110      11.5676      11.7532     121.3749       0.0000
 5141.3664    5141.3664      51.3714       1.0185    5916.7080       0.9536      10.3664      11.3200      11.4525     134.2532       0.0000
 5141.5188    5141.5188      50.8303       1.0112    5938.8657       0.9497      10.3478      11.2975      11.3816     136.3941       0.0000
 5141.6712    5141.6712      50.2509       1.0075    5952.7456       1.0238      10.3487      11.3724      11.4464     135.7825       0.0000
 5141.8236    5141.8236      51.0979       1.0047    5949.3921       1.2427      10.3478      11.5905      11.6741     126.0289       0.0000
 5141.9760    5141.9760      52.6922       1.0055    5928.3544       1.7469      10.3097      12.0566      12.1481      98.0357       0.0000
 5142.1284    5142.1284      53.8687       1.0117    5904.2281       2.5865      10.1867      12.7732      12.8663      60.9555       0.0000
 5142.2808    5142.2808      54.4466       1.0176    5904.0245       3.6124       9.9794      13.5918      13.6836      33.6859       0.0000
 5142.4332    5142.4332      54.3923       1.0250    5923.3128       4.5688       9.7552      14.3240      14.4239      21.4152       0.0000
 5142.5856    5142.5856      53.5278       1.0404    5928.9414       5.2243       9.5833      14.8077      14.9430      16.6438       0.0000
 5142.7380    5142.7380      52.4933       1.0578    5911.2773       5.4824       9.4898      14.9722      15.1646      15.1452       0.0000
 5142.8904    5142.8904      52.2041       1.0671    5889.6067       5.4111       9.4765      14.8875      15.1251      15.1213       0.0000
 5143.0428    5143.0428      52.9500       1.0705    5870.3136       5.1467       9.5111      14.6578      14.8889      15.8972       0.0000
 5143.1952    5143.1952      53.9182       1.0744    5854.9281       4.7483       9.5464      14.2947      14.4565      17.1202       0.0000
 5143.3476    5143.3477      53.8675       1.0796    5855.3760       4.2908       9.5422      13.8329      13.9051      18.3607       0.0000
 5143.5000    5143.5000      52.6811       1.0818    5884.1201       3.9226       9.5044      13.4270      13.4439      19.1980       0.0000
 5143.6524    5143.6523      51.5092       1.0806    5927.7070       3.7518       9.4803      13.2322      13.2351      19.6053       0.0000
 5143.8048    5143.8048      51.4408       1.0774    5950.8824       3.7432       9.5109      13.2541      13.2590      19.9371       0.0000
 5143.9572    5143.9572      52.1786       1.0751    5948.2790       3.7939       9.5913      13.3852      13.3974      20.5510       0.0000
 5144.1096    5144.1096      52.6150       1.0763    5942.9519       3.8248       9.6957      13.5205      13.5395      21.5471       0.0000
 5144.2620    5144.2620      52.3795       1.0775    5927.5788       3.9087       9.7756      13.6843      13.7057      22.0629       0.0000
 5144.4144    5144.4144      52.1641       1.0731    5898.0147       4.1470       9.8081      13.9551      13.9773      21.4237       0.0000
 5144.5668    5144.5668      52.1905       1.0685    5897.0416       4.4926       9.8394      14.3319      14.3667      20.4008       0.0000
 5144.7192    5144.7192      51.6566       1.0710    5930.9184       4.7776       9.9392      14.7167      14.8074      20.3892       0.0000
 5144.8716    5144.8716      50.8075       1.0777    5949.4564       4.9442      10.0835      15.0277      15.1892      21.2783       0.0000
 5145.0240    5145.0240      50.8249       1.0812    5939.9422       5.0699      10.1829      15.2528      15.4163      21.8796       0.0000
 5145.1764    5145.1764      51.8710       1.0768    5932.7431       5.2252      10.1980      15.4232      15.5153      21.5999       0.0000
 5145.3288    5145.3288      52.7643       1.0686    5931.2959       5.3429      10.1980      15.5410      15.5682      21.3029       0.0000
 5145.4812    5145.4812      52.7338       1.0640    5945.5692       5.3093      10.2727      15.5820      15.5875      22.2358       0.0000
 5145.6336    5145.6336      52.1147       1.0661    6025.3569       5.0827      10.4502      15.5329      15.5369      25.0619       0.0000
 5145.7860    5145.7860      51.5567       1.0688    6146.2031       4.7630      10.6768      15.4399      15.4498      29.1081       0.0000
 5145.9384    5145.9384      51.1589       1.0664    6190.2514       4.5436      10.8626      15.4062      15.4223      32.5219       0.0000
 5146.0908    5146.0908      51.0624       1.0596    6133.0176       4.6086      10.9441      15.5527      15.5726      33.3191       0.0000
 5146.2432    5146.2432      52.0756       1.0544    6078.2480       4.8771      10.9617      15.8388      15.8603      32.1841       0.0000
 5146.3956    5146.3956      53.7922       1.0512    6058.9857       5.0365      11.0212      16.0577      16.0792      32.1013       0.0000
 5146.5480    5146.5480      54.3860       1.0489    6030.7071       5.0039      11.1198      16.1237      16.1431      33.6408       0.0000
 5146.7004    5146.7004      53.2647       1.0478    5987.8848       5.1205      11.1157      16.2362      16.2521      33.3630       0.0000
 5146.8528    5146.8528      51.7082       1.0473    5957.3528       5.5876      10.9410      16.5286      16.5401      29.6289       0.0000
 5147.0052    5147.0052      50.8505       1.0506    5937.5111       6.1874      10.6799      16.8673      16.8755      24.8039       0.0000
 5147.1576    5147.1576      50.6689       1.0550    5920.0124       6.6167      10.4414      17.0580      17.0720      21.3315       0.0000
