~VERSION INFORMATION
VERS.           2.0   :CWLS Log ASCII Standard - VERSION 2.0
WRAP.           NO    :One Line per depth step
PROD.  Schlumberger   :LAS Producer
PROG.  DLIS to ASCII 2.3                               :LAS Program name and version
CREA.        2023/07/14 00:15                          :LAS Creation date {YYYY/MM/DD hh:mm}
DLIS_CREA.  2023-Jul-14 00:11                          :DLIS Creation date and time {YYYY-MMM-DD hh:mm}
SOURCE.     LIS2_002.dlis                              :DLIS File Name
FILE-ID.     LIS   .002                                :File Identification Number
#--------------------------------------------------
~WELL INFORMATION
#MNEM.UNIT      DATA             DESCRIPTION
#---- ------ --------------   -----------------------------
STRT .M      5051.7552       :START DEPTH     
STOP .M      5231.7396       :STOP DEPTH     
STEP .M         0.1524       :STEP     
NULL .          -999.25      :NULL VALUE
COMP .        PETROBRAS S.A.                           :COMPANY
WELL .        3-BRSA-293D-SPS                          :WELL
FLD  .        BS-400                                   :FIELD
LOC  .        BASE SAD 69:                             :LOCATION
CNTY .        SANTOS                                   :COUNTY
STAT .        BRASIL                                   :STATE
CTRY .        BRASIL                                   :COUNTRY
API  .                                                 :API NUMBER
UWI  .                                                 :UNIQUE WELL ID
DATE .        24/10/2004                               :LOG DATE
SRVC .        Schlumberger                             :SERVICE COMPANY
LATI .DEG                                              :LATITUDE
LONG .DEG                                              :LONGITUDE
GDAT .                                                 :GeoDetic Datum
#-----------------------------------------------------------------------------
~PARAMETER INFORMATION
#MNEM.UNIT    VALUE                      DESCRIPTION
#---- -----   --------------------       ------------------------
APD  .M               24                 :
BHT  .DEGF           280                 :
BLI  .M             5225                 :
BS   .IN         8.50000                 :
CN   .        PETROBRAS S.A.             :
COUN .        SANTOS                     :
CS   .IN         9.62500                 :
DATE .        24/10/2004                 :
DFD  .LB/G      12.30000                 :
DFL  .C3               2                 :
DFPH .        N/A                        :
DFT  .        SINTETICO                  :
DFV  .S               87                 :
DMF  .        MESA ROTATIVA              :
EDF  .M               24                 :
EGL  .M             -500                 :
EKB  .        N/A                        :
ENGI .        HERNANDEZ/LOCK             :
FL1  .        X   7292392.00 M LAT 24 28 47.189 S :
FL2  .        Y    584087.00 M LON 44 10 12.698 W :
FL3  .        MC  45 GRAUS               :
FN   .        BS-400                     :
LMF  .        MESA ROTATIVA              :
LUL  .        MACAE                      :
MCSS .        PRENSA                     :
MCST .DEGF            80                 :
MFSS .        PRENSA                     :
MFST .DEGF            80                 :
MSS  .        LINHA DE FLUXO             :
MST  .DEGF            80                 :
PDAT .        NIVEL DO MAR               :
R1   .        01. APRESENTAÇÃO DE ACORDO COM REQUERIMENTO DO CLIENTE :
R2   .        02. TEMPERATURA MÁXIMA DO POÇO T1=T2= 290 DEGF @  5215 M :
R3   .        03. INICIO DA CIRCULAÇÃO  13 45 H 21/10/2004 :
R4   .        04. FINAL DA CIRCULAÇÃO   16 00 H 21/10/2004 :
R5   .        05. TEMPO TOTAL DE CIRCULAÇÃO  02 15 H :
R6   .        06. FLUIDO DE PERFURAÇÃO  SINTETICO (BR-MUL  BR-MI)  65% TEOR DO OLEO :
R7   .        07. SALINIDADE DA LAMA  266377 PPM NACL NA FASE DE AGUA :
R8   .        08. INCLINAÇÃO MÁXIMA DO POÇO  37.37 GRAUS @ 5100 M :
R9   .        09. PRIMEIRAS E ULTIMAS LEITURAS  :
RMB  .OHMM    > 10                       :
RMCS .OHMM    > 10                       :
RMFS .OHMM    > 10                       :
RMS  .OHMM    > 10                       :
RUN  .                 1                 :
STAT .        BRASIL                     :
TCS  .        16 00 H                    :
TDD  .M             5230                 :
TDL  .        NR                         :
TLAB .        N/A                        :
TLI  .M             5070                 :
WITN .        ALCIDIO/VLADIMIR           :
WN   .        3-BRSA-293D-SPS            :
LUN  .              8808                 :
HIDE .        3-SPS-41D                  :
HID2 .        MAGNETIC RESONANCE         :
HID3 .        EXPLORER LOG               :
HID4 .        GAMMA RAY LOG              :
CLAB .        BACIA                      :
SLAB .        PAIS                       :
CMT1 .        ESC  1 200                 :
CMT2 .        PROF. MEDIDA               :
CMT4 .        SONDA  SS-43               :
HDAT .        SAD 69                     :
FL   .        BASE SAD 69                :
OS1  .        HDIL/XMAC/GR               :
OS3  .        ZDL/CN/GR                  :
OS5  .        SL/GR                      :
LNAM .        MREX/ZDL/CN/XMAC/HDIL/3DEX/RCI/SL/GR :
TOOL .        MREX/ZDL/CN/XMAC/HDIL/3DEX/RCI/SL/GR :
LSOU .        PETROBRAS                  :
LSRV .        OH WIRELINE                :
LTYP .        RAW                        :
EPD  .M                0                 :
LDAT .        24/10/2004                 :
TRIP .                 1                 :
SON  .            783148                 :
CBDR .M             4277                 :
CBLO .        NR                         :
STEM .DEGF    N/A                        :
BSAL .            266377                 :
BARI .        OFF                        :
DLAB .        21/10/2004                 :
MRT  .DEGF           290                 :
TSTR .        MRIL/GR                    :
TSTG .        N/A                        :
STUS .        FINAL                      :
LCNM .        BAKER ATLAS                :
LCC  .               150                 :
NATI .        BRASIL                     :
OPMD .        OH.WIRELINE                :
PANA .        HERNANDEZ/LOCK             :
PCON .        BAKER ATLAS                :
R11  .        MREX     5225.0 M/5070.0 M :
R13  .        10. PONTO FRACO UTILIZADO  8K :
R14  .        12. DECLINAÇÃO MAGNETICA  -20.9 GRAUS :
R15  .        13. COORDENADAS BASE       :
R17  .        X   7292512.00 M           :
R18  .        Y    583936.00 M           :
R19  .        MC  45 GRAUS               :
R21  .        14. CADASTRO ANP  86316021017 :
PVER .           4.10000                 :
WDFN .        /space/expusr/3-SPS-41D/dat1a/pass/mexilhoes/i857d04.aff :
OCT  .        i857d                      :
0S2  .        3DEX/GR                    :
OS4  .        RCI/GR                     :
#-----------------------------------------------------------------------------
~CURVE INFORMATION
#MNEM.UNIT   API CODE                                  DESCRIPTION
#---- -----  --------                                  -----------------------
DEPT .M                                                :DEPTH (BOREHOLE) {F10.4}
DEPT .M                                                : {F13.4}
GR   .GAPI                                             : {F13.4}
SPD  .M/MN                                             : {F13.4}
TTEN .LBF                                              : {F13.4}
MBVI .PU                                               : {F13.4}
MBVM .PU                                               : {F13.4}
MPHE .PU                                               : {F13.4}
MPHS .PU                                               : {F13.4}
MPRM .MD                                               : {F13.4}
TPOR[0].                                               : {AF13.4}
#-----------------------------------------------------------------------------
# 
#     DEPT        DEPT         GR           SPD          TTEN         MBVI         MBVM         MPHE         MPHS         MPRM       TPOR[0]
#
~A  
# ...
 5190.7440    5190.7440      70.6957       1.0489    6358.8523       1.6630       0.3630       2.0260       6.1498       0.0001       0.0000
 5190.8964    5190.8964      69.0520       1.0444    6374.6850       1.4207       0.4908       1.9114       5.7569       0.0002       0.0000
 5191.0488    5191.0488      68.5143       1.0421    6369.1836       1.0289       0.6473       1.6762       5.3353       0.0005       0.0000
 5191.2012    5191.2012      68.0023       1.0439    6378.4561       0.6438       0.7675       1.4113       4.9485       0.0010       0.0000
 5191.3536    5191.3536      68.3290       1.0426    6399.4557       0.3615       0.8181       1.1796       4.5565       0.0017       0.0000
 5191.5060    5191.5060      70.5235       1.0364    6407.3609       0.1996       0.8044       1.0041       4.1670       0.0024       0.0000
 5191.6584    5191.6584      73.5493       1.0320    6403.3011       0.1246       0.7430       0.8676       3.8252       0.0024       0.0000
 5191.8108    5191.8108      75.3207       1.0352    6411.3601       0.0846       0.6585       0.7430       3.5490       0.0017       0.0000
 5191.9632    5191.9632      75.0681       1.0418    6415.3344       0.0490       0.5833       0.6323       3.3422       0.0011       0.0000
 5192.1156    5192.1156      73.5730       1.0480    6393.8272       0.0248       0.5357       0.5604       3.2362       0.0008       0.0000
 5192.2680    5192.2680      71.5742       1.0495    6368.7809       0.0434       0.5176       0.5609       3.2692       0.0006       0.0000
 5192.4204    5192.4204      69.4576       1.0449    6371.0198       0.1142       0.5189       0.6332       3.4336       0.0004       0.0000
 5192.5728    5192.5728      67.2225       1.0388    6391.1662       0.2030       0.5182       0.7212       3.6630       0.0002       0.0000
 5192.7252    5192.7252      64.7380       1.0343    6408.4504       0.2371       0.5015       0.7387       3.8265       0.0002       0.0000
 5192.8776    5192.8776      63.2372       1.0317    6415.3711       0.2228       0.4679       0.6907       3.8608       0.0001       0.0000
 5193.0300    5193.0300      65.3824       1.0303    6414.3860       0.2691       0.4197       0.6888       3.8529       0.0001       0.0000
 5193.1824    5193.1824      70.9648       1.0296    6412.4146       0.4631       0.3639       0.8271       3.9586       0.0001       0.0000
 5193.3348    5193.3348      76.3884       1.0307    6404.3184       0.7161       0.3191       1.0352       4.1880       0.0000       0.0000
 5193.4872    5193.4872      78.8045       1.0312    6391.9401       0.8564       0.3044       1.1608       4.4138       0.0000       0.0000
 5193.6396    5193.6396      77.9056       1.0263    6382.9580       0.7958       0.3290       1.1248       4.5077       0.0000       0.0000
 5193.7920    5193.7920      75.1293       1.0209    6379.8828       0.6326       0.3848       1.0174       4.4777       0.0000       0.0000
 5193.9444    5193.9444      72.1898       1.0228    6373.5654       0.5314       0.4484       0.9799       4.4119       0.0001       0.0000
 5194.0968    5194.0968      70.4666       1.0311    6351.2133       0.5155       0.4954       1.0108       4.3352       0.0001       0.0000
 5194.2492    5194.2492      69.4802       1.0412    6299.1675       0.4778       0.5282       1.0061       4.1955       0.0001       0.0000
 5194.4016    5194.4016      67.6823       1.0496    6239.2858       0.4041       0.5595       0.9636       4.0126       0.0002       0.0000
 5194.5540    5194.5540      64.6882       1.0522    6243.1011       0.4095       0.5765       0.9860       3.8787       0.0002       0.0000
 5194.7064    5194.7064      61.6498       1.0523    6313.3090       0.5740       0.5441       1.1181       3.8229       0.0002       0.0000
 5194.8588    5194.8588      59.4746       1.0542    6365.9468       0.8055       0.4768       1.2823       3.7674       0.0001       0.0000
 5195.0112    5195.0112      59.1127       1.0554    6355.4305       0.9334       0.4340       1.3675       3.6310       0.0001       0.0000
 5195.1636    5195.1636      61.4482       1.0495    6321.7586       0.9085       0.4444       1.3528       3.4159       0.0001       0.0000
 5195.3160    5195.3160      65.0797       1.0427    6303.6018       0.8413       0.4892       1.3306       3.2205       0.0001       0.0000
 5195.4684    5195.4684      67.2744       1.0437    6307.7621       0.8380       0.5604       1.3984       3.1372       0.0002       0.0000
 5195.6208    5195.6208      67.5833       1.0484    6325.8346       0.8972       0.6839       1.5811       3.1475       0.0005       0.0000
 5195.7732    5195.7732      67.9722       1.0488    6335.5822       0.9420       0.8819       1.8238       3.1434       0.0018       0.0000
 5195.9256    5195.9256      69.5332       1.0459    6322.0097       0.8982       1.1530       2.0512       3.0486       0.0061       0.0000
 5196.0780    5196.0780      70.5375       1.0395    6297.5840       0.7749       1.4744       2.2493       2.9253       0.0187       0.0000
 5196.2304    5196.2304      68.8414       1.0276    6298.3479       0.6712       1.7906       2.4618       2.8975       0.0382       0.0000
 5196.3828    5196.3828      65.3327       1.0178    6325.1631       0.6998       2.0393       2.7391       3.0325       0.0544       0.0000
 5196.5352    5196.5352      60.4151       1.0170    6326.2900       0.9120       2.2137       3.1256       3.3390       0.0615       0.0000
 5196.6876    5196.6876      53.6657       1.0215    6280.4659       1.2527       2.4025       3.6553       3.8189       0.0738       0.0000
 5196.8400    5196.8400      47.2125       1.0265    6238.0432       1.6166       2.7066       4.3232       4.4466       0.1134       0.0000
 5196.9924    5196.9924      44.0602       1.0338    6237.5466       1.9793       3.1126       5.0918       5.1807       0.1874       0.0000
 5197.1448    5197.1448      43.4919       1.0378    6264.1270       2.4105       3.4915       5.9019       5.9713       0.2714       0.0000
 5197.2972    5197.2972      45.7182       1.0335    6282.5135       2.9526       3.7397       6.6922       6.7669       0.3326       0.0000
 5197.4496    5197.4496      52.3954       1.0254    6282.7221       3.5359       3.8693       7.4052       7.5088       0.3663       0.0000
 5197.6020    5197.6020      59.3254       1.0180    6281.8738       3.9913       3.9635       7.9547       8.0940       0.3993       0.0000
 5197.7544    5197.7544      60.5780       1.0142    6293.1061       4.1767       4.1015       8.2782       8.4403       0.4609       0.0000
 5197.9068    5197.9068      56.5959       1.0232    6307.8112       4.0994       4.3007       8.4002       8.5675       0.5633       0.0000
 5198.0592    5198.0592      52.2178       1.0415    6311.5215       3.9143       4.4935       8.4077       8.5748       0.6720       0.0000
 5198.2116    5198.2116      49.8480       1.0561    6291.5295       3.8104       4.5773       8.3877       8.5602       0.7217       0.0000
 5198.3640    5198.3640      49.3006       1.0608    6262.6864       3.9159       4.4898       8.4057       8.5832       0.6717       0.0000
 5198.5164    5198.5164      48.8272       1.0583    6253.1355       4.1797       4.2862       8.4659       8.6302       0.5592       0.0000
 5198.6688    5198.6688      47.8997       1.0535    6251.4195       4.3878       4.0963       8.4841       8.6101       0.4607       0.0000
 5198.8212    5198.8212      47.4581       1.0462    6241.4234       4.3333       4.0258       8.3591       8.4424       0.4254       0.0000
 5198.9736    5198.9736      47.7348       1.0400    6237.2891       4.0716       4.0700       8.1416       8.2071       0.4441       0.0000
 5199.1260    5199.1260      47.9413       1.0466    6244.6084       3.8502       4.1432       7.9934       8.0749       0.4754       0.0000
 5199.2784    5199.2784      47.5265       1.0647    6253.2849       3.8164       4.1755       7.9919       8.1068       0.4890       0.0000
