~VERSION INFORMATION
VERS.           2.0   :CWLS Log ASCII Standard - VERSION 2.0
WRAP.           NO    :One Line per depth step
PROD.  Schlumberger   :LAS Producer
PROG.  DLIS to ASCII 2.3                               :LAS Program name and version
CREA.        2023/07/14 00:15                          :LAS Creation date {YYYY/MM/DD hh:mm}
DLIS_CREA.  2023-Jul-14 00:11                          :DLIS Creation date and time {YYYY-MMM-DD hh:mm}
SOURCE.     LIS2_002.dlis                              :DLIS File Name
FILE-ID.     LIS   .002                                :File Identification Number
#--------------------------------------------------
~WELL INFORMATION
#MNEM.UNIT      DATA             DESCRIPTION
#---- ------ --------------   -----------------------------
STRT .M      5051.7552       :START DEPTH     
STOP .M      5231.7396       :STOP DEPTH     
STEP .M         0.1524       :STEP     
NULL .          -999.25      :NULL VALUE
COMP .        PETROBRAS S.A.                           :COMPANY
WELL .        3-BRSA-293D-SPS                          :WELL
FLD  .        BS-400                                   :FIELD
LOC  .        BASE SAD 69:                             :LOCATION
CNTY .        SANTOS                                   :COUNTY
STAT .        BRASIL                                   :STATE
CTRY .        BRASIL                                   :COUNTRY
API  .                                                 :API NUMBER
UWI  .                                                 :UNIQUE WELL ID
DATE .        24/10/2004                               :LOG DATE
SRVC .        Schlumberger                             :SERVICE COMPANY
LATI .DEG                                              :LATITUDE
LONG .DEG                                              :LONGITUDE
GDAT .                                                 :GeoDetic Datum
#-----------------------------------------------------------------------------
~PARAMETER INFORMATION
#MNEM.UNIT    VALUE                      DESCRIPTION
#---- -----   --------------------       ------------------------
APD  .M               24                 :
BHT  .DEGF           280                 :
BLI  .M             5225                 :
BS   .IN         8.50000                 :
CN   .        PETROBRAS S.A.             :
COUN .        SANTOS                     :
CS   .IN         9.62500                 :
DATE .        24/10/2004                 :
DFD  .LB/G      12.30000                 :
DFL  .C3               2                 :
DFPH .        N/A                        :
DFT  .        SINTETICO                  :
DFV  .S               87                 :
DMF  .        MESA ROTATIVA              :
EDF  .M               24                 :
EGL  .M             -500                 :
EKB  .        N/A                        :
ENGI .        HERNANDEZ/LOCK             :
FL1  .        X   7292392.00 M LAT 24 28 47.189 S :
FL2  .        Y    584087.00 M LON 44 10 12.698 W :
FL3  .        MC  45 GRAUS               :
FN   .        BS-400                     :
LMF  .        MESA ROTATIVA              :
LUL  .        MACAE                      :
MCSS .        PRENSA                     :
MCST .DEGF            80                 :
MFSS .        PRENSA                     :
MFST .DEGF            80                 :
MSS  .        LINHA DE FLUXO             :
MST  .DEGF            80                 :
PDAT .        NIVEL DO MAR               :
R1   .        01. APRESENTAÇÃO DE ACORDO COM REQUERIMENTO DO CLIENTE :
R2   .        02. TEMPERATURA MÁXIMA DO POÇO T1=T2= 290 DEGF @  5215 M :
R3   .        03. INICIO DA CIRCULAÇÃO  13 45 H 21/10/2004 :
R4   .        04. FINAL DA CIRCULAÇÃO   16 00 H 21/10/2004 :
R5   .        05. TEMPO TOTAL DE CIRCULAÇÃO  02 15 H :
R6   .        06. FLUIDO DE PERFURAÇÃO  SINTETICO (BR-MUL  BR-MI)  65% TEOR DO OLEO :
R7   .        07. SALINIDADE DA LAMA  266377 PPM NACL NA FASE DE AGUA :
R8   .        08. INCLINAÇÃO MÁXIMA DO POÇO  37.37 GRAUS @ 5100 M :
R9   .        09. PRIMEIRAS E ULTIMAS LEITURAS  :
RMB  .OHMM    > 10                       :
RMCS .OHMM    > 10                       :
RMFS .OHMM    > 10                       :
RMS  .OHMM    > 10                       :
RUN  .                 1                 :
STAT .        BRASIL                     :
TCS  .        16 00 H                    :
TDD  .M             5230                 :
TDL  .        NR                         :
TLAB .        N/A                        :
TLI  .M             5070                 :
WITN .        ALCIDIO/VLADIMIR           :
WN   .        3-BRSA-293D-SPS            :
LUN  .              8808                 :
HIDE .        3-SPS-41D                  :
HID2 .        MAGNETIC RESONANCE         :
HID3 .        EXPLORER LOG               :
HID4 .        GAMMA RAY LOG              :
CLAB .        BACIA                      :
SLAB .        PAIS                       :
CMT1 .        ESC  1 200                 :
CMT2 .        PROF. MEDIDA               :
CMT4 .        SONDA  SS-43               :
HDAT .        SAD 69                     :
FL   .        BASE SAD 69                :
OS1  .        HDIL/XMAC/GR               :
OS3  .        ZDL/CN/GR                  :
OS5  .        SL/GR                      :
LNAM .        MREX/ZDL/CN/XMAC/HDIL/3DEX/RCI/SL/GR :
TOOL .        MREX/ZDL/CN/XMAC/HDIL/3DEX/RCI/SL/GR :
LSOU .        PETROBRAS                  :
LSRV .        OH WIRELINE                :
LTYP .        RAW                        :
EPD  .M                0                 :
LDAT .        24/10/2004                 :
TRIP .                 1                 :
SON  .            783148                 :
CBDR .M             4277                 :
CBLO .        NR                         :
STEM .DEGF    N/A                        :
BSAL .            266377                 :
BARI .        OFF                        :
DLAB .        21/10/2004                 :
MRT  .DEGF           290                 :
TSTR .        MRIL/GR                    :
TSTG .        N/A                        :
STUS .        FINAL                      :
LCNM .        BAKER ATLAS                :
LCC  .               150                 :
NATI .        BRASIL                     :
OPMD .        OH.WIRELINE                :
PANA .        HERNANDEZ/LOCK             :
PCON .        BAKER ATLAS                :
R11  .        MREX     5225.0 M/5070.0 M :
R13  .        10. PONTO FRACO UTILIZADO  8K :
R14  .        12. DECLINAÇÃO MAGNETICA  -20.9 GRAUS :
R15  .        13. COORDENADAS BASE       :
R17  .        X   7292512.00 M           :
R18  .        Y    583936.00 M           :
R19  .        MC  45 GRAUS               :
R21  .        14. CADASTRO ANP  86316021017 :
PVER .           4.10000                 :
WDFN .        /space/expusr/3-SPS-41D/dat1a/pass/mexilhoes/i857d04.aff :
OCT  .        i857d                      :
0S2  .        3DEX/GR                    :
OS4  .        RCI/GR                     :
#-----------------------------------------------------------------------------
~CURVE INFORMATION
#MNEM.UNIT   API CODE                                  DESCRIPTION
#---- -----  --------                                  -----------------------
DEPT .M                                                :DEPTH (BOREHOLE) {F10.4}
DEPT .M                                                : {F13.4}
GR   .GAPI                                             : {F13.4}
SPD  .M/MN                                             : {F13.4}
TTEN .LBF                                              : {F13.4}
MBVI .PU                                               : {F13.4}
MBVM .PU                                               : {F13.4}
MPHE .PU                                               : {F13.4}
MPHS .PU                                               : {F13.4}
MPRM .MD                                               : {F13.4}
TPOR[0].                                               : {AF13.4}
#-----------------------------------------------------------------------------
# 
#     DEPT        DEPT         GR           SPD          TTEN         MBVI         MBVM         MPHE         MPHS         MPRM       TPOR[0]
#
~A  
# ...
 5155.9968    5155.9968      47.4587       1.0416    5887.1585       6.8787       8.9260      15.8047      15.8053      10.5336       0.0000
 5156.1492    5156.1492      48.4134       1.0463    5854.4232       7.1043       9.0269      16.1312      16.1424      10.9665       0.0000
 5156.3016    5156.3016      50.3800       1.0481    5827.2514       7.1115       9.1828      16.2943      16.3513      11.8069       0.0000
 5156.4540    5156.4540      52.4004       1.0501    5836.3056       6.9685       9.3254      16.2940      16.4696      12.6670       0.0000
 5156.6064    5156.6064      53.0697       1.0509    5861.5391       6.8829       9.4171      16.3000      16.5988      13.2345       0.0000
 5156.7588    5156.7588      52.1277       1.0498    5870.5879       7.0174       9.4738      16.4912      16.7783      13.5018       0.0000
 5156.9112    5156.9112      51.1353       1.0491    5859.3839       7.3200       9.5232      16.8431      16.9999      13.6465       0.0000
 5157.0636    5157.0636      51.0791       1.0491    5845.5920       7.5279       9.5672      17.0951      17.1494      13.8184       0.0000
 5157.2160    5157.2160      51.5586       1.0479    5849.1049       7.3715       9.6103      16.9818      17.0075      14.2219       0.0000
 5157.3684    5157.3684      51.7247       1.0469    5877.8990       6.7774       9.6702      16.4476      16.4632      15.1783       0.0000
 5157.5208    5157.5208      51.4019       1.0472    5901.8486       5.8997       9.7460      15.6458      15.6532      16.9149       0.0000
 5157.6732    5157.6732      51.2160       1.0502    5893.3006       4.9893       9.8198      14.8091      14.8112      19.3967       0.0000
 5157.8256    5157.8256      51.4239       1.0519    5874.3769       4.2468       9.8979      14.1447      14.1449      22.4985       0.0000
 5157.9780    5157.9780      51.6162       1.0492    5874.0421       3.7254       9.9911      13.7166      13.7166      26.1501       0.0000
 5158.1304    5158.1304      51.6964       1.0447    5885.6903       3.3426      10.0713      13.4140      13.4140      30.0490       0.0000
 5158.2828    5158.2828      52.1271       1.0446    5889.5631       3.0370      10.0943      13.1313      13.1314      33.2831       0.0000
 5158.4352    5158.4352      53.5841       1.0486    5879.9764       2.8146      10.0533      12.8680      12.8696      35.1720       0.0000
 5158.5876    5158.5876      55.7661       1.0515    5869.2061       2.6642       9.9609      12.6251      12.6424      35.6845       0.0000
 5158.7400    5158.7400      57.4406       1.0511    5874.1518       2.6183       9.8092      12.4275      12.5110      33.9424       0.0000
 5158.8924    5158.8924      58.0647       1.0498    5884.9935       2.7233       9.5980      12.3213      12.4863      29.5013       0.0000
 5159.0448    5159.0448      57.9122       1.0506    5879.1910       2.9265       9.3733      12.2999      12.4610      24.1970       0.0000
 5159.1972    5159.1972      57.7492       1.0504    5862.3763       3.1053       9.2036      12.3089      12.3847      20.4549       0.0000
 5159.3496    5159.3496      58.1186       1.0487    5862.8154       3.2165       9.1370      12.3535      12.3652      18.8596       0.0000
 5159.5020    5159.5020      58.4131       1.0500    5882.0771       3.3286       9.1704      12.4990      12.4990      18.5703       0.0000
 5159.6544    5159.6544      57.6425       1.0536    5889.3998       3.5163       9.2531      12.7694      12.7694      18.4936       0.0000
 5159.8068    5159.8068      56.6885       1.0542    5880.9983       3.7262       9.3467      13.0729      13.0729      18.4496       0.0000
 5159.9592    5159.9592      57.1236       1.0495    5927.7375       3.7955       9.4573      13.2528      13.2528      19.3685       0.0000
 5160.1116    5160.1116      59.0439       1.0398    6087.1304       3.6326       9.5937      13.2263      13.2263      21.8723       0.0000
 5160.2640    5160.2640      61.2011       1.0274    6263.4499       3.3981       9.7168      13.1149      13.1149      24.6227       0.0000
 5160.4164    5160.4164      62.0556       1.0210    6329.2632       3.3837       9.7763      13.1600      13.1600      25.3971       0.0000
 5160.5688    5160.5688      60.9148       1.0208    6303.0233       3.7114       9.7650      13.4764      13.4764      23.5405       0.0000
 5160.7212    5160.7212      58.5974       1.0192    6264.1477       4.2025       9.7046      13.9071      13.9071      20.5571       0.0000
 5160.8736    5160.8736      56.4981       1.0169    6206.5097       4.6217       9.6022      14.2239      14.2239      17.9360       0.0000
 5161.0260    5161.0260      55.4490       1.0190    6125.7794       4.8957       9.4615      14.3572      14.3572      16.0207       0.0000
 5161.1784    5161.1784      55.5747       1.0255    6062.5039       5.1372       9.2887      14.4259      14.4259      14.3107       0.0000
 5161.3308    5161.3308      56.4806       1.0315    6040.1813       5.3759       9.1197      14.4956      14.4956      12.8226       0.0000
 5161.4832    5161.4832      57.3048       1.0325    6024.9450       5.5207       9.0104      14.5311      14.5311      11.9225       0.0000
 5161.6356    5161.6356      58.0135       1.0309    5984.4914       5.4929       9.0101      14.5030      14.5030      11.9450       0.0000
 5161.7880    5161.7880      58.9800       1.0308    5947.1790       5.3228       9.0975      14.4203      14.4203      12.7103       0.0000
 5161.9404    5161.9404      59.9478       1.0318    5945.8076       5.0477       9.1888      14.2365      14.2365      13.7282       0.0000
 5162.0928    5162.0928      60.7263       1.0329    5954.1035       4.6372       9.2286      13.8658      13.8658      14.8788       0.0000
 5162.2452    5162.2452      61.7804       1.0341    5944.3844       4.1224       9.2521      13.3745      13.3745      16.5461       0.0000
 5162.3976    5162.3976      63.1007       1.0340    5928.6747       3.6492       9.3161      12.9653      12.9653      18.8744       0.0000
 5162.5500    5162.5500      63.8575       1.0418    5917.2563       3.3646       9.4171      12.7817      12.7817      21.1558       0.0000
 5162.7024    5162.7024      64.1227       1.0558    5909.4412       3.3238       9.4882      12.8120      12.8120      22.1138       0.0000
 5162.8548    5162.8548      64.8956       1.0605    5908.8245       3.5185       9.4679      12.9864      12.9864      20.9894       0.0000
 5163.0072    5163.0072      66.4816       1.0578    5902.1692       3.9022       9.3447      13.2469      13.2469      18.2711       0.0000
 5163.1596    5163.1596      67.8967       1.0588    5881.8676       4.3969       9.1730      13.5698      13.5698      15.2661       0.0000
 5163.3120    5163.3120      68.3056       1.0590    5862.6706       4.9383       9.0341      13.9724      13.9724      13.0515       0.0000
 5163.4644    5163.4644      67.6533       1.0543    5844.0073       5.5271       8.9520      14.4791      14.4791      11.7062       0.0000
 5163.6168    5163.6168      66.4092       1.0517    5821.0769       6.1312       8.8892      15.0203      15.0203      10.8282       0.0000
 5163.7692    5163.7692      65.2701       1.0537    5813.9427       6.6537       8.8174      15.4711      15.4711      10.1310       0.0000
 5163.9216    5163.9216      64.6413       1.0557    5832.5174       6.9650       8.7604      15.7254      15.7254       9.6987       0.0000
 5164.0740    5164.0740      64.0078       1.0521    5846.4857       6.9731       8.7614      15.7345      15.7345       9.7095       0.0000
 5164.2264    5164.2264      63.0770       1.0436    5844.9906       6.6425       8.8466      15.4891      15.4891      10.3484       0.0000
 5164.3788    5164.3788      62.5015       1.0346    5858.4397       6.0164       9.0214      15.0378      15.0378      11.9069       0.0000
 5164.5312    5164.5313      62.2239       1.0306    5894.1709       5.1962       9.2788      14.4750      14.4750      15.1112       0.0000
