~VERSION INFORMATION
VERS.           2.0   :CWLS Log ASCII Standard - VERSION 2.0
WRAP.           NO    :One Line per depth step
PROD.  Schlumberger   :LAS Producer
PROG.  DLIS to ASCII 2.3                               :LAS Program name and version
CREA.        2023/07/14 00:15                          :LAS Creation date {YYYY/MM/DD hh:mm}
DLIS_CREA.  2023-Jul-14 00:11                          :DLIS Creation date and time {YYYY-MMM-DD hh:mm}
SOURCE.     LIS2_002.dlis                              :DLIS File Name
FILE-ID.     LIS   .002                                :File Identification Number
#--------------------------------------------------
~WELL INFORMATION
#MNEM.UNIT      DATA             DESCRIPTION
#---- ------ --------------   -----------------------------
STRT .M      5051.7552       :START DEPTH     
STOP .M      5231.7396       :STOP DEPTH     
STEP .M         0.1524       :STEP     
NULL .          -999.25      :NULL VALUE
COMP .        PETROBRAS S.A.                           :COMPANY
WELL .        3-BRSA-293D-SPS                          :WELL
FLD  .        BS-400                                   :FIELD
LOC  .        BASE SAD 69:                             :LOCATION
CNTY .        SANTOS                                   :COUNTY
STAT .        BRASIL                                   :STATE
CTRY .        BRASIL                                   :COUNTRY
API  .                                                 :API NUMBER
UWI  .                                                 :UNIQUE WELL ID
DATE .        24/10/2004                               :LOG DATE
SRVC .        Schlumberger                             :SERVICE COMPANY
LATI .DEG                                              :LATITUDE
LONG .DEG                                              :LONGITUDE
GDAT .                                                 :GeoDetic Datum
#-----------------------------------------------------------------------------
~PARAMETER INFORMATION
#MNEM.UNIT    VALUE                      DESCRIPTION
#---- -----   --------------------       ------------------------
APD  .M               24                 :
BHT  .DEGF           280                 :
BLI  .M             5225                 :
BS   .IN         8.50000                 :
CN   .        PETROBRAS S.A.             :
COUN .        SANTOS                     :
CS   .IN         9.62500                 :
DATE .        24/10/2004                 :
DFD  .LB/G      12.30000                 :
DFL  .C3               2                 :
DFPH .        N/A                        :
DFT  .        SINTETICO                  :
DFV  .S               87                 :
DMF  .        MESA ROTATIVA              :
EDF  .M               24                 :
EGL  .M             -500                 :
EKB  .        N/A                        :
ENGI .        HERNANDEZ/LOCK             :
FL1  .        X   7292392.00 M LAT 24 28 47.189 S :
FL2  .        Y    584087.00 M LON 44 10 12.698 W :
FL3  .        MC  45 GRAUS               :
FN   .        BS-400                     :
LMF  .        MESA ROTATIVA              :
LUL  .        MACAE                      :
MCSS .        PRENSA                     :
MCST .DEGF            80                 :
MFSS .        PRENSA                     :
MFST .DEGF            80                 :
MSS  .        LINHA DE FLUXO             :
MST  .DEGF            80                 :
PDAT .        NIVEL DO MAR               :
R1   .        01. APRESENTAÇÃO DE ACORDO COM REQUERIMENTO DO CLIENTE :
R2   .        02. TEMPERATURA MÁXIMA DO POÇO T1=T2= 290 DEGF @  5215 M :
R3   .        03. INICIO DA CIRCULAÇÃO  13 45 H 21/10/2004 :
R4   .        04. FINAL DA CIRCULAÇÃO   16 00 H 21/10/2004 :
R5   .        05. TEMPO TOTAL DE CIRCULAÇÃO  02 15 H :
R6   .        06. FLUIDO DE PERFURAÇÃO  SINTETICO (BR-MUL  BR-MI)  65% TEOR DO OLEO :
R7   .        07. SALINIDADE DA LAMA  266377 PPM NACL NA FASE DE AGUA :
R8   .        08. INCLINAÇÃO MÁXIMA DO POÇO  37.37 GRAUS @ 5100 M :
R9   .        09. PRIMEIRAS E ULTIMAS LEITURAS  :
RMB  .OHMM    > 10                       :
RMCS .OHMM    > 10                       :
RMFS .OHMM    > 10                       :
RMS  .OHMM    > 10                       :
RUN  .                 1                 :
STAT .        BRASIL                     :
TCS  .        16 00 H                    :
TDD  .M             5230                 :
TDL  .        NR                         :
TLAB .        N/A                        :
TLI  .M             5070                 :
WITN .        ALCIDIO/VLADIMIR           :
WN   .        3-BRSA-293D-SPS            :
LUN  .              8808                 :
HIDE .        3-SPS-41D                  :
HID2 .        MAGNETIC RESONANCE         :
HID3 .        EXPLORER LOG               :
HID4 .        GAMMA RAY LOG              :
CLAB .        BACIA                      :
SLAB .        PAIS                       :
CMT1 .        ESC  1 200                 :
CMT2 .        PROF. MEDIDA               :
CMT4 .        SONDA  SS-43               :
HDAT .        SAD 69                     :
FL   .        BASE SAD 69                :
OS1  .        HDIL/XMAC/GR               :
OS3  .        ZDL/CN/GR                  :
OS5  .        SL/GR                      :
LNAM .        MREX/ZDL/CN/XMAC/HDIL/3DEX/RCI/SL/GR :
TOOL .        MREX/ZDL/CN/XMAC/HDIL/3DEX/RCI/SL/GR :
LSOU .        PETROBRAS                  :
LSRV .        OH WIRELINE                :
LTYP .        RAW                        :
EPD  .M                0                 :
LDAT .        24/10/2004                 :
TRIP .                 1                 :
SON  .            783148                 :
CBDR .M             4277                 :
CBLO .        NR                         :
STEM .DEGF    N/A                        :
BSAL .            266377                 :
BARI .        OFF                        :
DLAB .        21/10/2004                 :
MRT  .DEGF           290                 :
TSTR .        MRIL/GR                    :
TSTG .        N/A                        :
STUS .        FINAL                      :
LCNM .        BAKER ATLAS                :
LCC  .               150                 :
NATI .        BRASIL                     :
OPMD .        OH.WIRELINE                :
PANA .        HERNANDEZ/LOCK             :
PCON .        BAKER ATLAS                :
R11  .        MREX     5225.0 M/5070.0 M :
R13  .        10. PONTO FRACO UTILIZADO  8K :
R14  .        12. DECLINAÇÃO MAGNETICA  -20.9 GRAUS :
R15  .        13. COORDENADAS BASE       :
R17  .        X   7292512.00 M           :
R18  .        Y    583936.00 M           :
R19  .        MC  45 GRAUS               :
R21  .        14. CADASTRO ANP  86316021017 :
PVER .           4.10000                 :
WDFN .        /space/expusr/3-SPS-41D/dat1a/pass/mexilhoes/i857d04.aff :
OCT  .        i857d                      :
0S2  .        3DEX/GR                    :
OS4  .        RCI/GR                     :
#-----------------------------------------------------------------------------
~CURVE INFORMATION
#MNEM.UNIT   API CODE                                  DESCRIPTION
#---- -----  --------                                  -----------------------
DEPT .M                                                :DEPTH (BOREHOLE) {F10.4}
DEPT .M                                                : {F13.4}
GR   .GAPI                                             : {F13.4}
SPD  .M/MN                                             : {F13.4}
TTEN .LBF                                              : {F13.4}
MBVI .PU                                               : {F13.4}
MBVM .PU                                               : {F13.4}
MPHE .PU                                               : {F13.4}
MPHS .PU                                               : {F13.4}
MPRM .MD                                               : {F13.4}
TPOR[0].                                               : {AF13.4}
#-----------------------------------------------------------------------------
# 
#     DEPT        DEPT         GR           SPD          TTEN         MBVI         MBVM         MPHE         MPHS         MPRM       TPOR[0]
#
~A  
# ...
 5112.5628    5112.5628      72.3339       0.9638    6261.8163       0.8343       0.2109       1.0452       6.1875       0.0000       0.0000
 5112.7152    5112.7152      70.8009       0.9655    6259.3778       0.9143       0.2501       1.1644       6.1473       0.0000       0.0000
 5112.8676    5112.8676      68.6828       0.9626    6252.1850       1.0257       0.2605       1.2862       6.2489       0.0000       0.0000
 5113.0200    5113.0200      66.3813       0.9586    6248.5405       1.0918       0.2754       1.3672       6.3164       0.0000       0.0000
 5113.1724    5113.1724      64.2172       0.9614    6241.6764       1.0159       0.3407       1.3566       6.1372       0.0001       0.0000
 5113.3248    5113.3248      62.9413       0.9704    6229.2642       0.8375       0.4422       1.2797       5.7463       0.0001       0.0000
 5113.4772    5113.4772      62.2580       0.9749    6233.3537       0.6891       0.5073       1.1963       5.4047       0.0001       0.0000
 5113.6296    5113.6296      61.3171       0.9729    6245.9433       0.6231       0.5097       1.1328       5.2958       0.0001       0.0000
 5113.7820    5113.7820      60.4176       0.9716    6256.8282       0.6073       0.5025       1.1097       5.3909       0.0001       0.0000
 5113.9344    5113.9344      59.8479       0.9756    6276.5452       0.6266       0.5405       1.1670       5.5858       0.0002       0.0000
 5114.0868    5114.0868      59.3406       0.9832    6293.5477       0.7282       0.5974       1.3255       5.8556       0.0002       0.0000
 5114.2392    5114.2393      59.0802       0.9898    6283.0547       0.9855       0.6038       1.5893       6.2457       0.0003       0.0000
 5114.3916    5114.3916      59.5895       0.9909    6269.9209       1.3824       0.5451       1.9275       6.7409       0.0002       0.0000
 5114.5440    5114.5439      62.1089       0.9877    6282.5303       1.7557       0.4768       2.2324       7.1885       0.0002       0.0000
 5114.6964    5114.6964      66.5642       0.9851    6293.9061       1.9317       0.4419       2.3736       7.4220       0.0002       0.0000
 5114.8488    5114.8488      70.3254       0.9836    6276.9128       1.9025       0.4285       2.3310       7.4051       0.0002       0.0000
 5115.0012    5115.0012      71.2895       0.9836    6254.9971       1.8302       0.3951       2.2253       7.2402       0.0001       0.0000
 5115.1536    5115.1536      70.1794       0.9887    6252.0808       1.8462       0.3210       2.1672       7.0679       0.0001       0.0000
 5115.3060    5115.3060      68.3150       0.9971    6262.0274       1.9206       0.2369       2.1574       6.9537       0.0000       0.0000
 5115.4584    5115.4584      66.0166       0.9990    6274.0556       1.9688       0.1963       2.1651       6.9287       0.0000       0.0000
 5115.6108    5115.6108      63.5421       0.9948    6284.9194       1.9651       0.2059       2.1710       7.0189       0.0000       0.0000
 5115.7632    5115.7632      60.4920       0.9938    6270.9970       1.9821       0.2118       2.1939       7.2599       0.0000       0.0000
 5115.9156    5115.9156      57.1232       0.9942    6235.3761       2.1126       0.1706       2.2831       7.6688       0.0000       0.0000
 5116.0680    5116.0680      54.6072       0.9915    6233.6370       2.2926       0.1180       2.4106       8.1477       0.0000       0.0000
 5116.2204    5116.2204      53.2696       0.9906    6271.5690       2.3421       0.1156       2.4577       8.5394       0.0000       0.0000
 5116.3728    5116.3728      52.6063       0.9947    6292.5774       2.1820       0.1742       2.3562       8.7607       0.0000       0.0000
 5116.5252    5116.5252      52.5176       0.9975    6273.0668       1.8904       0.2384       2.1288       8.7919       0.0000       0.0000
 5116.6776    5116.6776      53.2425       0.9941    6241.7402       1.5542       0.2485       1.8027       8.5657       0.0000       0.0000
 5116.8300    5116.8300      55.7007       0.9876    6220.4431       1.2537       0.2112       1.4648       8.1296       0.0000       0.0000
 5116.9824    5116.9824      60.2135       0.9854    6211.4932       1.0589       0.1880       1.2469       7.6647       0.0000       0.0000
 5117.1348    5117.1348      64.6562       0.9854    6216.0303       1.0252       0.2076       1.2328       7.3134       0.0000       0.0000
 5117.2872    5117.2872      67.2096       0.9855    6242.8805       1.1191       0.2452       1.3643       7.0633       0.0000       0.0000
 5117.4396    5117.4396      67.5233       0.9853    6274.2121       1.2466       0.2727       1.5194       6.8334       0.0000       0.0000
 5117.5920    5117.5920      65.5835       0.9820    6277.0018       1.2980       0.2992       1.5973       6.5381       0.0000       0.0000
 5117.7444    5117.7444      62.7382       0.9785    6268.7517       1.1908       0.3626       1.5534       6.1748       0.0001       0.0000
 5117.8968    5117.8968      61.3024       0.9801    6279.0924       0.9572       0.4766       1.4338       5.8858       0.0001       0.0000
 5118.0492    5118.0492      61.2797       0.9818    6299.5135       0.7305       0.6085       1.3390       5.8101       0.0003       0.0000
 5118.2016    5118.2016      61.2581       0.9818    6303.4782       0.5722       0.7144       1.2866       5.8791       0.0005       0.0000
 5118.3540    5118.3540      60.9166       0.9850    6301.7306       0.4453       0.7714       1.2167       5.9294       0.0008       0.0000
 5118.5064    5118.5064      60.7414       0.9884    6326.3137       0.3433       0.7748       1.1181       5.9145       0.0009       0.0000
 5118.6588    5118.6588      60.7413       0.9914    6364.7259       0.2893       0.7313       1.0207       5.8491       0.0008       0.0000
 5118.8112    5118.8112      60.2872       0.9977    6375.6682       0.2732       0.6517       0.9249       5.7587       0.0005       0.0000
 5118.9636    5118.9636      59.5795       0.9996    6341.2878       0.2790       0.5446       0.8237       5.7117       0.0003       0.0000
 5119.1160    5119.1160      60.2004       0.9921    6288.9450       0.2972       0.4224       0.7195       5.7261       0.0001       0.0000
 5119.2684    5119.2684      62.8766       0.9863    6241.8184       0.3134       0.3021       0.6155       5.7283       0.0000       0.0000
 5119.4208    5119.4208      65.8014       0.9871    6212.4984       0.3458       0.2106       0.5564       5.7183       0.0000       0.0000
 5119.5732    5119.5732      66.7379       0.9901    6206.7139       0.4391       0.1684       0.6075       5.7911       0.0000       0.0000
 5119.7256    5119.7256      65.7875       0.9928    6230.8164       0.5842       0.1607       0.7449       5.9888       0.0000       0.0000
 5119.8780    5119.8780      64.6732       0.9892    6256.4480       0.7083       0.1506       0.8588       6.3246       0.0000       0.0000
 5120.0304    5120.0304      64.2920       0.9791    6264.9673       0.7765       0.1363       0.9128       6.7938       0.0000       0.0000
 5120.1828    5120.1828      64.1371       0.9767    6280.8767       0.8104       0.1456       0.9561       7.2920       0.0000       0.0000
 5120.3352    5120.3352      64.5609       0.9840    6294.6441       0.8013       0.1787       0.9800       7.6120       0.0000       0.0000
 5120.4876    5120.4876      66.0870       0.9883    6273.7742       0.7381       0.2220       0.9600       7.6594       0.0000       0.0000
 5120.6400    5120.6400      68.0200       0.9849    6248.9971       0.6628       0.2782       0.9410       7.5034       0.0000       0.0000
 5120.7924    5120.7924      69.4883       0.9800    6261.5053       0.6348       0.3653       1.0001       7.2634       0.0001       0.0000
 5120.9448    5120.9448      70.8789       0.9770    6301.3162       0.6123       0.5026       1.1149       6.9699       0.0002       0.0000
 5121.0972    5121.0972      71.2839       0.9782    6335.7835       0.5493       0.6821       1.2314       6.6305       0.0007       0.0000
