~VERSION INFORMATION
VERS.           2.0   :CWLS Log ASCII Standard - VERSION 2.0
WRAP.           NO    :One Line per depth step
PROD.  Schlumberger   :LAS Producer
PROG.  DLIS to ASCII 2.3                               :LAS Program name and version
CREA.        2023/07/14 00:15                          :LAS Creation date {YYYY/MM/DD hh:mm}
DLIS_CREA.  2023-Jul-14 00:11                          :DLIS Creation date and time {YYYY-MMM-DD hh:mm}
SOURCE.     LIS2_002.dlis                              :DLIS File Name
FILE-ID.     LIS   .002                                :File Identification Number
#--------------------------------------------------
~WELL INFORMATION
#MNEM.UNIT      DATA             DESCRIPTION
#---- ------ --------------   -----------------------------
STRT .M      5051.7552       :START DEPTH     
STOP .M      5231.7396       :STOP DEPTH     
STEP .M         0.1524       :STEP     
NULL .          -999.25      :NULL VALUE
COMP .        PETROBRAS S.A.                           :COMPANY
WELL .        3-BRSA-293D-SPS                          :WELL
FLD  .        BS-400                                   :FIELD
LOC  .        BASE SAD 69:                             :LOCATION
CNTY .        SANTOS                                   :COUNTY
STAT .        BRASIL                                   :STATE
CTRY .        BRASIL                                   :COUNTRY
API  .                                                 :API NUMBER
UWI  .                                                 :UNIQUE WELL ID
DATE .        24/10/2004                               :LOG DATE
SRVC .        Schlumberger                             :SERVICE COMPANY
LATI .DEG                                              :LATITUDE
LONG .DEG                                              :LONGITUDE
GDAT .                                                 :GeoDetic Datum
#-----------------------------------------------------------------------------
~PARAMETER INFORMATION
#MNEM.UNIT    VALUE                      DESCRIPTION
#---- -----   --------------------       ------------------------
APD  .M               24                 :
BHT  .DEGF           280                 :
BLI  .M             5225                 :
BS   .IN         8.50000                 :
CN   .        PETROBRAS S.A.             :
COUN .        SANTOS                     :
CS   .IN         9.62500                 :
DATE .        24/10/2004                 :
DFD  .LB/G      12.30000                 :
DFL  .C3               2                 :
DFPH .        N/A                        :
DFT  .        SINTETICO                  :
DFV  .S               87                 :
DMF  .        MESA ROTATIVA              :
EDF  .M               24                 :
EGL  .M             -500                 :
EKB  .        N/A                        :
ENGI .        HERNANDEZ/LOCK             :
FL1  .        X   7292392.00 M LAT 24 28 47.189 S :
FL2  .        Y    584087.00 M LON 44 10 12.698 W :
FL3  .        MC  45 GRAUS               :
FN   .        BS-400                     :
LMF  .        MESA ROTATIVA              :
LUL  .        MACAE                      :
MCSS .        PRENSA                     :
MCST .DEGF            80                 :
MFSS .        PRENSA                     :
MFST .DEGF            80                 :
MSS  .        LINHA DE FLUXO             :
MST  .DEGF            80                 :
PDAT .        NIVEL DO MAR               :
R1   .        01. APRESENTAÇÃO DE ACORDO COM REQUERIMENTO DO CLIENTE :
R2   .        02. TEMPERATURA MÁXIMA DO POÇO T1=T2= 290 DEGF @  5215 M :
R3   .        03. INICIO DA CIRCULAÇÃO  13 45 H 21/10/2004 :
R4   .        04. FINAL DA CIRCULAÇÃO   16 00 H 21/10/2004 :
R5   .        05. TEMPO TOTAL DE CIRCULAÇÃO  02 15 H :
R6   .        06. FLUIDO DE PERFURAÇÃO  SINTETICO (BR-MUL  BR-MI)  65% TEOR DO OLEO :
R7   .        07. SALINIDADE DA LAMA  266377 PPM NACL NA FASE DE AGUA :
R8   .        08. INCLINAÇÃO MÁXIMA DO POÇO  37.37 GRAUS @ 5100 M :
R9   .        09. PRIMEIRAS E ULTIMAS LEITURAS  :
RMB  .OHMM    > 10                       :
RMCS .OHMM    > 10                       :
RMFS .OHMM    > 10                       :
RMS  .OHMM    > 10                       :
RUN  .                 1                 :
STAT .        BRASIL                     :
TCS  .        16 00 H                    :
TDD  .M             5230                 :
TDL  .        NR                         :
TLAB .        N/A                        :
TLI  .M             5070                 :
WITN .        ALCIDIO/VLADIMIR           :
WN   .        3-BRSA-293D-SPS            :
LUN  .              8808                 :
HIDE .        3-SPS-41D                  :
HID2 .        MAGNETIC RESONANCE         :
HID3 .        EXPLORER LOG               :
HID4 .        GAMMA RAY LOG              :
CLAB .        BACIA                      :
SLAB .        PAIS                       :
CMT1 .        ESC  1 200                 :
CMT2 .        PROF. MEDIDA               :
CMT4 .        SONDA  SS-43               :
HDAT .        SAD 69                     :
FL   .        BASE SAD 69                :
OS1  .        HDIL/XMAC/GR               :
OS3  .        ZDL/CN/GR                  :
OS5  .        SL/GR                      :
LNAM .        MREX/ZDL/CN/XMAC/HDIL/3DEX/RCI/SL/GR :
TOOL .        MREX/ZDL/CN/XMAC/HDIL/3DEX/RCI/SL/GR :
LSOU .        PETROBRAS                  :
LSRV .        OH WIRELINE                :
LTYP .        RAW                        :
EPD  .M                0                 :
LDAT .        24/10/2004                 :
TRIP .                 1                 :
SON  .            783148                 :
CBDR .M             4277                 :
CBLO .        NR                         :
STEM .DEGF    N/A                        :
BSAL .            266377                 :
BARI .        OFF                        :
DLAB .        21/10/2004                 :
MRT  .DEGF           290                 :
TSTR .        MRIL/GR                    :
TSTG .        N/A                        :
STUS .        FINAL                      :
LCNM .        BAKER ATLAS                :
LCC  .               150                 :
NATI .        BRASIL                     :
OPMD .        OH.WIRELINE                :
PANA .        HERNANDEZ/LOCK             :
PCON .        BAKER ATLAS                :
R11  .        MREX     5225.0 M/5070.0 M :
R13  .        10. PONTO FRACO UTILIZADO  8K :
R14  .        12. DECLINAÇÃO MAGNETICA  -20.9 GRAUS :
R15  .        13. COORDENADAS BASE       :
R17  .        X   7292512.00 M           :
R18  .        Y    583936.00 M           :
R19  .        MC  45 GRAUS               :
R21  .        14. CADASTRO ANP  86316021017 :
PVER .           4.10000                 :
WDFN .        /space/expusr/3-SPS-41D/dat1a/pass/mexilhoes/i857d04.aff :
OCT  .        i857d                      :
0S2  .        3DEX/GR                    :
OS4  .        RCI/GR                     :
#-----------------------------------------------------------------------------
~CURVE INFORMATION
#MNEM.UNIT   API CODE                                  DESCRIPTION
#---- -----  --------                                  -----------------------
DEPT .M                                                :DEPTH (BOREHOLE) {F10.4}
DEPT .M                                                : {F13.4}
GR   .GAPI                                             : {F13.4}
SPD  .M/MN                                             : {F13.4}
TTEN .LBF                                              : {F13.4}
MBVI .PU                                               : {F13.4}
MBVM .PU                                               : {F13.4}
MPHE .PU                                               : {F13.4}
MPHS .PU                                               : {F13.4}
MPRM .MD                                               : {F13.4}
TPOR[0].                                               : {AF13.4}
#-----------------------------------------------------------------------------
# 
#     DEPT        DEPT         GR           SPD          TTEN         MBVI         MBVM         MPHE         MPHS         MPRM       TPOR[0]
#
~A  
# ...
 5182.0572    5182.0572      48.8652       1.0537    6113.8532       5.9204       4.8073      10.7277      10.7574       0.8788       0.0000
 5182.2096    5182.2096      47.8673       1.0571    6103.7752       6.3480       4.9380      11.2860      11.3197       0.9914       0.0000
 5182.3620    5182.3620      47.5161       1.0603    6051.8756       7.0037       5.0831      12.0868      12.1246       1.1384       0.0000
 5182.5144    5182.5144      47.7190       1.0592    5995.3343       7.7455       5.2499      12.9953      13.0421       1.3287       0.0000
 5182.6668    5182.6668      48.1029       1.0583    5961.1134       8.1649       5.4638      13.6287      13.6968       1.5669       0.0000
 5182.8192    5182.8192      48.3674       1.0630    5953.6221       8.0452       5.7020      13.7472      13.8488       1.8162       0.0000
 5182.9716    5182.9716      48.5522       1.0719    5962.8748       7.6185       5.8954      13.5139      13.6507       2.0118       0.0000
 5183.1240    5183.1240      48.9022       1.0755    5973.7109       7.2445       5.9863      13.2308      13.3867       2.0980       0.0000
 5183.2764    5183.2764      49.6230       1.0693    5974.7725       7.0807       5.9550      13.0356      13.1822       2.0489       0.0000
 5183.4288    5183.4288      50.5900       1.0638    5968.6736       7.0428       5.8142      12.8570      12.9796       1.8770       0.0000
 5183.5812    5183.5812      51.6898       1.0674    5965.1499       6.9484       5.6195      12.5679      12.6798       1.6484       0.0000
 5183.7336    5183.7336      52.8774       1.0723    5967.8766       6.6091       5.4597      12.0688      12.1906       1.4599       0.0000
 5183.8860    5183.8860      53.9587       1.0707    5973.0055       6.0292       5.3976      11.4269      11.5514       1.3779       0.0000
 5184.0384    5184.0384      54.7980       1.0678    5972.2023       5.4699       5.4082      10.8781      10.9790       1.3786       0.0000
 5184.1908    5184.1908      54.9672       1.0660    5968.6525       5.1837       5.4177      10.6014      10.6658       1.3838       0.0000
 5184.3432    5184.3432      54.2341       1.0642    5974.1303       5.1429       5.4004      10.5433      10.5851       1.3639       0.0000
 5184.4956    5184.4956      53.5512       1.0644    5994.4516       5.1516       5.4000      10.5516      10.5964       1.3638       0.0000
 5184.6480    5184.6480      53.3662       1.0635    6051.8302       5.0865       5.4541      10.5406      10.6129       1.4243       0.0000
 5184.8004    5184.8004      52.4136       1.0551    6215.8683       4.9544       5.5504      10.5049      10.6129       1.5365       0.0000
 5184.9528    5184.9528      50.2858       1.0444    6452.4507       4.7908       5.6476      10.4384      10.5781       1.6568       0.0000
 5185.1052    5185.1052      48.1809       1.0400    6602.7993       4.6411       5.7032      10.3443      10.5179       1.7324       0.0000
 5185.2576    5185.2576      46.6387       1.0418    6609.8319       4.5177       5.6968      10.2145      10.4397       1.7332       0.0000
 5185.4100    5185.4100      45.8823       1.0442    6574.2834       4.3911       5.6201      10.0112      10.2943       1.6512       0.0000
 5185.5624    5185.5624      46.3412       1.0432    6542.6241       4.2015       5.4793       9.6807       9.9949       1.5054       0.0000
 5185.7148    5185.7148      47.5208       1.0403    6493.8643       3.8467       5.3061       9.1528       9.4471       1.3551       0.0000
 5185.8672    5185.8672      48.0611       1.0378    6436.7822       3.2972       5.1547       8.4519       8.6847       1.2875       0.0000
 5186.0196    5186.0196      47.4731       1.0364    6383.8011       2.6671       5.0430       7.7101       7.8703       1.3267       0.0000
 5186.1720    5186.1720      47.1167       1.0367    6324.5663       2.1213       4.8921       7.0133       7.1218       1.3452       0.0000
 5186.3244    5186.3244      48.4789       1.0423    6270.0697       1.7617       4.6017       6.3635       6.4532       1.1884       0.0000
 5186.4768    5186.4768      52.3963       1.0526    6230.4879       1.6226       4.1497       5.7723       5.8725       0.8505       0.0000
 5186.6292    5186.6292      59.6575       1.0615    6186.7056       1.6761       3.5811       5.2572       5.4106       0.4835       0.0000
 5186.7816    5186.7816      67.8922       1.0610    6131.0020       1.8365       2.9716       4.8081       5.0979       0.2195       0.0000
 5186.9340    5186.9340      72.8327       1.0537    6074.8873       1.9967       2.4116       4.4083       4.9589       0.0866       0.0000
 5187.0864    5187.0864      73.8852       1.0493    6028.5251       2.0984       1.9525       4.0509       5.0287       0.0326       0.0000
 5187.2388    5187.2388      74.5927       1.0505    6012.6427       2.2030       1.5628       3.7658       5.3174       0.0140       0.0000
 5187.3912    5187.3912      77.2489       1.0538    6027.8964       2.4215       1.1761       3.5976       5.7534       0.0061       0.0000
 5187.5436    5187.5436      80.9714       1.0551    6051.0438       2.7423       0.7992       3.5415       6.1846       0.0024       0.0000
 5187.6960    5187.6960      83.1079       1.0541    6068.4077       3.0050       0.5060       3.5111       6.4855       0.0007       0.0000
 5187.8484    5187.8484      82.5394       1.0521    6078.1847       3.0636       0.3409       3.4045       6.5977       0.0002       0.0000
 5188.0008    5188.0008      80.3475       1.0528    6068.1348       2.9098       0.2676       3.1774       6.4817       0.0001       0.0000
 5188.1532    5188.1532      75.7534       1.0567    6039.7960       2.6380       0.2389       2.8769       6.1653       0.0001       0.0000
 5188.3056    5188.3056      68.2321       1.0600    6010.0115       2.3598       0.2311       2.5909       5.8047       0.0000       0.0000
 5188.4580    5188.4580      61.5590       1.0574    6006.8955       2.1085       0.2433       2.3517       5.5283       0.0000       0.0000
 5188.6104    5188.6104      59.2982       1.0508    6059.7891       1.7866       0.2703       2.0569       5.2280       0.0000       0.0000
 5188.7628    5188.7628      60.5692       1.0453    6151.3513       1.2624       0.3138       1.5762       4.7450       0.0001       0.0000
 5188.9152    5188.9152      64.1577       1.0420    6237.4399       0.6497       0.3779       1.0276       4.2473       0.0001       0.0000
 5189.0676    5189.0676      69.8821       1.0392    6292.1754       0.2215       0.4519       0.6734       4.0767       0.0004       0.0000
 5189.2200    5189.2200      75.4762       1.0373    6309.6912       0.0656       0.5129       0.5786       4.2888       0.0006       0.0000
 5189.3724    5189.3724      78.3673       1.0397    6298.7661       0.0642       0.5436       0.6078       4.6663       0.0007       0.0000
 5189.5248    5189.5248      78.6783       1.0459    6288.8345       0.1413       0.5355       0.6767       5.0402       0.0005       0.0000
 5189.6772    5189.6772      77.6950       1.0518    6282.4874       0.2608       0.4967       0.7575       5.2889       0.0003       0.0000
 5189.8296    5189.8296      76.1699       1.0559    6256.4981       0.3875       0.4519       0.8394       5.3611       0.0001       0.0000
 5189.9820    5189.9820      73.8576       1.0556    6230.7469       0.5093       0.4198       0.9291       5.3664       0.0001       0.0000
 5190.1344    5190.1344      71.8942       1.0491    6233.5910       0.6837       0.3927       1.0764       5.4982       0.0000       0.0000
 5190.2868    5190.2868      72.1819       1.0436    6248.8577       0.9867       0.3540       1.3407       5.8332       0.0000       0.0000
 5190.4392    5190.4392      73.7413       1.0460    6267.4867       1.3685       0.3122       1.6808       6.2007       0.0000       0.0000
 5190.5916    5190.5916      73.2025       1.0503    6311.2305       1.6433       0.3048       1.9481       6.3420       0.0001       0.0000
