~VERSION INFORMATION
VERS.           2.0   :CWLS Log ASCII Standard - VERSION 2.0
WRAP.           NO    :One Line per depth step
PROD.  Schlumberger   :LAS Producer
PROG.  DLIS to ASCII 2.3                               :LAS Program name and version
CREA.        2023/07/14 00:15                          :LAS Creation date {YYYY/MM/DD hh:mm}
DLIS_CREA.  2023-Jul-14 00:11                          :DLIS Creation date and time {YYYY-MMM-DD hh:mm}
SOURCE.     LIS2_002.dlis                              :DLIS File Name
FILE-ID.     LIS   .002                                :File Identification Number
#--------------------------------------------------
~WELL INFORMATION
#MNEM.UNIT      DATA             DESCRIPTION
#---- ------ --------------   -----------------------------
STRT .M      5051.7552       :START DEPTH     
STOP .M      5231.7396       :STOP DEPTH     
STEP .M         0.1524       :STEP     
NULL .          -999.25      :NULL VALUE
COMP .        PETROBRAS S.A.                           :COMPANY
WELL .        3-BRSA-293D-SPS                          :WELL
FLD  .        BS-400                                   :FIELD
LOC  .        BASE SAD 69:                             :LOCATION
CNTY .        SANTOS                                   :COUNTY
STAT .        BRASIL                                   :STATE
CTRY .        BRASIL                                   :COUNTRY
API  .                                                 :API NUMBER
UWI  .                                                 :UNIQUE WELL ID
DATE .        24/10/2004                               :LOG DATE
SRVC .        Schlumberger                             :SERVICE COMPANY
LATI .DEG                                              :LATITUDE
LONG .DEG                                              :LONGITUDE
GDAT .                                                 :GeoDetic Datum
#-----------------------------------------------------------------------------
~PARAMETER INFORMATION
#MNEM.UNIT    VALUE                      DESCRIPTION
#---- -----   --------------------       ------------------------
APD  .M               24                 :
BHT  .DEGF           280                 :
BLI  .M             5225                 :
BS   .IN         8.50000                 :
CN   .        PETROBRAS S.A.             :
COUN .        SANTOS                     :
CS   .IN         9.62500                 :
DATE .        24/10/2004                 :
DFD  .LB/G      12.30000                 :
DFL  .C3               2                 :
DFPH .        N/A                        :
DFT  .        SINTETICO                  :
DFV  .S               87                 :
DMF  .        MESA ROTATIVA              :
EDF  .M               24                 :
EGL  .M             -500                 :
EKB  .        N/A                        :
ENGI .        HERNANDEZ/LOCK             :
FL1  .        X   7292392.00 M LAT 24 28 47.189 S :
FL2  .        Y    584087.00 M LON 44 10 12.698 W :
FL3  .        MC  45 GRAUS               :
FN   .        BS-400                     :
LMF  .        MESA ROTATIVA              :
LUL  .        MACAE                      :
MCSS .        PRENSA                     :
MCST .DEGF            80                 :
MFSS .        PRENSA                     :
MFST .DEGF            80                 :
MSS  .        LINHA DE FLUXO             :
MST  .DEGF            80                 :
PDAT .        NIVEL DO MAR               :
R1   .        01. APRESENTAÇÃO DE ACORDO COM REQUERIMENTO DO CLIENTE :
R2   .        02. TEMPERATURA MÁXIMA DO POÇO T1=T2= 290 DEGF @  5215 M :
R3   .        03. INICIO DA CIRCULAÇÃO  13 45 H 21/10/2004 :
R4   .        04. FINAL DA CIRCULAÇÃO   16 00 H 21/10/2004 :
R5   .        05. TEMPO TOTAL DE CIRCULAÇÃO  02 15 H :
R6   .        06. FLUIDO DE PERFURAÇÃO  SINTETICO (BR-MUL  BR-MI)  65% TEOR DO OLEO :
R7   .        07. SALINIDADE DA LAMA  266377 PPM NACL NA FASE DE AGUA :
R8   .        08. INCLINAÇÃO MÁXIMA DO POÇO  37.37 GRAUS @ 5100 M :
R9   .        09. PRIMEIRAS E ULTIMAS LEITURAS  :
RMB  .OHMM    > 10                       :
RMCS .OHMM    > 10                       :
RMFS .OHMM    > 10                       :
RMS  .OHMM    > 10                       :
RUN  .                 1                 :
STAT .        BRASIL                     :
TCS  .        16 00 H                    :
TDD  .M             5230                 :
TDL  .        NR                         :
TLAB .        N/A                        :
TLI  .M             5070                 :
WITN .        ALCIDIO/VLADIMIR           :
WN   .        3-BRSA-293D-SPS            :
LUN  .              8808                 :
HIDE .        3-SPS-41D                  :
HID2 .        MAGNETIC RESONANCE         :
HID3 .        EXPLORER LOG               :
HID4 .        GAMMA RAY LOG              :
CLAB .        BACIA                      :
SLAB .        PAIS                       :
CMT1 .        ESC  1 200                 :
CMT2 .        PROF. MEDIDA               :
CMT4 .        SONDA  SS-43               :
HDAT .        SAD 69                     :
FL   .        BASE SAD 69                :
OS1  .        HDIL/XMAC/GR               :
OS3  .        ZDL/CN/GR                  :
OS5  .        SL/GR                      :
LNAM .        MREX/ZDL/CN/XMAC/HDIL/3DEX/RCI/SL/GR :
TOOL .        MREX/ZDL/CN/XMAC/HDIL/3DEX/RCI/SL/GR :
LSOU .        PETROBRAS                  :
LSRV .        OH WIRELINE                :
LTYP .        RAW                        :
EPD  .M                0                 :
LDAT .        24/10/2004                 :
TRIP .                 1                 :
SON  .            783148                 :
CBDR .M             4277                 :
CBLO .        NR                         :
STEM .DEGF    N/A                        :
BSAL .            266377                 :
BARI .        OFF                        :
DLAB .        21/10/2004                 :
MRT  .DEGF           290                 :
TSTR .        MRIL/GR                    :
TSTG .        N/A                        :
STUS .        FINAL                      :
LCNM .        BAKER ATLAS                :
LCC  .               150                 :
NATI .        BRASIL                     :
OPMD .        OH.WIRELINE                :
PANA .        HERNANDEZ/LOCK             :
PCON .        BAKER ATLAS                :
R11  .        MREX     5225.0 M/5070.0 M :
R13  .        10. PONTO FRACO UTILIZADO  8K :
R14  .        12. DECLINAÇÃO MAGNETICA  -20.9 GRAUS :
R15  .        13. COORDENADAS BASE       :
R17  .        X   7292512.00 M           :
R18  .        Y    583936.00 M           :
R19  .        MC  45 GRAUS               :
R21  .        14. CADASTRO ANP  86316021017 :
PVER .           4.10000                 :
WDFN .        /space/expusr/3-SPS-41D/dat1a/pass/mexilhoes/i857d04.aff :
OCT  .        i857d                      :
0S2  .        3DEX/GR                    :
OS4  .        RCI/GR                     :
#-----------------------------------------------------------------------------
~CURVE INFORMATION
#MNEM.UNIT   API CODE                                  DESCRIPTION
#---- -----  --------                                  -----------------------
DEPT .M                                                :DEPTH (BOREHOLE) {F10.4}
DEPT .M                                                : {F13.4}
GR   .GAPI                                             : {F13.4}
SPD  .M/MN                                             : {F13.4}
TTEN .LBF                                              : {F13.4}
MBVI .PU                                               : {F13.4}
MBVM .PU                                               : {F13.4}
MPHE .PU                                               : {F13.4}
MPHS .PU                                               : {F13.4}
MPRM .MD                                               : {F13.4}
TPOR[0].                                               : {AF13.4}
#-----------------------------------------------------------------------------
# 
#     DEPT        DEPT         GR           SPD          TTEN         MBVI         MBVM         MPHE         MPHS         MPRM       TPOR[0]
#
~A  
# ...
 5225.4912    5225.4912    -999.2500       0.9946    6192.7822       0.7701       0.7899       1.5601       4.7616       0.0007       0.0000
 5225.6436    5225.6436    -999.2500       1.0006    6199.0166       0.7208       0.8201       1.5409       5.0868       0.0008       0.0000
 5225.7960    5225.7960    -999.2500       1.0043    6193.3269       0.8391       0.8285       1.6676       5.3251       0.0008       0.0000
 5225.9484    5225.9484    -999.2500       0.9991    6181.5181       0.9470       0.8742       1.8211       5.4934       0.0011       0.0000
 5226.1008    5226.1008    -999.2500       0.9956    6184.1522       0.8621       0.9620       1.8241       5.6994       0.0027       0.0000
 5226.2532    5226.2532    -999.2500       0.9986    6188.1358       0.5743       1.0361       1.6104       5.8751       0.0061       0.0000
 5226.4056    5226.4056    -999.2500       0.9998    6186.6667       0.2617       1.0437       1.3054       5.8416       0.0091       0.0000
 5226.5580    5226.5580    -999.2500       0.9896    6211.4808       0.0841       0.9965       1.0806       5.5831       0.0095       0.0000
 5226.7104    5226.7104    -999.2500       0.9724    6270.2505       0.0347       0.9484       0.9831       5.2779       0.0084       0.0000
 5226.8628    5226.8628    -999.2500       0.9565    6322.4721       0.0368       0.9208       0.9576       5.1188       0.0078       0.0000
 5227.0152    5227.0152    -999.2500       0.9452    6338.2486       0.0458       0.9026       0.9484    -999.2500       0.0073       0.0000
 5227.1676    5227.1676    -999.2500       0.9401    6320.6459       0.0483       0.8880       0.9363    -999.2500       0.0069       0.0000
 5227.3200    5227.3200    -999.2500       0.9415    6296.5364       0.0491       0.8805       0.9296    -999.2500       0.0067       0.0000
 5227.4724    5227.4724    -999.2500       0.9435    6292.5708       0.0494       0.8787       0.9281    -999.2500       0.0067    -999.2500
 5227.6248    5227.6248    -999.2500       0.9426    6304.6787       0.0494       0.8786       0.9280    -999.2500       0.0066    -999.2500
 5227.7772    5227.7772    -999.2500       0.9436    6300.3696       0.0494       0.8786       0.9280    -999.2500       0.0066    -999.2500
 5227.9296    5227.9296    -999.2500       0.9471    6276.0668       0.0494       0.8786       0.9280    -999.2500       0.0066    -999.2500
 5228.0820    5228.0820    -999.2500       0.9484    6265.4893       0.0494       0.8786       0.9280    -999.2500       0.0066    -999.2500
 5228.2344    5228.2344    -999.2500       0.9485    6262.8633       0.0494       0.8786       0.9280    -999.2500       0.0066    -999.2500
 5228.3868    5228.3868    -999.2500       0.9539    6254.4119       0.0494       0.8786       0.9280    -999.2500       0.0066    -999.2500
 5228.5392    5228.5392    -999.2500       0.9610    6294.6824       0.0494       0.8786       0.9280    -999.2500       0.0066    -999.2500
 5228.6916    5228.6916    -999.2500       0.9622    6399.6461       0.0494       0.8786       0.9280    -999.2500       0.0066    -999.2500
 5228.8440    5228.8440    -999.2500       0.9570    6470.3580       0.0494       0.8786       0.9280    -999.2500       0.0066    -999.2500
 5228.9964    5228.9964    -999.2500       0.9542    6458.1859       0.0494       0.8786       0.9280    -999.2500       0.0066    -999.2500
 5229.1488    5229.1488    -999.2500       0.9570    6413.4901       0.0494       0.8786       0.9280    -999.2500       0.0066    -999.2500
 5229.3012    5229.3012    -999.2500       0.9593    6363.7518       0.0494       0.8786       0.9280    -999.2500       0.0066    -999.2500
 5229.4536    5229.4536    -999.2500       0.9565    6302.7133    -999.2500    -999.2500    -999.2500    -999.2500    -999.2500    -999.2500
 5229.6060    5229.6060    -999.2500       0.9531    6236.9246    -999.2500    -999.2500    -999.2500    -999.2500    -999.2500    -999.2500
 5229.7584    5229.7584    -999.2500       0.9538    6190.4631    -999.2500    -999.2500    -999.2500    -999.2500    -999.2500    -999.2500
 5229.9108    5229.9108    -999.2500       0.9571    6159.8440    -999.2500    -999.2500    -999.2500    -999.2500    -999.2500    -999.2500
 5230.0632    5230.0632    -999.2500       0.9588    6115.2140    -999.2500    -999.2500    -999.2500    -999.2500    -999.2500    -999.2500
 5230.2156    5230.2156    -999.2500       0.9606    6066.1690    -999.2500    -999.2500    -999.2500    -999.2500    -999.2500    -999.2500
 5230.3680    5230.3680    -999.2500       0.9667    6039.7066    -999.2500    -999.2500    -999.2500    -999.2500    -999.2500    -999.2500
 5230.5204    5230.5204    -999.2500       0.9707    6008.9967    -999.2500    -999.2500    -999.2500    -999.2500    -999.2500    -999.2500
 5230.6728    5230.6729    -999.2500       0.9656    5943.7578    -999.2500    -999.2500    -999.2500    -999.2500    -999.2500    -999.2500
 5230.8252    5230.8252    -999.2500       0.9609    5874.5547    -999.2500    -999.2500    -999.2500    -999.2500    -999.2500    -999.2500
 5230.9776    5230.9776    -999.2500       0.9644    5837.6556    -999.2500    -999.2500    -999.2500    -999.2500    -999.2500    -999.2500
 5231.1300    5231.1300    -999.2500       0.9692    5807.5484    -999.2500    -999.2500    -999.2500    -999.2500    -999.2500    -999.2500
 5231.2824    5231.2824    -999.2500       0.9682    5751.5723    -999.2500    -999.2500    -999.2500    -999.2500    -999.2500    -999.2500
 5231.4348    5231.4348    -999.2500       0.9646    5684.5344    -999.2500    -999.2500    -999.2500    -999.2500    -999.2500    -999.2500
 5231.5872    5231.5872    -999.2500    -999.2500    5655.8574    -999.2500    -999.2500    -999.2500    -999.2500    -999.2500    -999.2500
 5231.7396    5231.7396    -999.2500    -999.2500    -999.2500    -999.2500    -999.2500    -999.2500    -999.2500    -999.2500    -999.2500
