~VERSION INFORMATION
VERS.           2.0   :CWLS Log ASCII Standard - VERSION 2.0
WRAP.           NO    :One Line per depth step
PROD.  Schlumberger   :LAS Producer
PROG.  DLIS to ASCII 2.3                               :LAS Program name and version
CREA.        2023/07/14 00:15                          :LAS Creation date {YYYY/MM/DD hh:mm}
DLIS_CREA.  2023-Jul-14 00:11                          :DLIS Creation date and time {YYYY-MMM-DD hh:mm}
SOURCE.     LIS2_002.dlis                              :DLIS File Name
FILE-ID.     LIS   .002                                :File Identification Number
#--------------------------------------------------
~WELL INFORMATION
#MNEM.UNIT      DATA             DESCRIPTION
#---- ------ --------------   -----------------------------
STRT .M      5051.7552       :START DEPTH     
STOP .M      5231.7396       :STOP DEPTH     
STEP .M         0.1524       :STEP     
NULL .          -999.25      :NULL VALUE
COMP .        PETROBRAS S.A.                           :COMPANY
WELL .        3-BRSA-293D-SPS                          :WELL
FLD  .        BS-400                                   :FIELD
LOC  .        BASE SAD 69:                             :LOCATION
CNTY .        SANTOS                                   :COUNTY
STAT .        BRASIL                                   :STATE
CTRY .        BRASIL                                   :COUNTRY
API  .                                                 :API NUMBER
UWI  .                                                 :UNIQUE WELL ID
DATE .        24/10/2004                               :LOG DATE
SRVC .        Schlumberger                             :SERVICE COMPANY
LATI .DEG                                              :LATITUDE
LONG .DEG                                              :LONGITUDE
GDAT .                                                 :GeoDetic Datum
#-----------------------------------------------------------------------------
~PARAMETER INFORMATION
#MNEM.UNIT    VALUE                      DESCRIPTION
#---- -----   --------------------       ------------------------
APD  .M               24                 :
BHT  .DEGF           280                 :
BLI  .M             5225                 :
BS   .IN         8.50000                 :
CN   .        PETROBRAS S.A.             :
COUN .        SANTOS                     :
CS   .IN         9.62500                 :
DATE .        24/10/2004                 :
DFD  .LB/G      12.30000                 :
DFL  .C3               2                 :
DFPH .        N/A                        :
DFT  .        SINTETICO                  :
DFV  .S               87                 :
DMF  .        MESA ROTATIVA              :
EDF  .M               24                 :
EGL  .M             -500                 :
EKB  .        N/A                        :
ENGI .        HERNANDEZ/LOCK             :
FL1  .        X   7292392.00 M LAT 24 28 47.189 S :
FL2  .        Y    584087.00 M LON 44 10 12.698 W :
FL3  .        MC  45 GRAUS               :
FN   .        BS-400                     :
LMF  .        MESA ROTATIVA              :
LUL  .        MACAE                      :
MCSS .        PRENSA                     :
MCST .DEGF            80                 :
MFSS .        PRENSA                     :
MFST .DEGF            80                 :
MSS  .        LINHA DE FLUXO             :
MST  .DEGF            80                 :
PDAT .        NIVEL DO MAR               :
R1   .        01. APRESENTAÇÃO DE ACORDO COM REQUERIMENTO DO CLIENTE :
R2   .        02. TEMPERATURA MÁXIMA DO POÇO T1=T2= 290 DEGF @  5215 M :
R3   .        03. INICIO DA CIRCULAÇÃO  13 45 H 21/10/2004 :
R4   .        04. FINAL DA CIRCULAÇÃO   16 00 H 21/10/2004 :
R5   .        05. TEMPO TOTAL DE CIRCULAÇÃO  02 15 H :
R6   .        06. FLUIDO DE PERFURAÇÃO  SINTETICO (BR-MUL  BR-MI)  65% TEOR DO OLEO :
R7   .        07. SALINIDADE DA LAMA  266377 PPM NACL NA FASE DE AGUA :
R8   .        08. INCLINAÇÃO MÁXIMA DO POÇO  37.37 GRAUS @ 5100 M :
R9   .        09. PRIMEIRAS E ULTIMAS LEITURAS  :
RMB  .OHMM    > 10                       :
RMCS .OHMM    > 10                       :
RMFS .OHMM    > 10                       :
RMS  .OHMM    > 10                       :
RUN  .                 1                 :
STAT .        BRASIL                     :
TCS  .        16 00 H                    :
TDD  .M             5230                 :
TDL  .        NR                         :
TLAB .        N/A                        :
TLI  .M             5070                 :
WITN .        ALCIDIO/VLADIMIR           :
WN   .        3-BRSA-293D-SPS            :
LUN  .              8808                 :
HIDE .        3-SPS-41D                  :
HID2 .        MAGNETIC RESONANCE         :
HID3 .        EXPLORER LOG               :
HID4 .        GAMMA RAY LOG              :
CLAB .        BACIA                      :
SLAB .        PAIS                       :
CMT1 .        ESC  1 200                 :
CMT2 .        PROF. MEDIDA               :
CMT4 .        SONDA  SS-43               :
HDAT .        SAD 69                     :
FL   .        BASE SAD 69                :
OS1  .        HDIL/XMAC/GR               :
OS3  .        ZDL/CN/GR                  :
OS5  .        SL/GR                      :
LNAM .        MREX/ZDL/CN/XMAC/HDIL/3DEX/RCI/SL/GR :
TOOL .        MREX/ZDL/CN/XMAC/HDIL/3DEX/RCI/SL/GR :
LSOU .        PETROBRAS                  :
LSRV .        OH WIRELINE                :
LTYP .        RAW                        :
EPD  .M                0                 :
LDAT .        24/10/2004                 :
TRIP .                 1                 :
SON  .            783148                 :
CBDR .M             4277                 :
CBLO .        NR                         :
STEM .DEGF    N/A                        :
BSAL .            266377                 :
BARI .        OFF                        :
DLAB .        21/10/2004                 :
MRT  .DEGF           290                 :
TSTR .        MRIL/GR                    :
TSTG .        N/A                        :
STUS .        FINAL                      :
LCNM .        BAKER ATLAS                :
LCC  .               150                 :
NATI .        BRASIL                     :
OPMD .        OH.WIRELINE                :
PANA .        HERNANDEZ/LOCK             :
PCON .        BAKER ATLAS                :
R11  .        MREX     5225.0 M/5070.0 M :
R13  .        10. PONTO FRACO UTILIZADO  8K :
R14  .        12. DECLINAÇÃO MAGNETICA  -20.9 GRAUS :
R15  .        13. COORDENADAS BASE       :
R17  .        X   7292512.00 M           :
R18  .        Y    583936.00 M           :
R19  .        MC  45 GRAUS               :
R21  .        14. CADASTRO ANP  86316021017 :
PVER .           4.10000                 :
WDFN .        /space/expusr/3-SPS-41D/dat1a/pass/mexilhoes/i857d04.aff :
OCT  .        i857d                      :
0S2  .        3DEX/GR                    :
OS4  .        RCI/GR                     :
#-----------------------------------------------------------------------------
~CURVE INFORMATION
#MNEM.UNIT   API CODE                                  DESCRIPTION
#---- -----  --------                                  -----------------------
DEPT .M                                                :DEPTH (BOREHOLE) {F10.4}
DEPT .M                                                : {F13.4}
GR   .GAPI                                             : {F13.4}
SPD  .M/MN                                             : {F13.4}
TTEN .LBF                                              : {F13.4}
MBVI .PU                                               : {F13.4}
MBVM .PU                                               : {F13.4}
MPHE .PU                                               : {F13.4}
MPHS .PU                                               : {F13.4}
MPRM .MD                                               : {F13.4}
TPOR[0].                                               : {AF13.4}
#-----------------------------------------------------------------------------
# 
#     DEPT        DEPT         GR           SPD          TTEN         MBVI         MBVM         MPHE         MPHS         MPRM       TPOR[0]
#
~A  
# ...
 5103.8760    5103.8760      53.5019       0.9796    6252.2754       1.4656       0.1822       1.6478       5.1791       0.0000       0.0000
 5104.0284    5104.0284      56.5520       0.9812    6229.5587       1.5542       0.1882       1.7424       5.5058       0.0000       0.0000
 5104.1808    5104.1808      57.3753       0.9838    6216.1092       1.5780       0.2274       1.8054       5.8538       0.0000       0.0000
 5104.3332    5104.3332      57.2335       0.9840    6251.7830       1.5032       0.3222       1.8254       6.1036       0.0001       0.0000
 5104.4856    5104.4856      57.8096       0.9827    6314.1968       1.4673       0.4476       1.9150       6.2650       0.0002       0.0000
 5104.6380    5104.6380      58.8403       0.9831    6333.1239       1.6951       0.5397       2.2348       6.5478       0.0003       0.0000
 5104.7904    5104.7904      59.7605       0.9854    6302.9428       2.1076       0.5663       2.6740       6.9596       0.0004       0.0000
 5104.9428    5104.9428      61.4553       0.9844    6278.4272       2.3678       0.5546       2.9223       7.2169       0.0004       0.0000
 5105.0952    5105.0952      64.0137       0.9779    6276.7428       2.3174       0.5541       2.8715       7.1300       0.0004       0.0000
 5105.2476    5105.2476      65.8609       0.9709    6294.1653       2.0805       0.5819       2.6624       6.8226       0.0004       0.0000
 5105.4000    5105.4000      66.3874       0.9701    6312.5844       1.7012       0.6132       2.3145       6.4069       0.0004       0.0000
 5105.5524    5105.5524      66.4906       0.9767    6304.8280       1.1288       0.6353       1.7641       5.8872       0.0005       0.0000
 5105.7048    5105.7048      66.2305       0.9849    6274.2211       0.5195       0.6602       1.1797       5.4043       0.0010       0.0000
 5105.8572    5105.8572      64.5299       0.9870    6254.4086       0.1440       0.6951       0.8391       5.1573       0.0018       0.0000
 5106.0096    5106.0096      61.5220       0.9838    6261.4548       0.0251       0.7343       0.7594       5.1205       0.0028       0.0000
 5106.1620    5106.1620      58.8112       0.9843    6281.0820       0.0014       0.7505       0.7519       5.1707       0.0033       0.0000
 5106.3144    5106.3145      57.6838       0.9883    6290.1699       0.0000       0.7027       0.7027       5.3127       0.0028       0.0000
 5106.4668    5106.4668      58.0116       0.9856    6285.0557       0.0000       0.5875       0.5875       5.5400       0.0017       0.0000
 5106.6192    5106.6191      59.2816       0.9751    6274.2295       0.0000       0.4699       0.4699       5.7790       0.0008       0.0000
 5106.7716    5106.7716      61.2396       0.9705    6261.9851       0.0000       0.4190       0.4190       6.0070       0.0004       0.0000
 5106.9240    5106.9240      63.2249       0.9804    6244.8953       0.0000       0.4218       0.4218       6.2706       0.0003       0.0000
 5107.0764    5107.0764      64.6157       0.9951    6246.3600       0.0000       0.4025       0.4025       6.5787       0.0003       0.0000
 5107.2288    5107.2288      64.8459       0.9976    6320.4754       0.0038       0.3197       0.3235       6.8251       0.0002       0.0000
 5107.3812    5107.3812      63.2899       0.9891    6459.7843       0.0723       0.2014       0.2737       6.9557       0.0001       0.0000
 5107.5336    5107.5336      60.5808       0.9820    6560.6082       0.3039       0.1161       0.4201       7.0208       0.0000       0.0000
 5107.6860    5107.6860      58.0030       0.9823    6565.8703       0.6788       0.1123       0.7911       7.0900       0.0000       0.0000
 5107.8384    5107.8384      55.9204       0.9879    6515.6913       1.0991       0.1770       1.2761       7.2507       0.0000       0.0000
 5107.9908    5107.9908      54.4331       0.9918    6445.1762       1.5076       0.2368       1.7443       7.5045       0.0000       0.0000
 5108.1432    5108.1432      54.4612       0.9888    6367.2114       1.8316       0.2297       2.0613       7.5899       0.0000       0.0000
 5108.2956    5108.2956      56.1262       0.9798    6317.3550       1.9266       0.1821       2.1087       7.2551       0.0000       0.0000
 5108.4480    5108.4480      58.3339       0.9696    6306.1599       1.7322       0.1707       1.9029       6.6392       0.0000       0.0000
 5108.6004    5108.6004      60.1199       0.9605    6305.9673       1.3896       0.2233       1.6128       6.0674       0.0000       0.0000
 5108.7528    5108.7528      60.4068       0.9573    6303.1826       1.0900       0.3089       1.3989       5.6783       0.0000       0.0000
 5108.9052    5108.9052      57.8838       0.9611    6297.8702       0.8567       0.4035       1.2603       5.3788       0.0001       0.0000
 5109.0576    5109.0576      53.2795       0.9632    6287.3584       0.6258       0.4829       1.1087       5.0593       0.0001       0.0000
 5109.2100    5109.2100      50.7966       0.9628    6276.3594       0.4369       0.5217       0.9585       4.7589       0.0001       0.0000
 5109.3624    5109.3624      53.1655       0.9608    6267.4665       0.3835       0.5222       0.9057       4.6310       0.0001       0.0000
 5109.5148    5109.5148      57.6217       0.9585    6259.0978       0.4745       0.5107       0.9852       4.8097       0.0001       0.0000
 5109.6672    5109.6672      60.3420       0.9587    6261.9280       0.6336       0.5115       1.1451       5.2757       0.0001       0.0000
 5109.8196    5109.8196      61.3927       0.9630    6270.9583       0.7440       0.5330       1.2770       5.8247       0.0001       0.0000
 5109.9720    5109.9720      61.8760       0.9659    6266.7065       0.7273       0.5696       1.2969       6.2499       0.0002       0.0000
 5110.1244    5110.1244      61.3244       0.9621    6250.2029       0.6177       0.6124       1.2301       6.5170       0.0002       0.0000
 5110.2768    5110.2768      59.8845       0.9542    6236.0777       0.5064       0.6571       1.1635       6.6638       0.0003       0.0000
 5110.4292    5110.4292      58.3541       0.9537    6242.4866       0.4226       0.6902       1.1129       6.6554       0.0004       0.0000
 5110.5816    5110.5816      57.0551       0.9588    6265.0422       0.3428       0.6925       1.0354       6.4626       0.0005       0.0000
 5110.7340    5110.7340      56.1652       0.9589    6270.6257       0.2848       0.6664       0.9512       6.1381       0.0005       0.0000
 5110.8864    5110.8864      55.8328       0.9556    6246.1850       0.2861       0.6348       0.9209       5.8098       0.0004       0.0000
 5111.0388    5111.0388      56.1349       0.9570    6220.0987       0.3440       0.6077       0.9517       5.5957       0.0003       0.0000
 5111.1912    5111.1912      56.9295       0.9602    6218.9082       0.4487       0.5496       0.9983       5.5449       0.0002       0.0000
 5111.3436    5111.3436      57.3207       0.9638    6221.9220       0.6212       0.4172       1.0384       5.5927       0.0001       0.0000
 5111.4960    5111.4960      56.8391       0.9694    6220.1524       0.7948       0.2430       1.0378       5.5946       0.0000       0.0000
 5111.6484    5111.6484      56.2117       0.9719    6225.8701       0.8533       0.1115       0.9648       5.5034       0.0000       0.0000
 5111.8008    5111.8008      56.1128       0.9666    6242.9326       0.7973       0.0572       0.8545       5.4726       0.0000       0.0000
 5111.9532    5111.9532      57.4190       0.9600    6253.3575       0.7356       0.0522       0.7878       5.6669       0.0000       0.0000
 5112.1056    5112.1056      61.5354       0.9584    6256.3968       0.7279       0.0715       0.7994       6.0339       0.0000       0.0000
 5112.2580    5112.2580      67.3733       0.9590    6253.9177       0.7536       0.1052       0.8588       6.3111       0.0000       0.0000
 5112.4104    5112.4104      71.6028       0.9604    6254.1430       0.7878       0.1546       0.9423       6.3228       0.0000       0.0000
