~VERSION INFORMATION
VERS.           2.0   :CWLS Log ASCII Standard - VERSION 2.0
WRAP.           NO    :One Line per depth step
PROD.  Schlumberger   :LAS Producer
PROG.  DLIS to ASCII 2.3                               :LAS Program name and version
CREA.        2023/07/14 00:15                          :LAS Creation date {YYYY/MM/DD hh:mm}
DLIS_CREA.  2023-Jul-14 00:11                          :DLIS Creation date and time {YYYY-MMM-DD hh:mm}
SOURCE.     LIS2_002.dlis                              :DLIS File Name
FILE-ID.     LIS   .002                                :File Identification Number
#--------------------------------------------------
~WELL INFORMATION
#MNEM.UNIT      DATA             DESCRIPTION
#---- ------ --------------   -----------------------------
STRT .M      5051.7552       :START DEPTH     
STOP .M      5231.7396       :STOP DEPTH     
STEP .M         0.1524       :STEP     
NULL .          -999.25      :NULL VALUE
COMP .        PETROBRAS S.A.                           :COMPANY
WELL .        3-BRSA-293D-SPS                          :WELL
FLD  .        BS-400                                   :FIELD
LOC  .        BASE SAD 69:                             :LOCATION
CNTY .        SANTOS                                   :COUNTY
STAT .        BRASIL                                   :STATE
CTRY .        BRASIL                                   :COUNTRY
API  .                                                 :API NUMBER
UWI  .                                                 :UNIQUE WELL ID
DATE .        24/10/2004                               :LOG DATE
SRVC .        Schlumberger                             :SERVICE COMPANY
LATI .DEG                                              :LATITUDE
LONG .DEG                                              :LONGITUDE
GDAT .                                                 :GeoDetic Datum
#-----------------------------------------------------------------------------
~PARAMETER INFORMATION
#MNEM.UNIT    VALUE                      DESCRIPTION
#---- -----   --------------------       ------------------------
APD  .M               24                 :
BHT  .DEGF           280                 :
BLI  .M             5225                 :
BS   .IN         8.50000                 :
CN   .        PETROBRAS S.A.             :
COUN .        SANTOS                     :
CS   .IN         9.62500                 :
DATE .        24/10/2004                 :
DFD  .LB/G      12.30000                 :
DFL  .C3               2                 :
DFPH .        N/A                        :
DFT  .        SINTETICO                  :
DFV  .S               87                 :
DMF  .        MESA ROTATIVA              :
EDF  .M               24                 :
EGL  .M             -500                 :
EKB  .        N/A                        :
ENGI .        HERNANDEZ/LOCK             :
FL1  .        X   7292392.00 M LAT 24 28 47.189 S :
FL2  .        Y    584087.00 M LON 44 10 12.698 W :
FL3  .        MC  45 GRAUS               :
FN   .        BS-400                     :
LMF  .        MESA ROTATIVA              :
LUL  .        MACAE                      :
MCSS .        PRENSA                     :
MCST .DEGF            80                 :
MFSS .        PRENSA                     :
MFST .DEGF            80                 :
MSS  .        LINHA DE FLUXO             :
MST  .DEGF            80                 :
PDAT .        NIVEL DO MAR               :
R1   .        01. APRESENTAÇÃO DE ACORDO COM REQUERIMENTO DO CLIENTE :
R2   .        02. TEMPERATURA MÁXIMA DO POÇO T1=T2= 290 DEGF @  5215 M :
R3   .        03. INICIO DA CIRCULAÇÃO  13 45 H 21/10/2004 :
R4   .        04. FINAL DA CIRCULAÇÃO   16 00 H 21/10/2004 :
R5   .        05. TEMPO TOTAL DE CIRCULAÇÃO  02 15 H :
R6   .        06. FLUIDO DE PERFURAÇÃO  SINTETICO (BR-MUL  BR-MI)  65% TEOR DO OLEO :
R7   .        07. SALINIDADE DA LAMA  266377 PPM NACL NA FASE DE AGUA :
R8   .        08. INCLINAÇÃO MÁXIMA DO POÇO  37.37 GRAUS @ 5100 M :
R9   .        09. PRIMEIRAS E ULTIMAS LEITURAS  :
RMB  .OHMM    > 10                       :
RMCS .OHMM    > 10                       :
RMFS .OHMM    > 10                       :
RMS  .OHMM    > 10                       :
RUN  .                 1                 :
STAT .        BRASIL                     :
TCS  .        16 00 H                    :
TDD  .M             5230                 :
TDL  .        NR                         :
TLAB .        N/A                        :
TLI  .M             5070                 :
WITN .        ALCIDIO/VLADIMIR           :
WN   .        3-BRSA-293D-SPS            :
LUN  .              8808                 :
HIDE .        3-SPS-41D                  :
HID2 .        MAGNETIC RESONANCE         :
HID3 .        EXPLORER LOG               :
HID4 .        GAMMA RAY LOG              :
CLAB .        BACIA                      :
SLAB .        PAIS                       :
CMT1 .        ESC  1 200                 :
CMT2 .        PROF. MEDIDA               :
CMT4 .        SONDA  SS-43               :
HDAT .        SAD 69                     :
FL   .        BASE SAD 69                :
OS1  .        HDIL/XMAC/GR               :
OS3  .        ZDL/CN/GR                  :
OS5  .        SL/GR                      :
LNAM .        MREX/ZDL/CN/XMAC/HDIL/3DEX/RCI/SL/GR :
TOOL .        MREX/ZDL/CN/XMAC/HDIL/3DEX/RCI/SL/GR :
LSOU .        PETROBRAS                  :
LSRV .        OH WIRELINE                :
LTYP .        RAW                        :
EPD  .M                0                 :
LDAT .        24/10/2004                 :
TRIP .                 1                 :
SON  .            783148                 :
CBDR .M             4277                 :
CBLO .        NR                         :
STEM .DEGF    N/A                        :
BSAL .            266377                 :
BARI .        OFF                        :
DLAB .        21/10/2004                 :
MRT  .DEGF           290                 :
TSTR .        MRIL/GR                    :
TSTG .        N/A                        :
STUS .        FINAL                      :
LCNM .        BAKER ATLAS                :
LCC  .               150                 :
NATI .        BRASIL                     :
OPMD .        OH.WIRELINE                :
PANA .        HERNANDEZ/LOCK             :
PCON .        BAKER ATLAS                :
R11  .        MREX     5225.0 M/5070.0 M :
R13  .        10. PONTO FRACO UTILIZADO  8K :
R14  .        12. DECLINAÇÃO MAGNETICA  -20.9 GRAUS :
R15  .        13. COORDENADAS BASE       :
R17  .        X   7292512.00 M           :
R18  .        Y    583936.00 M           :
R19  .        MC  45 GRAUS               :
R21  .        14. CADASTRO ANP  86316021017 :
PVER .           4.10000                 :
WDFN .        /space/expusr/3-SPS-41D/dat1a/pass/mexilhoes/i857d04.aff :
OCT  .        i857d                      :
0S2  .        3DEX/GR                    :
OS4  .        RCI/GR                     :
#-----------------------------------------------------------------------------
~CURVE INFORMATION
#MNEM.UNIT   API CODE                                  DESCRIPTION
#---- -----  --------                                  -----------------------
DEPT .M                                                :DEPTH (BOREHOLE) {F10.4}
DEPT .M                                                : {F13.4}
GR   .GAPI                                             : {F13.4}
SPD  .M/MN                                             : {F13.4}
TTEN .LBF                                              : {F13.4}
MBVI .PU                                               : {F13.4}
MBVM .PU                                               : {F13.4}
MPHE .PU                                               : {F13.4}
MPHS .PU                                               : {F13.4}
MPRM .MD                                               : {F13.4}
TPOR[0].                                               : {AF13.4}
#-----------------------------------------------------------------------------
# 
#     DEPT        DEPT         GR           SPD          TTEN         MBVI         MBVM         MPHE         MPHS         MPRM       TPOR[0]
#
~A  
# ...
 5216.8044    5216.8044      52.4387       1.0328    6066.4823       3.5186       2.7663       6.2849       6.2893       0.1001       0.0000
 5216.9568    5216.9568      52.4978       1.0355    6042.5303       3.6372       2.8641       6.5013       6.5088       0.1117       0.0000
 5217.1092    5217.1092      51.3484       1.0334    6046.1685       3.7337       2.8271       6.5608       6.5767       0.1080       0.0000
 5217.2616    5217.2616      49.6351       1.0284    6072.4580       4.0279       2.6895       6.7174       6.7378       0.0935       0.0000
 5217.4140    5217.4140      48.0934       1.0233    6089.0191       4.4728       2.5128       6.9856       7.0015       0.0771       0.0000
 5217.5664    5217.5664      47.1329       1.0231    6077.6631       4.8484       2.3393       7.1877       7.1944       0.0634       0.0000
 5217.7188    5217.7188      47.3142       1.0279    6051.2959       5.0839       2.1715       7.2554       7.2569       0.0517       0.0000
 5217.8712    5217.8712      48.6484       1.0317    6032.6943       5.1254       2.0495       7.1749       7.1830       0.0431       0.0000
 5218.0236    5218.0236      50.4911       1.0303    6035.6466       4.8761       2.0614       6.9375       6.9667       0.0426       0.0000
 5218.1760    5218.1760      52.1138       1.0291    6058.7122       4.3614       2.2497       6.6111       6.6620       0.0547       0.0000
 5218.3284    5218.3284      53.1690       1.0304    6085.7075       3.7566       2.5322       6.2888       6.3433       0.0773       0.0000
 5218.4808    5218.4808      53.4390       1.0308    6097.6991       3.1956       2.7792       5.9748       6.0159       0.1020       0.0000
 5218.6332    5218.6332      52.9328       1.0295    6088.1626       2.7592       2.9386       5.6978       5.7219       0.1230       0.0000
 5218.7856    5218.7856      51.8770       1.0265    6074.2648       2.5346       3.0518       5.5865       5.5967       0.1435       0.0000
 5218.9380    5218.9380      50.7360       1.0211    6071.5955       2.5228       3.1779       5.7007       5.7032       0.1703       0.0000
 5219.0904    5219.0904      50.2913       1.0145    6086.1249       2.6726       3.3202       5.9927       5.9929       0.2021       0.0000
 5219.2428    5219.2428      50.6805       1.0125    6114.9913       3.0142       3.4045       6.4187       6.4187       0.2217       0.0000
 5219.3952    5219.3952      50.7647       1.0169    6139.0463       3.6084       3.3512       6.9596       6.9596       0.2122       0.0000
 5219.5476    5219.5476      50.2887       1.0240    6143.3091       4.3776       3.1574       7.5350       7.5352       0.1776       0.0000
 5219.7000    5219.7000      50.3882       1.0288    6128.7993       5.0595       2.9134       7.9730       7.9761       0.1394       0.0000
 5219.8524    5219.8524      51.4570       1.0283    6102.4179       5.4760       2.7154       8.1914       8.2083       0.1128       0.0000
 5220.0048    5220.0048      52.5080       1.0211    6082.8947       5.7105       2.5901       8.3006       8.3479       0.0982       0.0000
 5220.1572    5220.1572      53.0634       1.0126    6087.3105       5.8708       2.5131       8.3839       8.4774       0.0908       0.0000
 5220.3096    5220.3096      53.0194       1.0086    6106.8652       5.8260       2.4688       8.2949       8.4430       0.0853       0.0000
 5220.4620    5220.4620      52.2949       1.0083    6123.8494       5.3940       2.4730       7.8669       8.0669       0.0810       0.0000
 5220.6144    5220.6144      51.0987       1.0090    6136.2682       4.7305       2.5393       7.2698       7.5074       0.0814       0.0000
 5220.7668    5220.7668      49.8531       1.0121    6145.9265       4.2034       2.6422       6.8456       7.1003       0.0877       0.0000
 5220.9192    5220.9192      49.0253       1.0179    6167.4994       4.0223       2.7275       6.7498       6.9972       0.0960       0.0000
 5221.0716    5221.0716      49.0555       1.0200    6208.8447       4.1398       2.7416       6.8814       7.0879       0.0989       0.0000
 5221.2240    5221.2240      49.5991       1.0182    6241.0577       4.4041       2.6756       7.0797       7.2394       0.0936       0.0000
 5221.3764    5221.3764      49.8223       1.0157    6234.8701       4.6217       2.5640       7.1857       7.3580       0.0830       0.0000
 5221.5288    5221.5288      49.8496       1.0108    6214.7438       4.7174       2.4367       7.1541       7.4131       0.0710       0.0000
 5221.6812    5221.6812      50.0023       1.0050    6218.7290       4.8462       2.2634       7.1095       7.4882       0.0577       0.0000
 5221.8336    5221.8336      49.9310       1.0031    6233.8093       5.1255       2.0146       7.1402       7.6296       0.0430       0.0000
 5221.9860    5221.9860      49.4780       1.0044    6235.2646       5.3973       1.7184       7.1157       7.6866       0.0287       0.0000
 5222.1384    5222.1384      49.1174       1.0083    6223.7292       5.3446       1.4552       6.7998       7.4264       0.0177       0.0000
 5222.2908    5222.2908      49.2232       1.0100    6209.6135       4.9110       1.2774       6.1883       6.9215       0.0108       0.0000
 5222.4432    5222.4432      49.7924       1.0062    6182.5787       4.3478       1.1778       5.5255       6.4992       0.0072       0.0000
 5222.5956    5222.5956      50.3997       1.0075    6124.3238       4.0008       1.0892       5.0900       6.4355       0.0052       0.0000
 5222.7480    5222.7480      50.5990       1.0163    6051.7227       3.9435       0.9672       4.9107       6.6670       0.0037       0.0000
 5222.9004    5222.9004      50.5382       1.0135    6010.5674       3.9631       0.8425       4.8056       6.9030       0.0026       0.0000
 5223.0528    5223.0528      50.2689       0.9977    6029.0894       3.7893       0.8101       4.5994       6.8762       0.0021       0.0000
 5223.2052    5223.2052      49.7430       0.9924    6100.9181       3.3629       0.9316       4.2946       6.5762       0.0029       0.0000
 5223.3576    5223.3576      49.3091       1.0034    6185.7867       2.8815       1.1420       4.0235       6.2425       0.0046       0.0000
 5223.5100    5223.5100      49.3070       1.0109    6236.4733       2.5947       1.3004       3.8951       6.0769       0.0060       0.0000
 5223.6624    5223.6624    -999.2500       1.0051    6249.1626       2.5668       1.3222       3.8890       6.0100       0.0062       0.0000
 5223.8148    5223.8148    -999.2500       0.9985    6264.4032       2.6363       1.2367       3.8730       5.8290       0.0052       0.0000
 5223.9672    5223.9672    -999.2500       1.0005    6289.2239       2.6158       1.1232       3.7390       5.4398       0.0038       0.0000
 5224.1196    5224.1196    -999.2500       1.0080    6296.6543       2.4544       1.0339       3.4882       4.9505       0.0027       0.0000
 5224.2720    5224.2720    -999.2500       1.0169    6278.4627       2.2336       0.9512       3.1848       4.5392       0.0020       0.0000
 5224.4244    5224.4244    -999.2500       1.0242    6269.1781       2.0269       0.8376       2.8644       4.2930       0.0013       0.0000
 5224.5768    5224.5768    -999.2500       1.0282    6275.1431       1.8651       0.6907       2.5558       4.2106       0.0007       0.0000
 5224.7292    5224.7292    -999.2500       1.0260    6265.6947       1.7390       0.5502       2.2892       4.2353       0.0004       0.0000
 5224.8816    5224.8816    -999.2500       1.0205    6230.7754       1.6237       0.4724       2.0961       4.2716       0.0002       0.0000
 5225.0340    5225.0340    -999.2500       1.0138    6202.3881       1.5039       0.4818       1.9858       4.2908       0.0002       0.0000
 5225.1864    5225.1864    -999.2500       1.0060    6194.1854       1.3131       0.5713       1.8844       4.3415       0.0003       0.0000
 5225.3388    5225.3388    -999.2500       0.9964    6190.8959       1.0211       0.6958       1.7170       4.4856       0.0005       0.0000
