~VERSION INFORMATION
VERS.           2.0   :CWLS Log ASCII Standard - VERSION 2.0
WRAP.           NO    :One Line per depth step
PROD.  Schlumberger   :LAS Producer
PROG.  DLIS to ASCII 2.3                               :LAS Program name and version
CREA.        2023/07/14 00:15                          :LAS Creation date {YYYY/MM/DD hh:mm}
DLIS_CREA.  2023-Jul-14 00:11                          :DLIS Creation date and time {YYYY-MMM-DD hh:mm}
SOURCE.     LIS2_002.dlis                              :DLIS File Name
FILE-ID.     LIS   .002                                :File Identification Number
#--------------------------------------------------
~WELL INFORMATION
#MNEM.UNIT      DATA             DESCRIPTION
#---- ------ --------------   -----------------------------
STRT .M      5051.7552       :START DEPTH     
STOP .M      5231.7396       :STOP DEPTH     
STEP .M         0.1524       :STEP     
NULL .          -999.25      :NULL VALUE
COMP .        PETROBRAS S.A.                           :COMPANY
WELL .        3-BRSA-293D-SPS                          :WELL
FLD  .        BS-400                                   :FIELD
LOC  .        BASE SAD 69:                             :LOCATION
CNTY .        SANTOS                                   :COUNTY
STAT .        BRASIL                                   :STATE
CTRY .        BRASIL                                   :COUNTRY
API  .                                                 :API NUMBER
UWI  .                                                 :UNIQUE WELL ID
DATE .        24/10/2004                               :LOG DATE
SRVC .        Schlumberger                             :SERVICE COMPANY
LATI .DEG                                              :LATITUDE
LONG .DEG                                              :LONGITUDE
GDAT .                                                 :GeoDetic Datum
#-----------------------------------------------------------------------------
~PARAMETER INFORMATION
#MNEM.UNIT    VALUE                      DESCRIPTION
#---- -----   --------------------       ------------------------
APD  .M               24                 :
BHT  .DEGF           280                 :
BLI  .M             5225                 :
BS   .IN         8.50000                 :
CN   .        PETROBRAS S.A.             :
COUN .        SANTOS                     :
CS   .IN         9.62500                 :
DATE .        24/10/2004                 :
DFD  .LB/G      12.30000                 :
DFL  .C3               2                 :
DFPH .        N/A                        :
DFT  .        SINTETICO                  :
DFV  .S               87                 :
DMF  .        MESA ROTATIVA              :
EDF  .M               24                 :
EGL  .M             -500                 :
EKB  .        N/A                        :
ENGI .        HERNANDEZ/LOCK             :
FL1  .        X   7292392.00 M LAT 24 28 47.189 S :
FL2  .        Y    584087.00 M LON 44 10 12.698 W :
FL3  .        MC  45 GRAUS               :
FN   .        BS-400                     :
LMF  .        MESA ROTATIVA              :
LUL  .        MACAE                      :
MCSS .        PRENSA                     :
MCST .DEGF            80                 :
MFSS .        PRENSA                     :
MFST .DEGF            80                 :
MSS  .        LINHA DE FLUXO             :
MST  .DEGF            80                 :
PDAT .        NIVEL DO MAR               :
R1   .        01. APRESENTAÇÃO DE ACORDO COM REQUERIMENTO DO CLIENTE :
R2   .        02. TEMPERATURA MÁXIMA DO POÇO T1=T2= 290 DEGF @  5215 M :
R3   .        03. INICIO DA CIRCULAÇÃO  13 45 H 21/10/2004 :
R4   .        04. FINAL DA CIRCULAÇÃO   16 00 H 21/10/2004 :
R5   .        05. TEMPO TOTAL DE CIRCULAÇÃO  02 15 H :
R6   .        06. FLUIDO DE PERFURAÇÃO  SINTETICO (BR-MUL  BR-MI)  65% TEOR DO OLEO :
R7   .        07. SALINIDADE DA LAMA  266377 PPM NACL NA FASE DE AGUA :
R8   .        08. INCLINAÇÃO MÁXIMA DO POÇO  37.37 GRAUS @ 5100 M :
R9   .        09. PRIMEIRAS E ULTIMAS LEITURAS  :
RMB  .OHMM    > 10                       :
RMCS .OHMM    > 10                       :
RMFS .OHMM    > 10                       :
RMS  .OHMM    > 10                       :
RUN  .                 1                 :
STAT .        BRASIL                     :
TCS  .        16 00 H                    :
TDD  .M             5230                 :
TDL  .        NR                         :
TLAB .        N/A                        :
TLI  .M             5070                 :
WITN .        ALCIDIO/VLADIMIR           :
WN   .        3-BRSA-293D-SPS            :
LUN  .              8808                 :
HIDE .        3-SPS-41D                  :
HID2 .        MAGNETIC RESONANCE         :
HID3 .        EXPLORER LOG               :
HID4 .        GAMMA RAY LOG              :
CLAB .        BACIA                      :
SLAB .        PAIS                       :
CMT1 .        ESC  1 200                 :
CMT2 .        PROF. MEDIDA               :
CMT4 .        SONDA  SS-43               :
HDAT .        SAD 69                     :
FL   .        BASE SAD 69                :
OS1  .        HDIL/XMAC/GR               :
OS3  .        ZDL/CN/GR                  :
OS5  .        SL/GR                      :
LNAM .        MREX/ZDL/CN/XMAC/HDIL/3DEX/RCI/SL/GR :
TOOL .        MREX/ZDL/CN/XMAC/HDIL/3DEX/RCI/SL/GR :
LSOU .        PETROBRAS                  :
LSRV .        OH WIRELINE                :
LTYP .        RAW                        :
EPD  .M                0                 :
LDAT .        24/10/2004                 :
TRIP .                 1                 :
SON  .            783148                 :
CBDR .M             4277                 :
CBLO .        NR                         :
STEM .DEGF    N/A                        :
BSAL .            266377                 :
BARI .        OFF                        :
DLAB .        21/10/2004                 :
MRT  .DEGF           290                 :
TSTR .        MRIL/GR                    :
TSTG .        N/A                        :
STUS .        FINAL                      :
LCNM .        BAKER ATLAS                :
LCC  .               150                 :
NATI .        BRASIL                     :
OPMD .        OH.WIRELINE                :
PANA .        HERNANDEZ/LOCK             :
PCON .        BAKER ATLAS                :
R11  .        MREX     5225.0 M/5070.0 M :
R13  .        10. PONTO FRACO UTILIZADO  8K :
R14  .        12. DECLINAÇÃO MAGNETICA  -20.9 GRAUS :
R15  .        13. COORDENADAS BASE       :
R17  .        X   7292512.00 M           :
R18  .        Y    583936.00 M           :
R19  .        MC  45 GRAUS               :
R21  .        14. CADASTRO ANP  86316021017 :
PVER .           4.10000                 :
WDFN .        /space/expusr/3-SPS-41D/dat1a/pass/mexilhoes/i857d04.aff :
OCT  .        i857d                      :
0S2  .        3DEX/GR                    :
OS4  .        RCI/GR                     :
#-----------------------------------------------------------------------------
~CURVE INFORMATION
#MNEM.UNIT   API CODE                                  DESCRIPTION
#---- -----  --------                                  -----------------------
DEPT .M                                                :DEPTH (BOREHOLE) {F10.4}
DEPT .M                                                : {F13.4}
GR   .GAPI                                             : {F13.4}
SPD  .M/MN                                             : {F13.4}
TTEN .LBF                                              : {F13.4}
MBVI .PU                                               : {F13.4}
MBVM .PU                                               : {F13.4}
MPHE .PU                                               : {F13.4}
MPHS .PU                                               : {F13.4}
MPRM .MD                                               : {F13.4}
TPOR[0].                                               : {AF13.4}
#-----------------------------------------------------------------------------
# 
#     DEPT        DEPT         GR           SPD          TTEN         MBVI         MBVM         MPHE         MPHS         MPRM       TPOR[0]
#
~A  
# ...
 5129.9364    5129.9364      61.4542       1.0100    6376.4373       1.2896       1.2792       2.5687       6.7321       0.0100       0.0000
 5130.0888    5130.0888      60.7153       1.0106    6424.8360       1.1966       0.8904       2.0870       6.8157       0.0026       0.0000
 5130.2412    5130.2412      61.3960       1.0090    6418.5752       1.1043       0.6632       1.7675       6.9188       0.0006       0.0000
 5130.3936    5130.3936      63.7718       1.0077    6379.9922       1.1073       0.5679       1.6751       7.0268       0.0002       0.0000
 5130.5460    5130.5460      67.7258       1.0060    6323.1522       1.2532       0.5268       1.7800       7.2331       0.0002       0.0000
 5130.6984    5130.6984      72.3101       1.0021    6262.3993       1.3830       0.5083       1.8913       7.5490       0.0002       0.0000
 5130.8508    5130.8508      75.8026       1.0002    6211.7832       1.2249       0.5297       1.7546       7.7559       0.0002       0.0000
 5131.0032    5131.0032      77.7895       1.0063    6183.7129       0.7948       0.5852       1.3800       7.7269       0.0003       0.0000
 5131.1556    5131.1556      79.7390       1.0149    6190.1070       0.4014       0.6418       1.0432       7.6101       0.0006       0.0000
 5131.3080    5131.3080      81.7633       1.0138    6211.3414       0.2352       0.6794       0.9146       7.5904       0.0008       0.0000
 5131.4604    5131.4604      81.4862       1.0045    6208.7122       0.2247       0.6940       0.9187       7.6677       0.0008       0.0000
 5131.6128    5131.6128      79.2415       0.9965    6188.4541       0.2500       0.6946       0.9446       7.7491       0.0007       0.0000
 5131.7652    5131.7652      78.5892       0.9939    6177.6266       0.2887       0.7111       0.9998       7.7847       0.0006       0.0000
 5131.9176    5131.9176      80.9120       0.9954    6166.0332       0.3854       0.7555       1.1409       7.7569       0.0007       0.0000
 5132.0700    5132.0700      84.0748       0.9983    6129.6148       0.6103       0.7973       1.4075       7.7107       0.0008       0.0000
 5132.2224    5132.2224      86.2003       0.9990    6073.2013       1.1448       0.7928       1.9376       7.8750       0.0008       0.0000
 5132.3748    5132.3748      86.9209       0.9997    6017.7836       2.0972       0.7760       2.8732       8.3904       0.0012       0.0000
 5132.5272    5132.5272      86.5595       1.0040    5999.7393       3.1503       0.8759       4.0263       8.9522       0.0035       0.0000
 5132.6796    5132.6796      86.0067       1.0098    6044.5664       3.8605       1.2005       5.0611       9.1514       0.0119       0.0000
 5132.8320    5132.8320      85.5672       1.0097    6129.3232       4.1628       1.7315       5.8944       8.9932       0.0343       0.0000
 5132.9844    5132.9844      85.6070       1.0053    6195.7822       4.2317       2.3570       6.5887       8.7197       0.0825       0.0000
 5133.1368    5133.1368      86.6628       1.0028    6212.4961       4.1480       2.9843       7.1323       8.4698       0.1710       0.0000
 5133.2892    5133.2892      88.9623       1.0042    6197.4393       3.9704       3.5948       7.5652       8.3110       0.3260       0.0000
 5133.4416    5133.4416      91.8032       1.0064    6198.0123       3.7915       4.1936       7.9851       8.3270       0.5850       0.0000
 5133.5940    5133.5940      93.4442       1.0074    6217.7553       3.6268       4.8100       8.4368       8.5496       1.0489       0.0000
 5133.7464    5133.7464      90.3183       0.9991    6213.9611       3.4228       5.4129       8.8358       8.8592       1.7305       0.0000
 5133.8988    5133.8988      80.1588       0.9846    6169.9125       3.2355       5.8676       9.1031       9.1088       2.3826       0.0000
 5134.0512    5134.0512      66.9220       0.9785    6120.5088       3.2894       6.0686       9.3580       9.3689       2.6734       0.0000
 5134.2036    5134.2036      57.4382       0.9832    6088.3098       3.7500       6.0752       9.8252       9.8518       2.5552       0.0000
 5134.3560    5134.3560      53.0873       0.9872    6085.1595       4.4938       6.0605      10.5543      10.5960       2.3447       0.0000
 5134.5084    5134.5084      50.7715       0.9881    6116.2883       5.1543       6.1755      11.3298      11.3752       2.4198       0.0000
 5134.6608    5134.6608      48.7008       0.9944    6157.6321       5.4172       6.4783      11.8956      11.9317       2.9907       0.0000
 5134.8132    5134.8132      47.5525       1.0043    6186.7720       5.1945       6.9304      12.1248      12.1464       4.1721       0.0000
 5134.9656    5134.9656      47.8612       1.0088    6203.0492       4.6874       7.4505      12.1379      12.1468       5.9898       0.0000
 5135.1180    5135.1180      48.9698       1.0075    6204.1866       4.2307       7.9618      12.1925      12.1946       8.3519       0.0000
 5135.2704    5135.2704      49.8551       1.0072    6178.5673       3.9522       8.5070      12.4591      12.4592      12.2805       0.0000
 5135.4228    5135.4229      50.4760       1.0069    6135.2256       3.6528       9.1903      12.8431      12.8431      20.5817       0.0000
 5135.5752    5135.5752      50.9149       1.0068    6105.2021       3.2522       9.8941      13.1462      13.1462      31.8555       0.0000
 5135.7276    5135.7276      50.6641       1.0109    6100.2183       3.0001      10.3323      13.3324      13.3324      39.3825       0.0000
 5135.8800    5135.8800      49.8948       1.0157    6111.0262       3.1399      10.3645      13.5044      13.5044      38.0614       0.0000
 5136.0324    5136.0324      49.5514       1.0157    6122.2121       3.5963      10.1133      13.7096      13.7108      30.4782       0.0000
 5136.1848    5136.1848      49.9063       1.0131    6122.7525       4.1565       9.7684      13.9249      13.9305      22.3751       0.0000
 5136.3372    5136.3372      50.0491       1.0123    6122.6320       4.6697       9.4724      14.1421      14.1583      17.0829       0.0000
 5136.4896    5136.4896      49.3858       1.0154    6140.9003       5.0773       9.2394      14.3167      14.3467      14.1865       0.0000
 5136.6420    5136.6420      49.0964       1.0210    6172.1723       5.3703       9.0045      14.3748      14.4149      12.1880       0.0000
 5136.7944    5136.7944      50.5593       1.0221    6183.5068       5.5414       8.7341      14.2756      14.3238      10.4546       0.0000
 5136.9468    5136.9468      52.9266       1.0169    6165.2187       5.5905       8.4845      14.0750      14.1386       9.1089       0.0000
 5137.0992    5137.0992      54.5442       1.0171    6132.8323       5.5466       8.3337      13.8803      13.9671       8.4047       0.0000
 5137.2516    5137.2516      55.0619       1.0273    6100.9915       5.4343       8.3256      13.7599      13.8638       8.4493       0.0000
 5137.4040    5137.4040      54.8168       1.0351    6066.9968       5.2472       8.4437      13.6909      13.7964       9.1884       0.0000
 5137.5564    5137.5564      54.1025       1.0316    6033.7015       4.9875       8.6184      13.6059      13.7011      10.3678       0.0000
 5137.7088    5137.7088      53.6474       1.0228    6013.5661       4.6859       8.7763      13.4622      13.5405      11.6569       0.0000
 5137.8612    5137.8612      53.8706       1.0183    6010.3444       4.4072       8.8972      13.3044      13.3589      12.8800       0.0000
 5138.0136    5138.0136      54.3450       1.0177    6005.7690       4.2523       8.9946      13.2469      13.2753      13.8534       0.0000
 5138.1660    5138.1660      54.4573       1.0191    5997.4150       4.3050       9.0406      13.3456      13.3551      14.0889       0.0000
 5138.3184    5138.3184      53.8941       1.0216    6000.3691       4.5438       8.9593      13.5031      13.5045      13.1352       0.0000
 5138.4708    5138.4708      53.2189       1.0263    6006.8654       4.7798       8.7403      13.5200      13.5200      11.3834       0.0000
