~VERSION INFORMATION
VERS.           2.0   :CWLS Log ASCII Standard - VERSION 2.0
WRAP.           NO    :One Line per depth step
PROD.  Schlumberger   :LAS Producer
PROG.  DLIS to ASCII 2.3                               :LAS Program name and version
CREA.        2023/07/14 00:15                          :LAS Creation date {YYYY/MM/DD hh:mm}
DLIS_CREA.  2023-Jul-14 00:11                          :DLIS Creation date and time {YYYY-MMM-DD hh:mm}
SOURCE.     LIS2_002.dlis                              :DLIS File Name
FILE-ID.     LIS   .002                                :File Identification Number
#--------------------------------------------------
~WELL INFORMATION
#MNEM.UNIT      DATA             DESCRIPTION
#---- ------ --------------   -----------------------------
STRT .M      5051.7552       :START DEPTH     
STOP .M      5231.7396       :STOP DEPTH     
STEP .M         0.1524       :STEP     
NULL .          -999.25      :NULL VALUE
COMP .        PETROBRAS S.A.                           :COMPANY
WELL .        3-BRSA-293D-SPS                          :WELL
FLD  .        BS-400                                   :FIELD
LOC  .        BASE SAD 69:                             :LOCATION
CNTY .        SANTOS                                   :COUNTY
STAT .        BRASIL                                   :STATE
CTRY .        BRASIL                                   :COUNTRY
API  .                                                 :API NUMBER
UWI  .                                                 :UNIQUE WELL ID
DATE .        24/10/2004                               :LOG DATE
SRVC .        Schlumberger                             :SERVICE COMPANY
LATI .DEG                                              :LATITUDE
LONG .DEG                                              :LONGITUDE
GDAT .                                                 :GeoDetic Datum
#-----------------------------------------------------------------------------
~PARAMETER INFORMATION
#MNEM.UNIT    VALUE                      DESCRIPTION
#---- -----   --------------------       ------------------------
APD  .M               24                 :
BHT  .DEGF           280                 :
BLI  .M             5225                 :
BS   .IN         8.50000                 :
CN   .        PETROBRAS S.A.             :
COUN .        SANTOS                     :
CS   .IN         9.62500                 :
DATE .        24/10/2004                 :
DFD  .LB/G      12.30000                 :
DFL  .C3               2                 :
DFPH .        N/A                        :
DFT  .        SINTETICO                  :
DFV  .S               87                 :
DMF  .        MESA ROTATIVA              :
EDF  .M               24                 :
EGL  .M             -500                 :
EKB  .        N/A                        :
ENGI .        HERNANDEZ/LOCK             :
FL1  .        X   7292392.00 M LAT 24 28 47.189 S :
FL2  .        Y    584087.00 M LON 44 10 12.698 W :
FL3  .        MC  45 GRAUS               :
FN   .        BS-400                     :
LMF  .        MESA ROTATIVA              :
LUL  .        MACAE                      :
MCSS .        PRENSA                     :
MCST .DEGF            80                 :
MFSS .        PRENSA                     :
MFST .DEGF            80                 :
MSS  .        LINHA DE FLUXO             :
MST  .DEGF            80                 :
PDAT .        NIVEL DO MAR               :
R1   .        01. APRESENTAÇÃO DE ACORDO COM REQUERIMENTO DO CLIENTE :
R2   .        02. TEMPERATURA MÁXIMA DO POÇO T1=T2= 290 DEGF @  5215 M :
R3   .        03. INICIO DA CIRCULAÇÃO  13 45 H 21/10/2004 :
R4   .        04. FINAL DA CIRCULAÇÃO   16 00 H 21/10/2004 :
R5   .        05. TEMPO TOTAL DE CIRCULAÇÃO  02 15 H :
R6   .        06. FLUIDO DE PERFURAÇÃO  SINTETICO (BR-MUL  BR-MI)  65% TEOR DO OLEO :
R7   .        07. SALINIDADE DA LAMA  266377 PPM NACL NA FASE DE AGUA :
R8   .        08. INCLINAÇÃO MÁXIMA DO POÇO  37.37 GRAUS @ 5100 M :
R9   .        09. PRIMEIRAS E ULTIMAS LEITURAS  :
RMB  .OHMM    > 10                       :
RMCS .OHMM    > 10                       :
RMFS .OHMM    > 10                       :
RMS  .OHMM    > 10                       :
RUN  .                 1                 :
STAT .        BRASIL                     :
TCS  .        16 00 H                    :
TDD  .M             5230                 :
TDL  .        NR                         :
TLAB .        N/A                        :
TLI  .M             5070                 :
WITN .        ALCIDIO/VLADIMIR           :
WN   .        3-BRSA-293D-SPS            :
LUN  .              8808                 :
HIDE .        3-SPS-41D                  :
HID2 .        MAGNETIC RESONANCE         :
HID3 .        EXPLORER LOG               :
HID4 .        GAMMA RAY LOG              :
CLAB .        BACIA                      :
SLAB .        PAIS                       :
CMT1 .        ESC  1 200                 :
CMT2 .        PROF. MEDIDA               :
CMT4 .        SONDA  SS-43               :
HDAT .        SAD 69                     :
FL   .        BASE SAD 69                :
OS1  .        HDIL/XMAC/GR               :
OS3  .        ZDL/CN/GR                  :
OS5  .        SL/GR                      :
LNAM .        MREX/ZDL/CN/XMAC/HDIL/3DEX/RCI/SL/GR :
TOOL .        MREX/ZDL/CN/XMAC/HDIL/3DEX/RCI/SL/GR :
LSOU .        PETROBRAS                  :
LSRV .        OH WIRELINE                :
LTYP .        RAW                        :
EPD  .M                0                 :
LDAT .        24/10/2004                 :
TRIP .                 1                 :
SON  .            783148                 :
CBDR .M             4277                 :
CBLO .        NR                         :
STEM .DEGF    N/A                        :
BSAL .            266377                 :
BARI .        OFF                        :
DLAB .        21/10/2004                 :
MRT  .DEGF           290                 :
TSTR .        MRIL/GR                    :
TSTG .        N/A                        :
STUS .        FINAL                      :
LCNM .        BAKER ATLAS                :
LCC  .               150                 :
NATI .        BRASIL                     :
OPMD .        OH.WIRELINE                :
PANA .        HERNANDEZ/LOCK             :
PCON .        BAKER ATLAS                :
R11  .        MREX     5225.0 M/5070.0 M :
R13  .        10. PONTO FRACO UTILIZADO  8K :
R14  .        12. DECLINAÇÃO MAGNETICA  -20.9 GRAUS :
R15  .        13. COORDENADAS BASE       :
R17  .        X   7292512.00 M           :
R18  .        Y    583936.00 M           :
R19  .        MC  45 GRAUS               :
R21  .        14. CADASTRO ANP  86316021017 :
PVER .           4.10000                 :
WDFN .        /space/expusr/3-SPS-41D/dat1a/pass/mexilhoes/i857d04.aff :
OCT  .        i857d                      :
0S2  .        3DEX/GR                    :
OS4  .        RCI/GR                     :
#-----------------------------------------------------------------------------
~CURVE INFORMATION
#MNEM.UNIT   API CODE                                  DESCRIPTION
#---- -----  --------                                  -----------------------
DEPT .M                                                :DEPTH (BOREHOLE) {F10.4}
DEPT .M                                                : {F13.4}
GR   .GAPI                                             : {F13.4}
SPD  .M/MN                                             : {F13.4}
TTEN .LBF                                              : {F13.4}
MBVI .PU                                               : {F13.4}
MBVM .PU                                               : {F13.4}
MPHE .PU                                               : {F13.4}
MPHS .PU                                               : {F13.4}
MPRM .MD                                               : {F13.4}
TPOR[0].                                               : {AF13.4}
#-----------------------------------------------------------------------------
# 
#     DEPT        DEPT         GR           SPD          TTEN         MBVI         MBVM         MPHE         MPHS         MPRM       TPOR[0]
#
~A  
# ...
 5208.1176    5208.1176      52.6320       1.0355    6256.5685       5.0859       3.8334       8.9193       8.9414       0.3622       0.0000
 5208.2700    5208.2700      50.9196       1.0294    6234.5717       5.1146       3.8864       9.0009       9.0121       0.3807       0.0000
 5208.4224    5208.4224      49.5123       1.0339    6224.6891       5.4869       3.8684       9.3554       9.3615       0.3826       0.0000
 5208.5748    5208.5748      49.5214       1.0414    6217.1192       5.9230       3.8252       9.7482       9.7511       0.3779       0.0000
 5208.7272    5208.7272      50.6275       1.0422    6200.7555       6.1849       3.8156      10.0005      10.0013       0.3814       0.0000
 5208.8796    5208.8796      51.3053       1.0397    6184.9248       6.2591       3.8585      10.1176      10.1177       0.3991       0.0000
 5209.0320    5209.0320      50.9613       1.0409    6183.3641       6.2835       3.9077      10.1912      10.1935       0.4180       0.0000
 5209.1844    5209.1844      50.3730       1.0438    6187.7222       6.4118       3.8846      10.2964      10.3242       0.4144       0.0000
 5209.3368    5209.3368      50.2220       1.0417    6175.4974       6.6330       3.7733      10.4064      10.5051       0.3826       0.0000
 5209.4892    5209.4893      50.2451       1.0298    6137.7471       6.6973       3.6640      10.3613      10.5532       0.3469       0.0000
 5209.6416    5209.6416      50.2227       1.0172    6099.2793       6.3947       3.6315      10.0262      10.2820       0.3271       0.0000
 5209.7940    5209.7939      50.5561       1.0163    6090.7314       5.8198       3.6378       9.4576       9.7333       0.3144       0.0000
 5209.9464    5209.9464      51.4838       1.0235    6110.7640       5.2118       3.6033       8.8151       9.0963       0.2913       0.0000
 5210.0988    5210.0988      52.4925       1.0286    6120.8382       4.6942       3.5139       8.2081       8.4773       0.2573       0.0000
 5210.2512    5210.2512      52.9249       1.0310    6095.2395       4.2582       3.4103       7.6685       7.8766       0.2243       0.0000
 5210.4036    5210.4036      52.5080       1.0310    6056.0590       3.7854       3.3478       7.1332       7.2475       0.2055       0.0000
 5210.5560    5210.5560      51.0846       1.0233    6051.9685       3.2257       3.3537       6.5794       6.6274       0.2090       0.0000
 5210.7084    5210.7084      49.2409       1.0135    6097.5605       2.6935       3.4110       6.1046       6.1340       0.2315       0.0000
 5210.8608    5210.8608      48.5736       1.0117    6147.3279       2.4124       3.4594       5.8718       5.9118       0.2499       0.0000
 5211.0132    5211.0132      49.4190       1.0202    6154.2449       2.5029       3.4538       5.9567       6.0237       0.2453       0.0000
 5211.1656    5211.1656      50.2438       1.0308    6121.3597       2.8874       3.4098       6.2972       6.3980       0.2254       0.0000
 5211.3180    5211.3180      50.2987       1.0368    6084.4806       3.3465       3.3848       6.7313       6.8798       0.2134       0.0000
 5211.4704    5211.4704      50.1770       1.0401    6062.1092       3.6969       3.3996       7.0965       7.3498       0.2156       0.0000
 5211.6228    5211.6228      50.5124       1.0413    6055.7469       3.8798       3.4239       7.3037       7.7658       0.2220       0.0000
 5211.7752    5211.7752      51.1491       1.0356    6051.7841       4.0116       3.4072       7.4187       8.1943       0.2194       0.0000
 5211.9276    5211.9276      51.2376       1.0301    6045.0878       4.2015       3.3233       7.5249       8.6131       0.2029       0.0000
 5212.0800    5212.0800      50.3332       1.0323    6052.2368       4.4313       3.1764       7.6077       8.8476       0.1755       0.0000
 5212.2324    5212.2324      49.4400       1.0362    6077.5439       4.5872       2.9967       7.5839       8.6915       0.1444       0.0000
 5212.3848    5212.3848      49.4468       1.0389    6092.1738       4.6176       2.8322       7.4498       8.1960       0.1178       0.0000
 5212.5372    5212.5372      50.4253       1.0435    6079.0643       4.5675       2.7206       7.2881       7.6745       0.1008       0.0000
 5212.6896    5212.6896      51.8312       1.0462    6062.2302       4.5059       2.6597       7.1656       7.3610       0.0921       0.0000
 5212.8420    5212.8420      52.6195       1.0430    6061.8673       4.4360       2.6289       7.0649       7.2047       0.0876       0.0000
 5212.9944    5212.9944      52.3538       1.0325    6065.2433       4.3641       2.6077       6.9718       7.0951       0.0844       0.0000
 5213.1468    5213.1468      51.7638       1.0204    6064.0736       4.3649       2.5722       6.9371       7.0485       0.0807       0.0000
 5213.2992    5213.2992      51.6618       1.0144    6073.6457       4.5541       2.4826       7.0367       7.1331       0.0737       0.0000
 5213.4516    5213.4516      52.2395       1.0139    6089.0607       4.9361       2.3361       7.2721       7.3761       0.0638       0.0000
 5213.6040    5213.6040      53.5914       1.0192    6101.3121       5.3987       2.1641       7.5628       7.7608       0.0535       0.0000
 5213.7564    5213.7564      54.3305       1.0295    6115.2031       5.8749       1.9640       7.8389       8.2935       0.0435       0.0000
 5213.9088    5213.9088      52.9625       1.0335    6130.4246       6.3916       1.6876       8.0792       8.8955       0.0322       0.0000
 5214.0612    5214.0612      50.4454       1.0252    6131.9191       6.9362       1.3153       8.2515       9.3534       0.0199       0.0000
 5214.2136    5214.2136      47.8947       1.0140    6133.4174       7.3374       0.9144       8.2517       9.4185       0.0098       0.0000
 5214.3660    5214.3660      44.4505       1.0091    6160.2660       7.3663       0.5847       7.9510       8.9873       0.0038       0.0000
 5214.5184    5214.5184      40.2847       1.0089    6197.5258       6.8734       0.3915       7.2649       8.0897       0.0013       0.0000
 5214.6708    5214.6708      36.9400       1.0094    6217.8857       5.7828       0.3582       6.1410       6.7941       0.0006       0.0000
 5214.8232    5214.8232      34.8283       1.0141    6209.0264       4.2119       0.4393       4.6512       5.2178       0.0005       0.0000
 5214.9756    5214.9756      33.5619       1.0253    6180.6592       2.5001       0.4794       2.9795       3.4865       0.0004       0.0000
 5215.1280    5215.1280      33.1736       1.0334    6141.5438       1.0995       0.3664       1.4658       1.8796       0.0002       0.0000
 5215.2804    5215.2804      34.4956       1.0335    6109.7125       0.3238       0.1912       0.5151       0.8255       0.0001       0.0000
 5215.4328    5215.4328      38.5526       1.0325    6099.5612       0.1431       0.1212       0.2643       0.5026       0.0000       0.0000
 5215.5852    5215.5852      43.8727       1.0364    6101.4990       0.2854       0.2027       0.4881       0.6885       0.0000       0.0000
 5215.7376    5215.7376      47.7262       1.0402    6085.4205       0.5669       0.3680       0.9349       1.1137       0.0001       0.0000
 5215.8900    5215.8900      49.6736       1.0362    6046.6902       0.9662       0.5476       1.5138       1.6811       0.0003       0.0000
 5216.0424    5216.0424      50.6864       1.0297    6016.9258       1.5006       0.7264       2.2271       2.3922       0.0012       0.0000
 5216.1948    5216.1948      50.9323       1.0323    6019.1123       2.1017       0.9993       3.1010       3.2527       0.0047       0.0000
 5216.3472    5216.3472      50.6463       1.0389    6049.3809       2.6127       1.4465       4.0592       4.1683       0.0169       0.0000
 5216.4996    5216.4996      50.7216       1.0374    6082.3811       2.9670       2.0042       4.9712       5.0252       0.0420       0.0000
 5216.6520    5216.6520      51.5117       1.0322    6088.0774       3.2638       2.4823       5.7461       5.7632       0.0740       0.0000
