~VERSION INFORMATION
VERS.           2.0   :CWLS Log ASCII Standard - VERSION 2.0
WRAP.           NO    :One Line per depth step
PROD.  Schlumberger   :LAS Producer
PROG.  DLIS to ASCII 2.3                               :LAS Program name and version
CREA.        2023/07/14 00:15                          :LAS Creation date {YYYY/MM/DD hh:mm}
DLIS_CREA.  2023-Jul-14 00:11                          :DLIS Creation date and time {YYYY-MMM-DD hh:mm}
SOURCE.     LIS2_002.dlis                              :DLIS File Name
FILE-ID.     LIS   .002                                :File Identification Number
#--------------------------------------------------
~WELL INFORMATION
#MNEM.UNIT      DATA             DESCRIPTION
#---- ------ --------------   -----------------------------
STRT .M      5051.7552       :START DEPTH     
STOP .M      5231.7396       :STOP DEPTH     
STEP .M         0.1524       :STEP     
NULL .          -999.25      :NULL VALUE
COMP .        PETROBRAS S.A.                           :COMPANY
WELL .        3-BRSA-293D-SPS                          :WELL
FLD  .        BS-400                                   :FIELD
LOC  .        BASE SAD 69:                             :LOCATION
CNTY .        SANTOS                                   :COUNTY
STAT .        BRASIL                                   :STATE
CTRY .        BRASIL                                   :COUNTRY
API  .                                                 :API NUMBER
UWI  .                                                 :UNIQUE WELL ID
DATE .        24/10/2004                               :LOG DATE
SRVC .        Schlumberger                             :SERVICE COMPANY
LATI .DEG                                              :LATITUDE
LONG .DEG                                              :LONGITUDE
GDAT .                                                 :GeoDetic Datum
#-----------------------------------------------------------------------------
~PARAMETER INFORMATION
#MNEM.UNIT    VALUE                      DESCRIPTION
#---- -----   --------------------       ------------------------
APD  .M               24                 :
BHT  .DEGF           280                 :
BLI  .M             5225                 :
BS   .IN         8.50000                 :
CN   .        PETROBRAS S.A.             :
COUN .        SANTOS                     :
CS   .IN         9.62500                 :
DATE .        24/10/2004                 :
DFD  .LB/G      12.30000                 :
DFL  .C3               2                 :
DFPH .        N/A                        :
DFT  .        SINTETICO                  :
DFV  .S               87                 :
DMF  .        MESA ROTATIVA              :
EDF  .M               24                 :
EGL  .M             -500                 :
EKB  .        N/A                        :
ENGI .        HERNANDEZ/LOCK             :
FL1  .        X   7292392.00 M LAT 24 28 47.189 S :
FL2  .        Y    584087.00 M LON 44 10 12.698 W :
FL3  .        MC  45 GRAUS               :
FN   .        BS-400                     :
LMF  .        MESA ROTATIVA              :
LUL  .        MACAE                      :
MCSS .        PRENSA                     :
MCST .DEGF            80                 :
MFSS .        PRENSA                     :
MFST .DEGF            80                 :
MSS  .        LINHA DE FLUXO             :
MST  .DEGF            80                 :
PDAT .        NIVEL DO MAR               :
R1   .        01. APRESENTAÇÃO DE ACORDO COM REQUERIMENTO DO CLIENTE :
R2   .        02. TEMPERATURA MÁXIMA DO POÇO T1=T2= 290 DEGF @  5215 M :
R3   .        03. INICIO DA CIRCULAÇÃO  13 45 H 21/10/2004 :
R4   .        04. FINAL DA CIRCULAÇÃO   16 00 H 21/10/2004 :
R5   .        05. TEMPO TOTAL DE CIRCULAÇÃO  02 15 H :
R6   .        06. FLUIDO DE PERFURAÇÃO  SINTETICO (BR-MUL  BR-MI)  65% TEOR DO OLEO :
R7   .        07. SALINIDADE DA LAMA  266377 PPM NACL NA FASE DE AGUA :
R8   .        08. INCLINAÇÃO MÁXIMA DO POÇO  37.37 GRAUS @ 5100 M :
R9   .        09. PRIMEIRAS E ULTIMAS LEITURAS  :
RMB  .OHMM    > 10                       :
RMCS .OHMM    > 10                       :
RMFS .OHMM    > 10                       :
RMS  .OHMM    > 10                       :
RUN  .                 1                 :
STAT .        BRASIL                     :
TCS  .        16 00 H                    :
TDD  .M             5230                 :
TDL  .        NR                         :
TLAB .        N/A                        :
TLI  .M             5070                 :
WITN .        ALCIDIO/VLADIMIR           :
WN   .        3-BRSA-293D-SPS            :
LUN  .              8808                 :
HIDE .        3-SPS-41D                  :
HID2 .        MAGNETIC RESONANCE         :
HID3 .        EXPLORER LOG               :
HID4 .        GAMMA RAY LOG              :
CLAB .        BACIA                      :
SLAB .        PAIS                       :
CMT1 .        ESC  1 200                 :
CMT2 .        PROF. MEDIDA               :
CMT4 .        SONDA  SS-43               :
HDAT .        SAD 69                     :
FL   .        BASE SAD 69                :
OS1  .        HDIL/XMAC/GR               :
OS3  .        ZDL/CN/GR                  :
OS5  .        SL/GR                      :
LNAM .        MREX/ZDL/CN/XMAC/HDIL/3DEX/RCI/SL/GR :
TOOL .        MREX/ZDL/CN/XMAC/HDIL/3DEX/RCI/SL/GR :
LSOU .        PETROBRAS                  :
LSRV .        OH WIRELINE                :
LTYP .        RAW                        :
EPD  .M                0                 :
LDAT .        24/10/2004                 :
TRIP .                 1                 :
SON  .            783148                 :
CBDR .M             4277                 :
CBLO .        NR                         :
STEM .DEGF    N/A                        :
BSAL .            266377                 :
BARI .        OFF                        :
DLAB .        21/10/2004                 :
MRT  .DEGF           290                 :
TSTR .        MRIL/GR                    :
TSTG .        N/A                        :
STUS .        FINAL                      :
LCNM .        BAKER ATLAS                :
LCC  .               150                 :
NATI .        BRASIL                     :
OPMD .        OH.WIRELINE                :
PANA .        HERNANDEZ/LOCK             :
PCON .        BAKER ATLAS                :
R11  .        MREX     5225.0 M/5070.0 M :
R13  .        10. PONTO FRACO UTILIZADO  8K :
R14  .        12. DECLINAÇÃO MAGNETICA  -20.9 GRAUS :
R15  .        13. COORDENADAS BASE       :
R17  .        X   7292512.00 M           :
R18  .        Y    583936.00 M           :
R19  .        MC  45 GRAUS               :
R21  .        14. CADASTRO ANP  86316021017 :
PVER .           4.10000                 :
WDFN .        /space/expusr/3-SPS-41D/dat1a/pass/mexilhoes/i857d04.aff :
OCT  .        i857d                      :
0S2  .        3DEX/GR                    :
OS4  .        RCI/GR                     :
#-----------------------------------------------------------------------------
~CURVE INFORMATION
#MNEM.UNIT   API CODE                                  DESCRIPTION
#---- -----  --------                                  -----------------------
DEPT .M                                                :DEPTH (BOREHOLE) {F10.4}
DEPT .M                                                : {F13.4}
GR   .GAPI                                             : {F13.4}
SPD  .M/MN                                             : {F13.4}
TTEN .LBF                                              : {F13.4}
MBVI .PU                                               : {F13.4}
MBVM .PU                                               : {F13.4}
MPHE .PU                                               : {F13.4}
MPHS .PU                                               : {F13.4}
MPRM .MD                                               : {F13.4}
TPOR[0].                                               : {AF13.4}
#-----------------------------------------------------------------------------
# 
#     DEPT        DEPT         GR           SPD          TTEN         MBVI         MBVM         MPHE         MPHS         MPRM       TPOR[0]
#
~A  
# ...
 5077.8156    5077.8156      68.7823       0.9953    6059.0802       0.0021       0.6850       0.6871       5.1410       0.0022       0.0000
 5077.9680    5077.9680      68.6794       1.0004    6120.5123       0.0202       0.6855       0.7056       5.5188       0.0023       0.0000
 5078.1204    5078.1204      68.2236       1.0014    6164.5314       0.1494       0.6830       0.8325       5.7769       0.0022       0.0000
 5078.2728    5078.2728      67.7286       1.0006    6165.5282       0.5119       0.6746       1.1864       6.0425       0.0016       0.0000
 5078.4252    5078.4252      66.8915       0.9991    6157.8941       1.0903       0.6614       1.7517       6.4364       0.0009       0.0000
 5078.5776    5078.5776      64.1613       1.0000    6153.6149       1.7415       0.6358       2.3773       6.9210       0.0005       0.0000
 5078.7300    5078.7300      60.2653       1.0032    6136.5910       2.3695       0.5907       2.9601       7.4376       0.0005       0.0000
 5078.8824    5078.8824      58.1147       1.0108    6109.0468       2.9523       0.5282       3.4805       7.9350       0.0005       0.0000
 5079.0348    5079.0348      58.3132       1.0262    6082.8896       3.4327       0.4547       3.8874       8.2876       0.0004       0.0000
 5079.1872    5079.1872      59.6157       1.0405    6072.9699       3.7597       0.3775       4.1372       8.3911       0.0003       0.0000
 5079.3396    5079.3396      61.5199       1.0422    6087.0278       3.9003       0.3200       4.2204       8.2810       0.0002       0.0000
 5079.4920    5079.4920      63.3656       1.0376    6129.8665       3.8524       0.2902       4.1426       8.1106       0.0002       0.0000
 5079.6444    5079.6444      64.8090       1.0367    6168.0415       3.6143       0.2568       3.8711       7.9716       0.0001       0.0000
 5079.7968    5079.7968      66.2245       1.0361    6165.3970       3.2332       0.2023       3.4355       7.8154       0.0001       0.0000
 5079.9492    5079.9492      67.5764       1.0322    6172.3662       2.8099       0.1600       2.9699       7.5350       0.0000       0.0000
 5080.1016    5080.1016      68.6216       1.0260    6232.8779       2.4122       0.1525       2.5647       7.0919       0.0000       0.0000
 5080.2540    5080.2540      69.3600       1.0215    6285.7637       2.0291       0.1597       2.1888       6.5725       0.0000       0.0000
 5080.4064    5080.4064      69.6597       1.0223    6282.5775       1.6427       0.1551       1.7978       6.1303       0.0000       0.0000
 5080.5588    5080.5588      69.4316       1.0229    6255.8950       1.3165       0.1386       1.4551       5.8806       0.0000       0.0000
 5080.7112    5080.7112      68.9372       1.0148    6242.5871       1.1576       0.1275       1.2852       5.8151       0.0000       0.0000
 5080.8636    5080.8636      68.5890       1.0073    6240.6814       1.1927       0.1392       1.3318       5.7664       0.0000       0.0000
 5081.0160    5081.0160      68.8711       1.0099    6232.2213       1.2978       0.1834       1.4812       5.6247       0.0000       0.0000
 5081.1684    5081.1684      69.5164       1.0150    6202.6037       1.3267       0.2572       1.5839       5.4667       0.0000       0.0000
 5081.3208    5081.3208      69.9658       1.0168    6169.8278       1.2511       0.3317       1.5828       5.4326       0.0000       0.0000
 5081.4732    5081.4732      70.2789       1.0221    6137.7704       1.1428       0.3729       1.5157       5.5037       0.0001       0.0000
 5081.6256    5081.6256      70.7491       1.0267    6099.1329       1.0738       0.3820       1.4558       5.5612       0.0001       0.0000
 5081.7780    5081.7780      71.1998       1.0229    6076.2124       1.0651       0.3992       1.4643       5.5220       0.0001       0.0000
 5081.9304    5081.9304      71.5764       1.0169    6093.6141       1.0667       0.4402       1.5070       5.4210       0.0001       0.0000
 5082.0828    5082.0828      72.0413       1.0173    6132.3873       0.9900       0.4732       1.4632       5.3574       0.0001       0.0000
 5082.2352    5082.2352      72.7356       1.0215    6151.3515       0.8178       0.4520       1.2698       5.4032       0.0001       0.0000
 5082.3876    5082.3876      73.3240       1.0265    6143.1442       0.6033       0.3840       0.9873       5.5133       0.0001       0.0000
 5082.5400    5082.5400      73.7265       1.0284    6142.7051       0.4068       0.3156       0.7223       5.5968       0.0000       0.0000
 5082.6924    5082.6924      74.1266       1.0303    6165.0889       0.3698       0.2718       0.6416       5.7082       0.0000       0.0000
 5082.8448    5082.8448      74.4170       1.0368    6185.0962       0.6436       0.2297       0.8733       5.9575       0.0000       0.0000
 5082.9972    5082.9972      74.1644       1.0472    6194.9042       1.0991       0.1745       1.2736       6.2542       0.0000       0.0000
 5083.1496    5083.1496      73.0688       1.0512    6204.1603       1.4525       0.1247       1.5772       6.4168       0.0000       0.0000
 5083.3020    5083.3020      70.4028       1.0454    6204.8609       1.6568       0.0956       1.7524       6.4375       0.0000       0.0000
 5083.4544    5083.4544      64.8059       1.0373    6195.5199       1.9020       0.0823       1.9843       6.4571       0.0000       0.0000
 5083.6068    5083.6068      57.2494       1.0373    6203.3291       2.2990       0.0873       2.3863       6.5892       0.0000       0.0000
 5083.7592    5083.7592      52.3279       1.0434    6236.3703       2.7299       0.1380       2.8679       6.8266       0.0000       0.0000
 5083.9116    5083.9116      54.8545       1.0447    6260.8702       2.9474       0.2352       3.1825       7.0045       0.0001       0.0000
 5084.0640    5084.0640      63.0683       1.0371    6241.2539       2.7898       0.3299       3.1197       6.9720       0.0001       0.0000
 5084.2164    5084.2164      70.4420       1.0267    6196.4748       2.3976       0.3749       2.7726       6.8318       0.0001       0.0000
 5084.3688    5084.3688      73.4368       1.0179    6170.1841       2.0819       0.3683       2.4502       6.8131       0.0001       0.0000
 5084.5212    5084.5212      74.7269       1.0089    6174.1811       1.9757       0.3341       2.3098       6.9780       0.0001       0.0000
 5084.6736    5084.6736      77.7519       1.0005    6187.6435       1.9474       0.3006       2.2480       7.2196       0.0001       0.0000
 5084.8260    5084.8260      81.6740       0.9954    6188.0122       1.8495       0.2900       2.1395       7.4557       0.0001       0.0000
 5084.9784    5084.9784      83.3703       0.9961    6163.6746       1.6297       0.2887       1.9184       7.5527       0.0000       0.0000
 5085.1308    5085.1309      82.1407       1.0025    6140.0645       1.3112       0.2569       1.5681       7.3750       0.0000       0.0000
 5085.2832    5085.2832      78.7512       1.0065    6149.5479       1.0229       0.1777       1.2006       7.0121       0.0000       0.0000
 5085.4356    5085.4355      73.4767       1.0011    6175.7139       0.9024       0.0861       0.9886       6.7189       0.0000       0.0000
 5085.5880    5085.5880      68.2573       0.9957    6179.6299       0.9738       0.0257       0.9995       6.6330       0.0000       0.0000
 5085.7404    5085.7404      65.4854       0.9976    6175.0902       1.1890       0.0036       1.1927       6.7388       0.0000       0.0000
 5085.8928    5085.8928      64.8146       1.0046    6179.5540       1.5220       0.0004       1.5224       6.9901       0.0000       0.0000
 5086.0452    5086.0452      65.1356       1.0117    6171.6713       1.9024       0.0023       1.9047       7.2688       0.0000       0.0000
 5086.1976    5086.1976      65.9598       1.0165    6139.1241       2.1477       0.0155       2.1632       7.3668       0.0000       0.0000
 5086.3500    5086.3500      66.7698       1.0213    6114.3985       2.1783       0.0457       2.2240       7.2689       0.0000       0.0000
