~VERSION INFORMATION
VERS.           2.0   :CWLS Log ASCII Standard - VERSION 2.0
WRAP.           NO    :One Line per depth step
PROD.  Schlumberger   :LAS Producer
PROG.  DLIS to ASCII 2.3                               :LAS Program name and version
CREA.        2023/07/14 00:15                          :LAS Creation date {YYYY/MM/DD hh:mm}
DLIS_CREA.  2023-Jul-14 00:11                          :DLIS Creation date and time {YYYY-MMM-DD hh:mm}
SOURCE.     LIS_011.dlis                               :DLIS File Name
FILE-ID.     LIS   .004                                :File Identification Number
#--------------------------------------------------
~WELL INFORMATION
#MNEM.UNIT      DATA             DESCRIPTION
#---- ------ --------------   -----------------------------
STRT .M      5300.3196       :START DEPTH     
STOP .M      4931.0544       :STOP DEPTH     
STEP .M        -0.1524       :STEP     
NULL .          -999.25      :NULL VALUE
COMP .        PETROBRAS S.A.                           :COMPANY
WELL .        3-BRSA-293D-SPS                          :WELL
FLD  .        BS-400                                   :FIELD
LOC  .        BASE SAD 69:                             :LOCATION
CNTY .        SANTOS                                   :COUNTY
STAT .        BRASIL                                   :STATE
CTRY .        BRASIL                                   :COUNTRY
API  .                                                 :API NUMBER
UWI  .                                                 :UNIQUE WELL ID
DATE .        15/11/2004                               :LOG DATE
SRVC .        Schlumberger                             :SERVICE COMPANY
LATI .DEG                                              :LATITUDE
LONG .DEG                                              :LONGITUDE
GDAT .                                                 :GeoDetic Datum
#-----------------------------------------------------------------------------
~PARAMETER INFORMATION
#MNEM.UNIT    VALUE                      DESCRIPTION
#---- -----   --------------------       ------------------------
APD  .M               24                 :
BHT  .DEGF           260                 :
BLI  .M             5289                 :
BS   .IN         8.50000                 :
CN   .        PETROBRAS S.A.             :
COUN .        SANTOS                     :
CS   .IN         9.62500                 :
DATE .        15/11/2004                 :
DFD  .LB/G      12.30000                 :
DFL  .C3               2                 :
DFPH .        N/A                        :
DFT  .        SINTETICO                  :
DFV  .S               95                 :
DMF  .        MESA ROTATIVA              :
EDF  .M               24                 :
EGL  .M             -500                 :
EKB  .        N/A                        :
ENGI .        HERNANDEZ / LOCK           :
FL1  .        X   7292392.00 M LAT 24 28 47.189 S :
FL2  .        Y    584087.00 M LON 44 10 12.698 W :
FL3  .        MC  45 GRAUS               :
FN   .        BS-400                     :
LMF  .        MESA ROTATIVA              :
LUL  .        MACAE                      :
MCSS .        PRENSA                     :
MCST .DEGF            80                 :
MFSS .        PRENSA                     :
MFST .DEGF            80                 :
MSS  .        LINHA DE FLUXO             :
MST  .DEGF            80                 :
PDAT .        NIVEL DO MAR               :
R1   .        01. APRESENTAÇÃO DE ACORDO COM REQUERIMENTO DO CLIENTE :
R2   .        02. TEMPERATURA MÁXIMA DO POÇO T1=T2= 290 DEGF @  5275 M :
R3   .        03. INICIO DA CIRCULAÇÃO  12/11/2004 09 00 H :
R4   .        04. FINAL DA CIRCULAÇÃO   12/11/2004 18 00 H :
R5   .        05. TEMPO TOTAL DE CIRCULAÇÃO   09 00 H :
R6   .        06. FLUIDO DE PERFURAÇÃO  SINTETICO (BR-MUL  BR-MI)  60% TEOR DO OLEO :
R7   .        07. SALINIDADE DA LAMA  254762 PPM NACL NA FASE DE AGUA :
R8   .        08. INCLINAÇÃO MÁXIMA DO POÇO  37.37 GRAUS @ 5100 M :
R9   .        09. PRIMEIRAS E ULTIMAS LEITURAS  :
RMB  .OHMM    > 10                       :
RMCS .OHMM    > 10                       :
RMFS .OHMM    > 10                       :
RMS  .OHMM    >10                        :
RUN  .                 2                 :
STAT .        BRASIL                     :
TCS  .        18 00 H                    :
TDD  .M             5288                 :
TDL  .M             5293                 :
TLAB .        N/A                        :
TLI  .M             5000                 :
WITN .        ERNANI / ZE MARIA          :
WN   .        3-BRSA-293D-SPS            :
LUN  .              8808                 :
HIDE .        3-SPS-41D                  :
HID2 .        HIGH DEFINITION INDUCTION LOG :
HID3 .        X-MULTIPOLE ARRAY ACOUSTILOG :
HID4 .        GAMMA RAY LOG              :
HID5 .        TTRM SUB                   :
CLAB .        BACIA                      :
SLAB .        PAIS                       :
CMT1 .        ESC  1 200                 :
CMT2 .        PROF. MEDIDA               :
CMT4 .        SONDA  SS-43               :
HDAT .        SAD 69                     :
FL   .        BASE SAD 69                :
OS1  .        RCI/GR                     :
OS2  .        CHECK SHOT                 :
OS3  .        GR/CN/ZDL                  :
OS5  .        RCOR/GR                    :
LNAM .        ZDL/CN/XMAC/HDIL/EARTH IMAGER/RCI/RCOR/CHECK SHOT/GR :
TOOL .        ZDL/CN/XMAC/HDIL/EARTH IMAGER/RCI/RCOR/CHECK SHOT/GR :
LSOU .        PETROBRAS                  :
LSRV .        OH WIRELINE                :
LTYP .        RAW                        :
EPD  .M                0                 :
LDAT .        15/11/2004                 :
TRIP .                 3                 :
SON  .            786588                 :
CBDR .M             4277                 :
CBLO .        NR                         :
CBL1 .        NR                         :
STEM .DEGF    N/A                        :
BSAL .            254762                 :
BARI .        OFF                        :
DLAB .        12/11/2004                 :
MRT  .DEGF           290                 :
TSTR .        HDIL/XMAC/GR/TTRM          :
TSTG .        N/A                        :
STUS .        FINAL                      :
LCNM .        BAKER ATLAS                :
LCC  .               150                 :
NATI .        BRASIL                     :
OPMD .        OH.WIRELINE                :
PANA .        HERNANDEZ / LOCK           :
PCON .        BAKER ATLAS                :
R11  .        SL     5268.3 M / 5000.0 M :
R12  .        GR     5268.3 M / 5000.0 M :
R13  .        XMAC   5279.5 M / 5000.0 M :
R14  .        HDIL   5289.0 M / 5000.0 M :
R17  .        11. DECLINAÇÃO MAGNETICA  -20.9 GRAUS :
R18  .        12. COORDENADAS BASE       :
R21  .        Y    583936.00 M           :
R22  .        MC  45 GRAUS               :
PVER .           4.10000                 :
WDFN .        /space/expusr/3-SPS-41D_RUN2/i77bf02_4spf.xtf :
OCT  .        i77bf                      :
OS4  .        EARTH IMAGER               :
R16  .        10. PONTO FRACO UTILIZADO  10K :
R20  .        X   7292512.00 M           :
R24  .        13. CADASTRO ANP  86316021017 :
#-----------------------------------------------------------------------------
~CURVE INFORMATION
#MNEM.UNIT   API CODE                                  DESCRIPTION
#---- -----  --------                                  -----------------------
DEPT .M                                                :DEPTH (BOREHOLE) {F10.4}
DEPT .M                                                : {F13.4}
BIT  .IN                                               : {F13.4}
GR   .GAPI                                             : {F13.4}
M2R1 .OHMM                                             : {F13.4}
M2R2 .OHMM                                             : {F13.4}
M2R3 .OHMM                                             : {F13.4}
M2R6 .OHMM                                             : {F13.4}
M2R9 .OHMM                                             : {F13.4}
M2RX .OHMM                                             : {F13.4}
SPD  .M/MN                                             : {F13.4}
TEN  .LBF                                              : {F13.4}
TTEN .LBF                                              : {F13.4}
#-----------------------------------------------------------------------------
# 
#     DEPT        DEPT         BIT          GR           M2R1         M2R2         M2R3         M2R6         M2R9         M2RX         SPD          TEN          TTEN
#
~A  
# ...
 5227.1676    5227.1676       8.5000      88.1692       3.5267       4.7438       5.6572       6.3826       6.6054       6.9793       4.8458    -261.1122    7823.6645
 5227.0152    5227.0152       8.5000      90.1119       3.5069       4.7334       5.6670       6.4017       6.6349       7.0145       4.8576    -226.5117    7853.9418
 5226.8628    5226.8628       8.5000      88.5239       3.4963       4.7358       5.6907       6.4318       6.6739       7.0511       4.8678    -189.0287    7887.8396
 5226.7104    5226.7104       8.5000      88.0011       3.4928       4.7495       5.7263       6.4665       6.7124       7.0754       4.8684    -138.3362    7935.6475
 5226.5580    5226.5580       8.5000      92.7666       3.4828       4.7568       5.7513       6.4751       6.7144       7.0470       4.8621     -80.8197    7991.2513
 5226.4056    5226.4056       8.5000      98.4516       3.4581       4.7446       5.7459       6.4280       6.6449       6.9283       4.8561     -23.3017    8047.9430
 5226.2532    5226.2532       8.5000     100.3576       3.4305       4.7274       5.7196       6.3292       6.5054       6.7223       4.8498      35.1965    8106.6786
 5226.1008    5226.1008       8.5000     100.1565       3.4185       4.7298       5.6840       6.1907       6.3084       6.4457       4.8390      92.7735    8165.6244
 5225.9484    5225.9484       8.5000      99.0329       3.4348       4.7654       5.6473       6.0106       6.0553       6.1052       4.8330     116.7250    8191.7797
 5225.7960    5225.7960       8.5000      97.0814       3.4925       4.8347       5.5879       5.7774       5.7414       5.7051       4.8399      39.8246    8116.5242
 5225.6436    5225.6436       8.5000      94.7579       3.6010       4.9117       5.4729       5.4727       5.3636       5.2574       4.8573    -151.6349    7924.0908
 5225.4912    5225.4912       8.5000      92.6452       3.7236       4.8952       5.2193       5.0488       4.8853       4.7342       4.8739    -358.2143    7712.9307
 5225.3388    5225.3388       8.5000      90.5707       3.7843       4.6928       4.7772       4.4930       4.3094       4.1352       4.8797    -475.4253    7588.2326
 5225.1864    5225.1864       8.5000      88.5000       3.8933       4.5003       4.4104       4.0578       3.8636       3.6913       4.8695    -490.9220    7563.7940
 5225.0340    5225.0340       8.5000      87.5031       4.4250       4.7734       4.5567       4.1333       3.9195       3.7080       4.8571    -459.8323    7585.8953
 5224.8816    5224.8816       8.5000      85.5585       5.9193       6.0141       5.6478       4.9744       4.6443       4.3103       4.8536    -441.3501    7596.0882
 5224.7292    5224.7292       8.5000      78.9980       9.1266       8.9151       8.2177       6.8746       6.2554       5.6138       4.8569    -452.9984    7576.3909
 5224.5768    5224.5768       8.5000      69.9914      13.3763      13.1254      12.0642       9.5611       8.4523       7.2676       4.8571    -456.6309    7564.4984
 5224.4244    5224.4244       8.5000      64.9113      13.8022      14.6594      14.2306      11.3985       9.9820       8.3353       4.8556    -429.1847    7584.0410
 5224.2720    5224.2720       8.5000      64.6675      10.7456      12.6730      12.9165      11.1260       9.9749       8.3390       4.8609    -389.2966    7616.9543
 5224.1196    5224.1196       8.5000      66.3962       8.9790      11.3424      12.1423      11.0237      10.0485       8.4281       4.8724    -360.6432    7639.2544
 5223.9672    5223.9672       8.5000      70.3876       8.3111      10.8442      12.2007      11.6507      10.8946       9.1168       4.8734    -349.7797    7643.6644
 5223.8148    5223.8148       8.5000      75.9825       8.0709      10.5512      12.2979      12.3297      11.7924      10.0042       4.8621    -349.3632    7637.4120
 5223.6624    5223.6624       8.5000      81.6079       8.0701      10.2835      12.2473      12.7536      12.5227      10.8752       4.8549    -346.9112    7633.2709
 5223.5100    5223.5100       8.5000      86.4599       8.1972      10.0209      11.9872      12.8949      12.9064      11.5854       4.8540    -343.3039    7630.5492
 5223.3576    5223.3576       8.5000      90.0581       8.2970       9.6840      11.5394      12.7191      12.9221      12.0239       4.8538    -343.5467    7624.0946
 5223.2052    5223.2052       8.5000      91.3433       8.1904       9.2240      10.8819      12.3012      12.6562      12.2354       4.8557    -346.4355    7614.9695
 5223.0528    5223.0528       8.5000      89.9461       7.8523       8.7485      10.2782      11.9150      12.3916      12.4314       4.8602    -348.6028    7606.4828
 5222.9004    5222.9004       8.5000      85.3893       7.6048       8.6486      10.2424      12.1941      12.8056      13.2680       4.8619    -344.4461    7604.2246
 5222.7480    5222.7480       8.5000      78.2483       7.4720       8.8931      10.7737      13.1969      13.9902      14.9368       4.8357    -334.5302    7607.7754
 5222.5956    5222.5956       8.5000      71.6982       7.0953       8.9508      11.2300      14.1617      15.1561      16.6014       4.7730    -329.1793    7606.8430
 5222.4432    5222.4432       8.5000      68.1038       6.6089       8.8864      11.6062      15.0331      16.2350      18.1263       4.7115    -335.8735    7593.8430
 5222.2908    5222.2908       8.5000      66.7308       6.4898       9.2976      12.5657      16.6138      18.0845      20.4373       4.6998    -335.3091    7588.1508
 5222.1384    5222.1384       8.5000      65.7039       6.4544       9.6405      13.2403      17.6843      19.3482      21.9653       4.7316    -314.0968    7603.5207
 5221.9860    5221.9860       8.5000      64.9775       5.6978       8.5536      11.7160      15.6447      17.1546      19.4532       4.7642    -299.8628    7612.3240
 5221.8336    5221.8336       8.5000      64.7735       4.7354       6.9613       9.3781      12.3811      13.5574      15.2865       4.7871    -308.0003    7598.7421
 5221.6812    5221.6812       8.5000      64.7047       4.2486       6.1455       8.1043      10.4794      11.4197      12.7669       4.8144    -313.3143    7587.7973
 5221.5288    5221.5288       8.5000      64.3109       4.1168       5.9971       7.7507       9.7643      10.5633      11.6954       4.8428    -303.6529    7591.9242
 5221.3764    5221.3764       8.5000      64.0793       4.0824       6.1369       7.7861       9.5336      10.2182      11.2001       4.8536    -291.2744    7598.9450
 5221.2240    5221.2240       8.5000      65.2705       3.9193       6.1150       7.6166       9.0724       9.6242      10.4468       4.8495    -279.1528    7605.9043
 5221.0716    5221.0716       8.5000      68.1163       3.5288       5.5919       6.8322       7.9393       8.3331       8.9628       4.8401    -274.4173    7605.6082
 5220.9192    5220.9192       8.5000      71.1536       3.1569       4.8965       5.8731       6.6871       6.9476       7.4088       4.8304    -293.1701    7581.6838
 5220.7668    5220.7668       8.5000      72.3524       3.1009       4.5887       5.4214       6.0756       6.2537       6.6148       4.8280    -316.5451    7552.7687
 5220.6144    5220.6144       8.5000      71.8700       3.3896       4.7633       5.5710       6.1715       6.3017       6.6134       4.8304    -311.5824    7552.1179
 5220.4620    5220.4620       8.5000      71.9338       3.8533       5.2148       6.0737       6.6792       6.7780       7.0595       4.8357    -287.6581    7570.7811
 5220.3096    5220.3096       8.5000      73.1862       4.2626       5.6669       6.6017       7.2295       7.3055       7.5533       4.8462    -272.9088    7580.5947
 5220.1572    5220.1572       8.5000      73.8840       4.4957       5.9633       6.9641       7.6101       7.6721       7.8769       4.8516    -265.5143    7583.1602
 5220.0048    5220.0048       8.5000      73.1362       4.4758       5.9627       6.9828       7.6219       7.6786       7.8329       4.8450    -251.9190    7592.0888
