~VERSION INFORMATION
VERS.           2.0   :CWLS Log ASCII Standard - VERSION 2.0
WRAP.           YES   :Multiple lines per depth step
PROD.  Schlumberger   :LAS Producer
PROG.  DLIS to ASCII 2.3                               :LAS Program name and version
CREA.        2023/07/14 00:15                          :LAS Creation date {YYYY/MM/DD hh:mm}
DLIS_CREA.  2023-Jul-14 00:11                          :DLIS Creation date and time {YYYY-MMM-DD hh:mm}
SOURCE.     LIS_013.dlis                               :DLIS File Name
FILE-ID.     LIS   .002                                :File Identification Number
#--------------------------------------------------
~WELL INFORMATION
#MNEM.UNIT      DATA             DESCRIPTION
#---- ------ --------------   -----------------------------
STRT .M      5299.5576       :START DEPTH     
STOP .M      4241.4444       :STOP DEPTH     
STEP .M        -0.1524       :STEP     
NULL .          -999.25      :NULL VALUE
COMP .        PETROBRAS S.A.                           :COMPANY
WELL .        3-BRSA-293D-SPS                          :WELL
FLD  .        BS-400                                   :FIELD
LOC  .        BASE SAD 69:                             :LOCATION
CNTY .        SANTOS                                   :COUNTY
STAT .        BRASIL                                   :STATE
CTRY .        BRASIL                                   :COUNTRY
API  .                                                 :API NUMBER
UWI  .                                                 :UNIQUE WELL ID
DATE .        15/11/2004                               :LOG DATE
SRVC .        Schlumberger                             :SERVICE COMPANY
LATI .DEG                                              :LATITUDE
LONG .DEG                                              :LONGITUDE
GDAT .                                                 :GeoDetic Datum
#-----------------------------------------------------------------------------
~PARAMETER INFORMATION
#MNEM.UNIT    VALUE                      DESCRIPTION
#---- -----   --------------------       ------------------------
APD  .M               24                 :
BHT  .DEGF           260                 :
BLI  .M             5289                 :
BS   .IN         8.50000                 :
CN   .        PETROBRAS S.A.             :
COUN .        SANTOS                     :
CS   .IN         9.62500                 :
DATE .        15/11/2004                 :
DFD  .LB/G      12.30000                 :
DFL  .C3               2                 :
DFPH .        N/A                        :
DFT  .        SINTETICO                  :
DFV  .S               95                 :
DMF  .        MESA ROTATIVA              :
EDF  .M               24                 :
EGL  .M             -500                 :
EKB  .        N/A                        :
ENGI .        HERNANDEZ / LOCK           :
FL1  .        X   7292392.00 M LAT 24 28 47.189 S :
FL2  .        Y    584087.00 M LON 44 10 12.698 W :
FL3  .        MC  45 GRAUS               :
FN   .        BS-400                     :
LMF  .        MESA ROTATIVA              :
LUL  .        MACAE                      :
MCSS .        PRENSA                     :
MCST .DEGF            80                 :
MFSS .        PRENSA                     :
MFST .DEGF            80                 :
MSS  .        LINHA DE FLUXO             :
MST  .DEGF            80                 :
PDAT .        NIVEL DO MAR               :
R1   .        01. APRESENTAÇÃO DE ACORDO COM REQUERIMENTO DO CLIENTE :
R2   .        02. TEMPERATURA MÁXIMA DO POÇO T1=T2= 292 DEGF @  5277 M :
R3   .        03. INICIO DA CIRCULAÇÃO  12/11/2004 09 00 H :
R4   .        04. FINAL DA CIRCULAÇÃO   12/11/2004 18 00 H :
R5   .        05. TEMPO TOTAL DE CIRCULAÇÃO   09 00 H :
R6   .        06. FLUIDO DE PERFURAÇÃO  SINTETICO (BR-MUL  BR-MI)  60% TEOR DO OLEO :
R7   .        07. SALINIDADE DA LAMA  254762 PPM NACL NA FASE DE AGUA :
R8   .        08. INCLINAÇÃO MÁXIMA DO POÇO  37.37 GRAUS @ 5100 M :
R9   .        09. PRIMEIRAS E ULTIMAS LEITURAS  :
RMB  .OHMM    > 10                       :
RMCS .OHMM    > 10                       :
RMFS .OHMM    > 10                       :
RMS  .OHMM    >10                        :
RUN  .                 2                 :
STAT .        BRASIL                     :
TCS  .        18 00 H                    :
TDD  .M             5288                 :
TDL  .M             5293                 :
TLAB .        N/A                        :
TLI  .M             4277                 :
WITN .        ERNANI / ZE MARIA          :
WN   .        3-BRSA-293D-SPS            :
LUN  .              8808                 :
HIDE .        3-SPS-41D                  :
HID2 .        COMPENSATED Z-DENSILOG     :
HID3 .        COMPENSATED NEUTRON LOG    :
HID4 .        GAMMA RAY LOG              :
HID5 .        TTRM SUB                   :
CLAB .        BACIA                      :
SLAB .        PAIS                       :
CMT1 .        ESC  1 1000                :
CMT2 .        PROF. MEDIDA               :
CMT4 .        SONDA  SS-43               :
HDAT .        SAD 69                     :
FL   .        BASE SAD 69                :
OS1  .        RCI/GR                     :
OS2  .        CHECK SHOT                 :
OS3  .        GR/XMAC/HDIL               :
OS5  .        RCOR/GR                    :
LNAM .        ZDL/CN/XMAC/HDIL/EARTH IMAGER/RCI/RCOR/CHECK SHOT/GR :
TOOL .        ZDL/CN/XMAC/HDIL/EARTH IMAGER/RCI/RCOR/CHECK SHOT/GR :
LSOU .        PETROBRAS                  :
LSRV .        OH WIRELINE                :
LTYP .        RAW                        :
EPD  .M                0                 :
LDAT .        15/11/2004                 :
TRIP .                 4                 :
SON  .            786588                 :
CBDR .M             4277                 :
CBLO .        NR                         :
CBL1 .        NR                         :
STEM .DEGF    N/A                        :
BSAL .            254762                 :
BARI .        OFF                        :
DLAB .        12/11/2004                 :
MRT  .DEGF           292                 :
TSTR .        ZDL/CN/GR/TTRM             :
TSTG .        N/A                        :
STUS .        FINAL                      :
LCNM .        BAKER ATLAS                :
LCC  .               150                 :
NATI .        BRASIL                     :
OPMD .        OH.WIRELINE                :
PANA .        HERNANDEZ / LOCK           :
PCON .        BAKER ATLAS                :
R11  .        GR     5268.3 M / 4277.0 M :
R12  .        CN     5286.5 M / 5128.0 M (FERRAMENTA PERDEU LEITURA ACIMA DE 5128M) :
R13  .        ZDL    5292.0 M / 4277.0 M :
R15  .        10. PONTO FRACO UTILIZADO  10K :
R17  .        12. COORDENADAS BASE       :
R19  .        X   7292512.00 M           :
R21  .        MC  45 GRAUS               :
R23  .        13. CADASTRO ANP  86316021017 :
PVER .           4.10000                 :
WDFN .        /space/expusr/3-SPS-41D_RUN2/i77bf04_8spf.xtf :
OCT  .        i77bf                      :
OS4  .        EARTH IMAGER               :
R16  .        11. DECLINAÇÃO MAGNETICA  -20.9 GRAUS :
R20  .        Y    583936.00 M           :
#-----------------------------------------------------------------------------
~CURVE INFORMATION
#MNEM.UNIT   API CODE                                  DESCRIPTION
#---- -----  --------                                  -----------------------
DEPT .M                                                :DEPTH (BOREHOLE) {F10.4}
DEPT .M                                                : {F13.4}
BIT  .IN                                               : {F13.4}
DEPM .M                                                : {F13.4}
GR   .GAPI                                             : {F13.4}
SPD  .M/MN                                             : {F13.4}
TTEN .LBF                                              : {F13.4}
CAL  .IN                                               : {F13.4}
CALX .IN                                               : {F13.4}
HRD1 .HZ                                               : {F13.4}
HRD2 .HZ                                               : {F13.4}
PE   .B/E                                              : {F13.4}
SFT2 .HZ                                               : {F13.4}
SOFT .HZ                                               : {F13.4}
SSD  .HZ                                               : {F13.4}
ZCOR .G/C3                                             : {F13.4}
ZDEN .G/C3                                             : {F13.4}
CNC  .PU                                               : {F13.4}
CN   .PU                                               : {F13.4}
LSN  .HZ                                               : {F13.4}
SSN  .HZ                                               : {F13.4}
CNCF .PU                                               : {F13.4}
MMRK .MN                                               : {F13.4}
#-----------------------------------------------------------------------------
# DEPT       
#     DEPT         BIT          DEPM         GR           SPD          TTEN         
#     CAL          CALX         HRD1         HRD2         PE           SFT2         
#     SOFT         SSD          ZCOR         ZDEN         CNC          CN           
#     LSN          SSN          CNCF         MMRK         
~A  
# ...
4821.6312
   4821.6312       8.5000    4821.1166      83.7586       7.3550    7031.9399
      8.9636       8.9636     590.6206     794.9514       5.9374     468.7306
    315.8114    6622.5792      -0.0316       2.5901       0.0000      16.7360
   1530.5992    3538.2988      16.2447       0.0000
4821.4788
   4821.4788       8.5000    4820.9651      87.5003       7.3608    7036.0225
      8.9684       8.9684     589.2757     785.4120       5.5919     472.9640
    327.7195    6646.0594      -0.0262       2.5930       0.0000      17.0972
   1487.1691    3476.6625      16.5965       0.0000
4821.3264
   4821.3264       8.5000    4820.8137      89.9951       7.3827    7020.3583
      8.9747       8.9747     584.8541     767.1222       5.0749     473.5960
    344.1067    6642.8174      -0.0222       2.5990       0.0000      17.3121
   1448.7325    3409.1976      16.8034       0.0000
4821.1740
   4821.1740       8.5000    4820.6613      91.4574       7.3998    7009.0149
      8.9731       8.9731     583.5852     758.3435       4.9635     467.6705
    344.8021    6617.6504      -0.0237       2.6027       0.0000      17.4816
   1428.9386    3379.9494      16.9711       0.0000
4821.0216
   4821.0216       8.5000    4820.5099      92.4136       7.4000    7015.2444
      8.9647       8.9647     584.1165     765.3009       5.3007     461.8627
    331.5029    6618.4054      -0.0251       2.6015       0.0000      17.6240
   1436.9695    3413.5515      17.1170       0.0000
4820.8692
   4820.8691       8.5000    4820.3584      92.3671       7.3875    7028.9277
      8.9589       8.9589     586.6593     776.0867       5.7333     463.8434
    318.4763    6638.3066      -0.0249       2.5976       0.0000      17.3793
   1480.4487    3490.8550      16.8803       0.0000
4820.7168
   4820.7168       8.5000    4820.2061      91.7928       7.3715    7044.8896
      8.9579       8.9579     596.3108     780.8142       5.9304     462.5226
    312.2402    6636.3477      -0.0280       2.5936       0.0000      16.7738
   1541.1895    3566.8970      16.2857       0.6944
4820.5644
   4820.5645       8.5000    4820.0547      91.3651       7.3619    7073.0664
      8.9588       8.9588     605.9502     774.7650       5.8002     455.4146
    312.9487    6623.5498      -0.0305       2.5923       0.0000      16.4292
   1582.4775    3623.0142      15.9465       0.0000
4820.4120
   4820.4120       8.5000    4819.9022      90.5490       7.3577    7117.0235
      8.9609       8.9609     609.1015     766.5713       5.6753     453.7752
    317.7290    6638.9713      -0.0274       2.5931       0.0000      16.4083
   1601.0460    3663.1030      15.9246       0.0000
4820.2596
   4820.2596       8.5000    4819.7508      89.5462       7.3536    7167.1960
      8.9620       8.9620     608.7447     769.2949       5.6091     461.1711
    322.0429    6683.7598      -0.0217       2.5927       0.0000      16.1080
   1623.4132    3678.6037      15.6289       0.0000
4820.1072
   4820.1072       8.5000    4819.5994      88.8395       7.3514    7211.9330
      8.9614       8.9614     599.4040     781.7780       5.5636     470.5099
    326.7858    6726.7865      -0.0164       2.5918       0.0000      15.6631
   1638.8288    3659.9624      15.1924       0.0000
4819.9548
   4819.9548       8.5000    4819.4489      88.7975       7.3571    7253.8168
      8.9612       8.9612     584.0694     790.6295       5.4959     477.9201
    334.9281    6738.2701      -0.0135       2.5923       0.0000      15.5726
   1625.5128    3619.3528      15.1036       0.0000
4819.8024
   4819.8024       8.5000    4819.2965      89.8468       7.3776    7288.2577
      8.9612       8.9612     580.2651     792.5827       5.4501     484.4331
    341.3963    6722.0066      -0.0154       2.5916       0.0000      15.9133
   1587.6413    3574.8241      15.4382       0.0000
4819.6500
   4819.6500       8.5000    4819.1451      90.8824       7.4154    7272.3709
      8.9597       8.9597     590.9493     794.2044       5.4302     488.3422
    343.1392    6696.8302      -0.0212       2.5881       0.0000      16.4073
   1546.0706    3537.1231      15.9245       0.0000
4819.4976
   4819.4976       8.5000    4818.9927      90.6599       7.4499    7182.9310
      8.9590       8.9590     598.9476     801.8446       5.4072     486.7257
    341.7619    6664.7847      -0.0287       2.5840       0.0000      16.8027
   1512.6494    3504.1108      16.3134       0.0000
4819.3452
   4819.3452       8.5000    4818.8413      90.2547       7.4544    7078.1060
      8.9615       8.9615     599.6012     808.5005       5.4344     477.6082
    339.3397    6646.4905      -0.0326       2.5822       0.0000      17.1179
   1482.6570    3468.3309      16.6216       0.0000
4819.1928
   4819.1928       8.5000    4818.6899      90.7660       7.4370    7028.0767
      8.9640       8.9640     599.9375     805.5001       5.3934     469.0895
    341.7817    6669.0988      -0.0290       2.5829       0.0000      17.5591
   1450.3759    3438.5937      17.0536       0.0000
4819.0404
   4819.0404       8.5000    4818.5375      90.8769       7.4172    7035.5545
      8.9644       8.9644     598.2596     804.1018       5.1890     471.7482
    353.6588    6691.4662      -0.0253       2.5832       0.0000      17.7963
   1440.1648    3438.7645      17.2866       0.0000
4818.8880
   4818.8880       8.5000    4818.3860      88.5176       7.3995    7071.0649
      8.9642       8.9642     594.6687     814.1394       5.0732     480.5484
    364.3702    6658.3438      -0.0311       2.5810       0.0000      17.1574
   1489.7460    3488.7710      16.6586       0.0000
4818.7356
   4818.7356       8.5000    4818.2346      84.2188       7.3868    7106.6026
      8.9638       8.9638     596.6637     822.0486       5.0567     484.8865
    366.0403    6613.0852      -0.0393       2.5780       0.0000      15.9525
   1597.9594    3601.8985      15.4750       0.0000
4818.5832
   4818.5832       8.5000    4818.0822      80.2508       7.3938    7108.5217
      8.9620       8.9620     603.0451     812.5779       5.0444     484.7350
    362.7276    6622.8904      -0.0373       2.5781       0.0000      14.8076
   1728.6734    3749.9790      14.3522       0.0000
4818.4308
   4818.4308       8.5000    4817.9308      78.3949       7.4194    7073.1450
      8.9603       8.9603     603.1221     793.0772       5.0397     481.8383
    357.8423    6651.8093      -0.0296       2.5825       0.0000      14.2025
   1803.6624    3831.0680      13.7597       0.0000
4818.2784
   4818.2784       8.5000    4817.7784      79.6633       7.4387    7038.9661
      8.9595       8.9595     600.1358     778.1516       5.0387     474.1701
    351.2665    6668.4893      -0.0238       2.5873       0.0000      14.5357
   1751.2495    3763.2831      14.0870       0.0000
4818.1260
   4818.1260       8.5000    4817.6270      83.9749       7.4349    7029.7012
      8.9593       8.9593     604.5417     773.0443       5.0478     471.0585
    346.9459    6688.2998      -0.0209       2.5884       0.0000      15.9713
   1596.3572    3599.6631      15.4965       0.0000
4817.9736
   4817.9736       8.5000    4817.4756      89.3705       7.4174    7028.0762
      8.9597       8.9597     614.1038     776.9557       5.0712     481.7891
    345.2806    6702.5537      -0.0216       2.5859       0.0000      17.7747
   1450.9475    3461.3496      17.2687       0.0000
4817.8212
   4817.8212       8.5000    4817.3232      92.9291       7.3987    7023.8465
      8.9608       8.9608     614.9686     783.6304       5.1082     495.4289
    346.7988    6674.0048      -0.0270       2.5842       0.0000      18.7940
   1382.2187    3397.2564      18.2710       0.0000
4817.6688
   4817.6688       8.5000    4817.1717      93.4579       7.3857    7028.1702
      8.9606       8.9606     604.6396     788.6709       5.1478     498.0707
    349.1284    6621.4744      -0.0333       2.5852       0.0000      18.9352
   1369.6387    3379.8573      18.4102       0.0000
4817.5164
   4817.5164       8.5000    4817.0203      91.8489       7.3840    7035.1240
      8.9596       8.9596     598.8014     791.4570       5.2175     494.7524
    347.0410    6610.8152      -0.0341       2.5861       0.0000      18.8957
   1370.0112    3377.0171      18.3720       0.0000
