~VERSION INFORMATION
VERS.           2.0   :CWLS Log ASCII Standard - VERSION 2.0
WRAP.           NO    :One Line per depth step
PROD.  Schlumberger   :LAS Producer
PROG.  DLIS to ASCII 2.3                               :LAS Program name and version
CREA.        2023/07/14 00:15                          :LAS Creation date {YYYY/MM/DD hh:mm}
DLIS_CREA.  2023-Jul-14 00:11                          :DLIS Creation date and time {YYYY-MMM-DD hh:mm}
SOURCE.     LIS_011.dlis                               :DLIS File Name
FILE-ID.     LIS   .004                                :File Identification Number
#--------------------------------------------------
~WELL INFORMATION
#MNEM.UNIT      DATA             DESCRIPTION
#---- ------ --------------   -----------------------------
STRT .M      5300.3196       :START DEPTH     
STOP .M      4931.0544       :STOP DEPTH     
STEP .M        -0.1524       :STEP     
NULL .          -999.25      :NULL VALUE
COMP .        PETROBRAS S.A.                           :COMPANY
WELL .        3-BRSA-293D-SPS                          :WELL
FLD  .        BS-400                                   :FIELD
LOC  .        BASE SAD 69:                             :LOCATION
CNTY .        SANTOS                                   :COUNTY
STAT .        BRASIL                                   :STATE
CTRY .        BRASIL                                   :COUNTRY
API  .                                                 :API NUMBER
UWI  .                                                 :UNIQUE WELL ID
DATE .        15/11/2004                               :LOG DATE
SRVC .        Schlumberger                             :SERVICE COMPANY
LATI .DEG                                              :LATITUDE
LONG .DEG                                              :LONGITUDE
GDAT .                                                 :GeoDetic Datum
#-----------------------------------------------------------------------------
~PARAMETER INFORMATION
#MNEM.UNIT    VALUE                      DESCRIPTION
#---- -----   --------------------       ------------------------
APD  .M               24                 :
BHT  .DEGF           260                 :
BLI  .M             5289                 :
BS   .IN         8.50000                 :
CN   .        PETROBRAS S.A.             :
COUN .        SANTOS                     :
CS   .IN         9.62500                 :
DATE .        15/11/2004                 :
DFD  .LB/G      12.30000                 :
DFL  .C3               2                 :
DFPH .        N/A                        :
DFT  .        SINTETICO                  :
DFV  .S               95                 :
DMF  .        MESA ROTATIVA              :
EDF  .M               24                 :
EGL  .M             -500                 :
EKB  .        N/A                        :
ENGI .        HERNANDEZ / LOCK           :
FL1  .        X   7292392.00 M LAT 24 28 47.189 S :
FL2  .        Y    584087.00 M LON 44 10 12.698 W :
FL3  .        MC  45 GRAUS               :
FN   .        BS-400                     :
LMF  .        MESA ROTATIVA              :
LUL  .        MACAE                      :
MCSS .        PRENSA                     :
MCST .DEGF            80                 :
MFSS .        PRENSA                     :
MFST .DEGF            80                 :
MSS  .        LINHA DE FLUXO             :
MST  .DEGF            80                 :
PDAT .        NIVEL DO MAR               :
R1   .        01. APRESENTAÇÃO DE ACORDO COM REQUERIMENTO DO CLIENTE :
R2   .        02. TEMPERATURA MÁXIMA DO POÇO T1=T2= 290 DEGF @  5275 M :
R3   .        03. INICIO DA CIRCULAÇÃO  12/11/2004 09 00 H :
R4   .        04. FINAL DA CIRCULAÇÃO   12/11/2004 18 00 H :
R5   .        05. TEMPO TOTAL DE CIRCULAÇÃO   09 00 H :
R6   .        06. FLUIDO DE PERFURAÇÃO  SINTETICO (BR-MUL  BR-MI)  60% TEOR DO OLEO :
R7   .        07. SALINIDADE DA LAMA  254762 PPM NACL NA FASE DE AGUA :
R8   .        08. INCLINAÇÃO MÁXIMA DO POÇO  37.37 GRAUS @ 5100 M :
R9   .        09. PRIMEIRAS E ULTIMAS LEITURAS  :
RMB  .OHMM    > 10                       :
RMCS .OHMM    > 10                       :
RMFS .OHMM    > 10                       :
RMS  .OHMM    >10                        :
RUN  .                 2                 :
STAT .        BRASIL                     :
TCS  .        18 00 H                    :
TDD  .M             5288                 :
TDL  .M             5293                 :
TLAB .        N/A                        :
TLI  .M             5000                 :
WITN .        ERNANI / ZE MARIA          :
WN   .        3-BRSA-293D-SPS            :
LUN  .              8808                 :
HIDE .        3-SPS-41D                  :
HID2 .        HIGH DEFINITION INDUCTION LOG :
HID3 .        X-MULTIPOLE ARRAY ACOUSTILOG :
HID4 .        GAMMA RAY LOG              :
HID5 .        TTRM SUB                   :
CLAB .        BACIA                      :
SLAB .        PAIS                       :
CMT1 .        ESC  1 200                 :
CMT2 .        PROF. MEDIDA               :
CMT4 .        SONDA  SS-43               :
HDAT .        SAD 69                     :
FL   .        BASE SAD 69                :
OS1  .        RCI/GR                     :
OS2  .        CHECK SHOT                 :
OS3  .        GR/CN/ZDL                  :
OS5  .        RCOR/GR                    :
LNAM .        ZDL/CN/XMAC/HDIL/EARTH IMAGER/RCI/RCOR/CHECK SHOT/GR :
TOOL .        ZDL/CN/XMAC/HDIL/EARTH IMAGER/RCI/RCOR/CHECK SHOT/GR :
LSOU .        PETROBRAS                  :
LSRV .        OH WIRELINE                :
LTYP .        RAW                        :
EPD  .M                0                 :
LDAT .        15/11/2004                 :
TRIP .                 3                 :
SON  .            786588                 :
CBDR .M             4277                 :
CBLO .        NR                         :
CBL1 .        NR                         :
STEM .DEGF    N/A                        :
BSAL .            254762                 :
BARI .        OFF                        :
DLAB .        12/11/2004                 :
MRT  .DEGF           290                 :
TSTR .        HDIL/XMAC/GR/TTRM          :
TSTG .        N/A                        :
STUS .        FINAL                      :
LCNM .        BAKER ATLAS                :
LCC  .               150                 :
NATI .        BRASIL                     :
OPMD .        OH.WIRELINE                :
PANA .        HERNANDEZ / LOCK           :
PCON .        BAKER ATLAS                :
R11  .        SL     5268.3 M / 5000.0 M :
R12  .        GR     5268.3 M / 5000.0 M :
R13  .        XMAC   5279.5 M / 5000.0 M :
R14  .        HDIL   5289.0 M / 5000.0 M :
R17  .        11. DECLINAÇÃO MAGNETICA  -20.9 GRAUS :
R18  .        12. COORDENADAS BASE       :
R21  .        Y    583936.00 M           :
R22  .        MC  45 GRAUS               :
PVER .           4.10000                 :
WDFN .        /space/expusr/3-SPS-41D_RUN2/i77bf02_4spf.xtf :
OCT  .        i77bf                      :
OS4  .        EARTH IMAGER               :
R16  .        10. PONTO FRACO UTILIZADO  10K :
R20  .        X   7292512.00 M           :
R24  .        13. CADASTRO ANP  86316021017 :
#-----------------------------------------------------------------------------
~CURVE INFORMATION
#MNEM.UNIT   API CODE                                  DESCRIPTION
#---- -----  --------                                  -----------------------
DEPT .M                                                :DEPTH (BOREHOLE) {F10.4}
DEPT .M                                                : {F13.4}
BIT  .IN                                               : {F13.4}
GR   .GAPI                                             : {F13.4}
M2R1 .OHMM                                             : {F13.4}
M2R2 .OHMM                                             : {F13.4}
M2R3 .OHMM                                             : {F13.4}
M2R6 .OHMM                                             : {F13.4}
M2R9 .OHMM                                             : {F13.4}
M2RX .OHMM                                             : {F13.4}
SPD  .M/MN                                             : {F13.4}
TEN  .LBF                                              : {F13.4}
TTEN .LBF                                              : {F13.4}
#-----------------------------------------------------------------------------
# 
#     DEPT        DEPT         BIT          GR           M2R1         M2R2         M2R3         M2R6         M2R9         M2RX         SPD          TEN          TTEN
#
~A  
# ...
 4963.8204    4963.8204       8.5000      76.5474    -999.2500    -999.2500    -999.2500    -999.2500    -999.2500    -999.2500       4.9787      50.6557    7574.3784
 4963.6680    4963.6680       8.5000      77.7641    -999.2500    -999.2500    -999.2500    -999.2500    -999.2500    -999.2500       4.9735      20.8729    7545.2637
 4963.5156    4963.5156       8.5000      79.5762    -999.2500    -999.2500    -999.2500    -999.2500    -999.2500    -999.2500       4.9644     -12.1151    7512.3545
 4963.3632    4963.3632       8.5000      80.3976    -999.2500    -999.2500    -999.2500    -999.2500    -999.2500    -999.2500       4.9573     -33.9181    7490.1180
 4963.2108    4963.2108       8.5000      80.2295    -999.2500    -999.2500    -999.2500    -999.2500    -999.2500    -999.2500       4.9608     -35.2403    7488.1425
 4963.0584    4963.0584       8.5000      80.6576    -999.2500    -999.2500    -999.2500    -999.2500    -999.2500    -999.2500       4.9692     -16.2185    7506.7132
 4962.9060    4962.9060       8.5000      81.4800    -999.2500    -999.2500    -999.2500    -999.2500    -999.2500    -999.2500       4.9764      17.5910    7540.6215
 4962.7536    4962.7536       8.5000      80.6314    -999.2500    -999.2500    -999.2500    -999.2500    -999.2500    -999.2500       4.9830      52.2765    7576.0295
 4962.6012    4962.6012       8.5000      77.7795    -999.2500    -999.2500    -999.2500    -999.2500    -999.2500    -999.2500       4.9861      59.6040    7584.3679
 4962.4488    4962.4488       8.5000      74.6110    -999.2500    -999.2500    -999.2500    -999.2500    -999.2500    -999.2500       4.9862      28.6038    7554.0693
 4962.2964    4962.2964       8.5000      72.0212    -999.2500    -999.2500    -999.2500    -999.2500    -999.2500    -999.2500       4.9884      -8.7843    7516.7543
 4962.1440    4962.1440       8.5000      70.8529    -999.2500    -999.2500    -999.2500    -999.2500    -999.2500    -999.2500       4.9874     -25.8040    7499.4231
 4961.9916    4961.9916       8.5000      72.1800    -999.2500    -999.2500    -999.2500    -999.2500    -999.2500    -999.2500       4.9786     -35.5674    7489.2256
 4961.8392    4961.8392       8.5000      74.8920    -999.2500    -999.2500    -999.2500    -999.2500    -999.2500    -999.2500       4.9706     -33.8706    7490.4435
 4961.6868    4961.6868       8.5000      77.2522    -999.2500    -999.2500    -999.2500    -999.2500    -999.2500    -999.2500       4.9733      -1.6906    7522.4291
 4961.5344    4961.5344       8.5000      77.8256    -999.2500    -999.2500    -999.2500    -999.2500    -999.2500    -999.2500       4.9823      31.0876    7555.5634
 4961.3820    4961.3820       8.5000      77.0034    -999.2500    -999.2500    -999.2500    -999.2500    -999.2500    -999.2500       4.9864      19.5299    7544.4542
 4961.2296    4961.2296       8.5000      75.9719    -999.2500    -999.2500    -999.2500    -999.2500    -999.2500    -999.2500       4.9830     -12.6050    7512.2794
 4961.0772    4961.0771       8.5000      75.1718    -999.2500    -999.2500    -999.2500    -999.2500    -999.2500    -999.2500       4.9790     -22.8806    7501.6025
 4960.9248    4960.9248       8.5000      74.7119    -999.2500    -999.2500    -999.2500    -999.2500    -999.2500    -999.2500       4.9787     -16.3197    7507.7891
 4960.7724    4960.7724       8.5000      75.0310    -999.2500    -999.2500    -999.2500    -999.2500    -999.2500    -999.2500       4.9766     -21.2277    7502.4975
 4960.6200    4960.6200       8.5000      75.7060    -999.2500    -999.2500    -999.2500    -999.2500    -999.2500    -999.2500       4.9689     -36.4703    7486.6280
 4960.4676    4960.4676       8.5000      75.9551    -999.2500    -999.2500    -999.2500    -999.2500    -999.2500    -999.2500       4.9594     -41.9771    7480.3447
 4960.3152    4960.3152       8.5000      75.3327    -999.2500    -999.2500    -999.2500    -999.2500    -999.2500    -999.2500       4.9559     -35.3174    7486.3266
 4960.1628    4960.1628       8.5000      73.8866    -999.2500    -999.2500    -999.2500    -999.2500    -999.2500    -999.2500       4.9677     -28.5044    7492.5861
 4960.0104    4960.0104       8.5000      71.3549    -999.2500    -999.2500    -999.2500    -999.2500    -999.2500    -999.2500       4.9865     -23.8787    7496.7211
 4959.8580    4959.8580       8.5000      68.1913    -999.2500    -999.2500    -999.2500    -999.2500    -999.2500    -999.2500       4.9935     -19.6973    7500.5147
 4959.7056    4959.7056       8.5000      65.8222    -999.2500    -999.2500    -999.2500    -999.2500    -999.2500    -999.2500       4.9869     -23.5545    7496.2831
 4959.5532    4959.5532       8.5000      65.3995    -999.2500    -999.2500    -999.2500    -999.2500    -999.2500    -999.2500       4.9791     -33.0498    7486.2820
 4959.4008    4959.4008       8.5000      67.1624    -999.2500    -999.2500    -999.2500    -999.2500    -999.2500    -999.2500       4.9745     -41.2943    7477.3807
 4959.2484    4959.2484       8.5000      70.7822    -999.2500    -999.2500    -999.2500    -999.2500    -999.2500    -999.2500       4.9746     -46.4896    7471.4293
 4959.0960    4959.0960       8.5000      73.5496    -999.2500    -999.2500    -999.2500    -999.2500    -999.2500    -999.2500       4.9761     -35.2101    7482.0262
 4958.9436    4958.9436       8.5000      72.7792    -999.2500    -999.2500    -999.2500    -999.2500    -999.2500    -999.2500       4.9747       5.6584    7522.7368
 4958.7912    4958.7912       8.5000      70.1875    -999.2500    -999.2500    -999.2500    -999.2500    -999.2500    -999.2500       4.9771      47.6385    7565.3572
 4958.6388    4958.6388       8.5000      69.1590    -999.2500    -999.2500    -999.2500    -999.2500    -999.2500    -999.2500       4.9860      38.4750    7557.0900
 4958.4864    4958.4864       8.5000      69.9816    -999.2500    -999.2500    -999.2500    -999.2500    -999.2500    -999.2500       4.9933     -15.6078    7503.2267
 4958.3340    4958.3340       8.5000      70.3154    -999.2500    -999.2500    -999.2500    -999.2500    -999.2500    -999.2500       4.9946     -56.1986    7461.9736
 4958.1816    4958.1816       8.5000      68.6789    -999.2500    -999.2500    -999.2500    -999.2500    -999.2500    -999.2500       4.9897     -59.7435    7457.4385
 4958.0292    4958.0292       8.5000      66.1339    -999.2500    -999.2500    -999.2500    -999.2500    -999.2500    -999.2500       4.9831     -51.6288    7464.6356
 4957.8768    4957.8768       8.5000      65.3874    -999.2500    -999.2500    -999.2500    -999.2500    -999.2500    -999.2500       4.9804     -46.0917    7469.3445
 4957.7244    4957.7244       8.5000      66.8014    -999.2500    -999.2500    -999.2500    -999.2500    -999.2500    -999.2500       4.9780     -32.7341    7482.0556
 4957.5720    4957.5720       8.5000      68.4511    -999.2500    -999.2500    -999.2500    -999.2500    -999.2500    -999.2500       4.9757     -11.9500    7502.5663
 4957.4196    4957.4196       8.5000      69.3191    -999.2500    -999.2500    -999.2500    -999.2500    -999.2500    -999.2500       4.9820      -5.2515    7509.2652
 4957.2672    4957.2672       8.5000      69.8881    -999.2500    -999.2500    -999.2500    -999.2500    -999.2500    -999.2500       4.9903     -24.9511    7489.3887
 4957.1148    4957.1148       8.5000      70.7449    -999.2500    -999.2500    -999.2500    -999.2500    -999.2500    -999.2500       4.9931     -48.8366    7464.8623
 4956.9624    4956.9624       8.5000      71.7774    -999.2500    -999.2500    -999.2500    -999.2500    -999.2500    -999.2500       4.9962     -52.5009    7460.3118
 4956.8100    4956.8100       8.5000      71.9513    -999.2500    -999.2500    -999.2500    -999.2500    -999.2500    -999.2500       4.9953     -35.0114    7477.0581
 4956.6576    4956.6576       8.5000      69.8621    -999.2500    -999.2500    -999.2500    -999.2500    -999.2500    -999.2500       4.9815     -11.4804    7500.2388
