~VERSION INFORMATION
VERS.           2.0   :CWLS Log ASCII Standard - VERSION 2.0
WRAP.           NO    :One Line per depth step
PROD.  Schlumberger   :LAS Producer
PROG.  DLIS to ASCII 2.3                               :LAS Program name and version
CREA.        2023/07/14 00:15                          :LAS Creation date {YYYY/MM/DD hh:mm}
DLIS_CREA.  2023-Jul-14 00:11                          :DLIS Creation date and time {YYYY-MMM-DD hh:mm}
SOURCE.     LIS_008.dlis                               :DLIS File Name
FILE-ID.     LIS   .001                                :File Identification Number
#--------------------------------------------------
~WELL INFORMATION
#MNEM.UNIT      DATA             DESCRIPTION
#---- ------ --------------   -----------------------------
STRT .M      5286.4512       :START DEPTH     
STOP .M      5066.6904       :STOP DEPTH     
STEP .M        -0.1524       :STEP     
NULL .          -999.25      :NULL VALUE
COMP .        PETROBRAS S.A.                           :COMPANY
WELL .        3-BRSA-293D-SPS                          :WELL
FLD  .        BS-400                                   :FIELD
LOC  .        BASE SAD 69:                             :LOCATION
CNTY .        SANTOS                                   :COUNTY
STAT .        BRASIL                                   :STATE
CTRY .        BRASIL                                   :COUNTRY
API  .                                                 :API NUMBER
UWI  .                                                 :UNIQUE WELL ID
DATE .        15/11/2004                               :LOG DATE
SRVC .        Schlumberger                             :SERVICE COMPANY
LATI .DEG                                              :LATITUDE
LONG .DEG                                              :LONGITUDE
GDAT .                                                 :GeoDetic Datum
#-----------------------------------------------------------------------------
~PARAMETER INFORMATION
#MNEM.UNIT    VALUE                      DESCRIPTION
#---- -----   --------------------       ------------------------
APD  .M               24                 :
BHT  .DEGF           260                 :
BLI  .M             5289                 :
BS   .IN         8.50000                 :
CN   .        PETROBRAS S.A.             :
COUN .        SANTOS                     :
CS   .IN         9.62500                 :
DATE .        15/11/2004                 :
DFD  .LB/G      12.30000                 :
DFL  .C3               2                 :
DFPH .        N/A                        :
DFT  .        SINTETICO                  :
DFV  .S               95                 :
DMF  .        MESA ROTATIVA              :
EDF  .M               24                 :
EGL  .M             -500                 :
EKB  .        N/A                        :
ENGI .        HERNANDEZ / LOCK           :
FL1  .        X   7292392.00 M LAT 24 28 47.189 S :
FL2  .        Y    584087.00 M LON 44 10 12.698 W :
FL3  .        MC  45 GRAUS               :
FN   .        BS-400                     :
LMF  .        MESA ROTATIVA              :
LUL  .        MACAE                      :
MCSS .        PRENSA                     :
MCST .DEGF            80                 :
MFSS .        PRENSA                     :
MFST .DEGF            80                 :
MSS  .        LINHA DE FLUXO             :
MST  .DEGF            80                 :
PDAT .        NIVEL DO MAR               :
R1   .        01. APRESENTAÇÃO DE ACORDO COM REQUERIMENTO DO CLIENTE :
R2   .        02. TEMPERATURA MÁXIMA DO POÇO T1=T2= 290 DEGF @  5275 M :
R3   .        03. INICIO DA CIRCULAÇÃO  12/11/2004 09 00 H :
R4   .        04. FINAL DA CIRCULAÇÃO   12/11/2004 18 00 H :
R5   .        05. TEMPO TOTAL DE CIRCULAÇÃO   09 00 H :
R6   .        06. FLUIDO DE PERFURAÇÃO  SINTETICO (BR-MUL  BR-MI)  60% TEOR DO OLEO :
R7   .        07. SALINIDADE DA LAMA  254762 PPM NACL NA FASE DE AGUA :
R8   .        08. INCLINAÇÃO MÁXIMA DO POÇO  37.37 GRAUS @ 5100 M :
R9   .        09. PRIMEIRAS E ULTIMAS LEITURAS  :
RMB  .OHMM    > 10                       :
RMCS .OHMM    > 10                       :
RMFS .OHMM    > 10                       :
RMS  .OHMM    >10                        :
RUN  .                 2                 :
STAT .        BRASIL                     :
TCS  .        18 00 H                    :
TDD  .M             5288                 :
TDL  .M             5293                 :
TLAB .        N/A                        :
TLI  .M             5000                 :
WITN .        ERNANI / ZE MARIA          :
WN   .        3-BRSA-293D-SPS            :
LUN  .              8808                 :
HIDE .        3-SPS-41D                  :
HID2 .        HIGH DEFINITION INDUCTION LOG :
HID3 .        X-MULTIPOLE ARRAY ACOUSTILOG :
HID4 .        GAMMA RAY LOG              :
HID5 .        TTRM SUB                   :
CLAB .        BACIA                      :
SLAB .        PAIS                       :
CMT1 .        ESC  1 200                 :
CMT2 .        PROF. MEDIDA               :
CMT4 .        SONDA  SS-43               :
HDAT .        SAD 69                     :
FL   .        BASE SAD 69                :
OS1  .        RCI/GR                     :
OS2  .        CHECK SHOT                 :
OS3  .        GR/CN/ZDL                  :
OS5  .        RCOR/GR                    :
LNAM .        ZDL/CN/XMAC/HDIL/EARTH IMAGER/RCI/RCOR/CHECK SHOT/GR :
TOOL .        ZDL/CN/XMAC/HDIL/EARTH IMAGER/RCI/RCOR/CHECK SHOT/GR :
LSOU .        PETROBRAS                  :
LSRV .        OH WIRELINE                :
LTYP .        RAW                        :
EPD  .M                0                 :
LDAT .        15/11/2004                 :
TRIP .                 3                 :
SON  .            786588                 :
CBDR .M             4277                 :
CBLO .        NR                         :
CBL1 .        NR                         :
STEM .DEGF    N/A                        :
BSAL .            254762                 :
BARI .        OFF                        :
DLAB .        12/11/2004                 :
MRT  .DEGF           290                 :
TSTR .        HDIL/XMAC/GR/TTRM          :
TSTG .        N/A                        :
STUS .        FINAL                      :
LCNM .        BAKER ATLAS                :
LCC  .               150                 :
NATI .        BRASIL                     :
OPMD .        OH.WIRELINE                :
PANA .        HERNANDEZ / LOCK           :
PCON .        BAKER ATLAS                :
R11  .        SL     5268.3 M / 5000.0 M :
R12  .        GR     5268.3 M / 5000.0 M :
R13  .        XMAC   5279.5 M / 5000.0 M :
R14  .        HDIL   5289.0 M / 5000.0 M :
R17  .        11. DECLINAÇÃO MAGNETICA  -20.9 GRAUS :
R18  .        12. COORDENADAS BASE       :
R21  .        Y    583936.00 M           :
R22  .        MC  45 GRAUS               :
PVER .           4.10000                 :
WDFN .        /space/expusr/3-SPS-41D_RUN2/i77bf01_2spf.xtf :
OCT  .        i77bf                      :
OS4  .        EARTH IMAGER               :
R16  .        10. PONTO FRACO UTILIZADO  10K :
R20  .        X   7292512.00 M           :
R24  .        13. CADASTRO ANP  86316021017 :
#-----------------------------------------------------------------------------
~CURVE INFORMATION
#MNEM.UNIT   API CODE                                  DESCRIPTION
#---- -----  --------                                  -----------------------
DEPT .M                                                :DEPTH (BOREHOLE) {F10.4}
DEPT .M                                                : {F13.4}
DT   .US/F                                             : {F13.4}
SFN1 .US                                               : {F13.4}
SFN2 .US                                               : {F13.4}
SFN3 .US                                               : {F13.4}
SFN4 .US                                               : {F13.4}
TT   .MS                                               : {F13.4}
#-----------------------------------------------------------------------------
# 
#     DEPT        DEPT         DT           SFN1         SFN2         SFN3         SFN4         TT
#
~A  
# ...
 5166.0552    5166.0552      67.3641     702.1418     735.3502     760.6036     790.2365      25.2813
 5165.9028    5165.9028      67.1703     704.6175     734.1287     772.9629     793.9888      25.3149
 5165.7504    5165.7504      67.5744     704.2510     736.3691     768.7612     804.8464      25.3487
 5165.5980    5165.5980      68.3075     703.3770     736.0008     773.8634     802.5054      25.3829
 5165.4456    5165.4456      69.0818     703.9988     736.0000     775.6217     808.7382      25.4174
 5165.2932    5165.2932      69.6918     709.8661     739.9939     775.9994     809.7485      25.4523
 5165.1408    5165.1408      70.0684     713.4958     743.9954     776.6243     810.9986      25.4873
 5164.9884    5164.9884      70.3312     712.0012     743.8751     777.3744     808.8767      25.5225
 5164.8360    5164.8360      70.5743     719.3720     749.8725     785.7466     816.2470      25.5578
 5164.6836    5164.6836      70.7608     713.3750     750.1250     785.0000     816.2500      25.5932
 5164.5312    5164.5313      70.7465     718.5000     752.0000     787.3750     818.6250      25.6286
 5164.3788    5164.3788      70.3230     720.2511     752.9993     791.2469     825.9972      25.6638
 5164.2264    5164.2264      69.3935     721.8730     752.0000     786.7505     821.9993      25.6985
 5164.0740    5164.0740      68.2139     720.0093     752.0000     787.2475     821.3781      25.7324
 5163.9216    5163.9216      67.2566     717.8848     750.1336     786.7523     816.5225      25.7660
 5163.7692    5163.7692      66.8562     714.1409     750.3739     785.0074     820.3586      25.7995
 5163.6168    5163.6168      66.9817     713.7515     746.5150     786.2452     820.1260      25.8330
 5163.4644    5163.4644      67.3027     716.4904     745.7526     784.3816     818.0074      25.8666
 5163.3120    5163.3120      67.5321     718.8676     747.6191     784.6242     819.1215      25.9004
 5163.1596    5163.1596      67.7052     715.5093     749.8688     786.8688     818.8757      25.9343
 5163.0072    5163.0072      68.0374     716.8717     748.3786     785.6280     816.6304      25.9683
 5162.8548    5162.8548      68.5579     719.9937     751.2442     786.2487     820.7417      26.0026
 5162.7024    5162.7024      68.9478     721.8719     756.7409     790.2434     823.6203      26.0371
 5162.5500    5162.5500      68.8758     719.3782     752.0061     790.7494     823.6250      26.0715
 5162.3976    5162.3976      68.3417     718.3759     751.6253     788.5021     823.2503      26.1057
 5162.2452    5162.2452      67.7034     715.5016     749.8760     786.1263     820.7514      26.1396
 5162.0928    5162.0928      67.4793     711.6250     746.6250     784.6250     818.1250      26.1733
 5161.9404    5161.9404      67.8501     711.3750     740.5000     783.5000     816.5000      26.2073
 5161.7880    5161.7880      68.4866     709.3720     744.2466     778.3755     816.1208      26.2415
 5161.6356    5161.6356      68.9596     704.0040     738.2521     779.2507     808.7578      26.2760
 5161.4832    5161.4832      69.0838     708.2453     740.4947     779.9948     817.1189      26.3106
 5161.3308    5161.3308      69.0801     704.6421     736.3944     776.0188     812.3974      26.3449
 5161.1784    5161.1784      69.3787     704.0027     733.7615     768.4083     804.2855      26.3796
 5161.0260    5161.0260      70.1298     711.9680     741.0955     775.9695     807.9850      26.4147
 5160.8736    5160.8736      71.0552     707.6409     740.0041     776.0000     808.0000      26.4502
 5160.7212    5160.7212      71.8201     711.9857     743.9870     782.3542     813.9804      26.4862
 5160.5688    5160.5688      72.2937     714.3681     744.0000     782.6243     815.9942      26.5223
 5160.4164    5160.4164      72.4331     717.6168     749.1121     783.8718     816.0000      26.5585
 5160.2640    5160.2640      72.1888     719.8702     751.3702     785.3718     816.0000      26.5947
 5160.1116    5160.1116      71.4552     720.6237     755.9917     791.9882     823.9857      26.6304
 5159.9592    5159.9592      70.3196     722.3725     758.1220     794.6213     827.1206      26.6656
 5159.8068    5159.8068      69.2640     721.2512     756.1271     792.6271     825.0022      26.7002
 5159.6544    5159.6544      68.7867     720.0008     752.0028     790.8762     824.5003      26.7346
 5159.5020    5159.5020      69.0321     721.7500     752.0000     792.0000     825.1250      26.7692
 5159.3496    5159.3496      69.7382     723.5000     757.2500     791.2500     824.0000      26.8040
 5159.1972    5159.1972      70.4791     722.1248     757.9992     794.3743     825.3759      26.8393
 5159.0448    5159.0448      71.0063     721.7493     756.1253     792.7532     827.3779      26.8748
 5158.8924    5158.8924      71.2946     720.8830     756.5041     796.7506     831.0010      26.9105
 5158.7400    5158.7400      71.4172     727.7167     759.9831     797.2476     831.8708      26.9460
 5158.5876    5158.5876      71.4509     728.6211     760.2489     798.4944     831.9994      26.9817
 5158.4352    5158.4352      71.4550     728.2516     763.6110     799.9938     832.0000      27.0174
 5158.2828    5158.2828      71.5298     728.0009     761.6325     800.4981     833.8679      27.0532
 5158.1304    5158.1304      71.7461     728.0000     761.8742     800.0017     836.1174      27.0891
 5157.9780    5157.9780      72.0799     728.0000     762.4981     800.9970     835.7511      27.1251
 5157.8256    5157.8256      72.4450     728.0000     762.8740     801.9973     839.2407      27.1614
 5157.6732    5157.6732      72.6851     728.4989     765.6187     802.3741     839.6241      27.1977
 5157.5208    5157.5208      72.6537     730.4962     764.8764     803.4978     839.3755      27.2341
 5157.3684    5157.3684      72.3891     728.0039     760.0076     800.0054     836.0052      27.2703
 5157.2160    5157.2160      72.1048     733.2438     764.8692     801.3734     838.4971      27.3064
 5157.0636    5157.0636      71.9890     733.8745     763.8758     800.0011     834.2534      27.3424
 5156.9112    5156.9112      72.0415     731.0013     766.7487     800.8746     833.2504      27.3784
 5156.7588    5156.7588      72.1094     735.1250     768.0000     807.8750     839.1250      27.4145
 5156.6064    5156.6064      72.0975     736.0000     768.0000     808.0000     841.5000      27.4505
 5156.4540    5156.4540      72.1427     736.0000     768.0014     808.0000     840.1260      27.4866
 5156.3016    5156.3016      72.4001     736.0036     770.1267     808.0012     841.6281      27.5228
 5156.1492    5156.1492      72.6490     739.5063     771.7559     809.1302     844.6297      27.5592
 5155.9968    5155.9968      72.5276     743.9793     775.9804     812.8577     847.9845      27.5952
 5155.8444    5155.8444      72.0419     740.8883     775.6266     811.0080     845.5107      27.6312
 5155.6920    5155.6920      71.5678     740.1279     775.7495     813.9883     847.1187      27.6670
 5155.5396    5155.5396      71.5309     738.3812     772.3869     810.7615     846.7513      27.7028
 5155.3872    5155.3872      71.9774     737.2536     770.6305     809.0055     846.2516      27.7388
 5155.2348    5155.2348      72.4503     743.9812     775.9850     814.3600     847.9951      27.7751
 5155.0824    5155.0824      72.5294     742.8777     777.3717     813.7515     848.3741      27.8113
 5154.9300    5154.9300      72.3696     738.5090     772.8842     812.6273     845.7554      27.8475
 5154.7776    5154.7776      72.3811     738.7496     775.9947     814.7464     850.6168      27.8837
 5154.6252    5154.6252      72.7021     741.4964     776.0000     815.9984     850.8747      27.9201
 5154.4728    5154.4728      73.1726     737.8784     772.3784     811.8789     848.7520      27.9567
 5154.3204    5154.3204      73.4971     743.9965     775.9979     815.9976     850.4990      27.9935
 5154.1680    5154.1680      73.5024     740.7500     777.2500     816.0000     851.0000      28.0302
