~VERSION INFORMATION
VERS.           2.0   :CWLS Log ASCII Standard - VERSION 2.0
WRAP.           YES   :Multiple lines per depth step
PROD.  Schlumberger   :LAS Producer
PROG.  DLIS to ASCII 2.3                               :LAS Program name and version
CREA.        2023/07/14 00:15                          :LAS Creation date {YYYY/MM/DD hh:mm}
DLIS_CREA.  2023-Jul-14 00:11                          :DLIS Creation date and time {YYYY-MMM-DD hh:mm}
SOURCE.     LIS_012.dlis                               :DLIS File Name
FILE-ID.     LIS   .001                                :File Identification Number
#--------------------------------------------------
~WELL INFORMATION
#MNEM.UNIT      DATA             DESCRIPTION
#---- ------ --------------   -----------------------------
STRT .M      5265.1152       :START DEPTH     
STOP .M      5185.4100       :STOP DEPTH     
STEP .M        -0.1524       :STEP     
NULL .          -999.25      :NULL VALUE
COMP .        PETROBRAS S.A.                           :COMPANY
WELL .        3-BRSA-293D-SPS                          :WELL
FLD  .        BS-400                                   :FIELD
LOC  .        BASE SAD 69:                             :LOCATION
CNTY .        SANTOS                                   :COUNTY
STAT .        BRASIL                                   :STATE
CTRY .        BRASIL                                   :COUNTRY
API  .                                                 :API NUMBER
UWI  .                                                 :UNIQUE WELL ID
DATE .        15/11/2004                               :LOG DATE
SRVC .        Schlumberger                             :SERVICE COMPANY
LATI .DEG                                              :LATITUDE
LONG .DEG                                              :LONGITUDE
GDAT .                                                 :GeoDetic Datum
#-----------------------------------------------------------------------------
~PARAMETER INFORMATION
#MNEM.UNIT    VALUE                      DESCRIPTION
#---- -----   --------------------       ------------------------
APD  .M               24                 :
BHT  .DEGF           260                 :
BLI  .M             5289                 :
BS   .IN         8.50000                 :
CN   .        PETROBRAS S.A.             :
COUN .        SANTOS                     :
CS   .IN         9.62500                 :
DATE .        15/11/2004                 :
DFD  .LB/G      12.30000                 :
DFL  .C3               2                 :
DFPH .        N/A                        :
DFT  .        SINTETICO                  :
DFV  .S               95                 :
DMF  .        MESA ROTATIVA              :
EDF  .M               24                 :
EGL  .M             -500                 :
EKB  .        N/A                        :
ENGI .        HERNANDEZ / LOCK           :
FL1  .        X   7292392.00 M LAT 24 28 47.189 S :
FL2  .        Y    584087.00 M LON 44 10 12.698 W :
FL3  .        MC  45 GRAUS               :
FN   .        BS-400                     :
LMF  .        MESA ROTATIVA              :
LUL  .        MACAE                      :
MCSS .        PRENSA                     :
MCST .DEGF            80                 :
MFSS .        PRENSA                     :
MFST .DEGF            80                 :
MSS  .        LINHA DE FLUXO             :
MST  .DEGF            80                 :
PDAT .        NIVEL DO MAR               :
R1   .        01. APRESENTAÇÃO DE ACORDO COM REQUERIMENTO DO CLIENTE :
R2   .        02. TEMPERATURA MÁXIMA DO POÇO T1=T2= 292 DEGF @  5277 M :
R3   .        03. INICIO DA CIRCULAÇÃO  12/11/2004 09 00 H :
R4   .        04. FINAL DA CIRCULAÇÃO   12/11/2004 18 00 H :
R5   .        05. TEMPO TOTAL DE CIRCULAÇÃO   09 00 H :
R6   .        06. FLUIDO DE PERFURAÇÃO  SINTETICO (BR-MUL  BR-MI)  60% TEOR DO OLEO :
R7   .        07. SALINIDADE DA LAMA  254762 PPM NACL NA FASE DE AGUA :
R8   .        08. INCLINAÇÃO MÁXIMA DO POÇO  37.37 GRAUS @ 5100 M :
R9   .        09. PRIMEIRAS E ULTIMAS LEITURAS  :
RMB  .OHMM    > 10                       :
RMCS .OHMM    > 10                       :
RMFS .OHMM    > 10                       :
RMS  .OHMM    >10                        :
RUN  .                 2                 :
STAT .        BRASIL                     :
TCS  .        18 00 H                    :
TDD  .M             5288                 :
TDL  .M             5293                 :
TLAB .        N/A                        :
TLI  .M             4277                 :
WITN .        ERNANI / ZE MARIA          :
WN   .        3-BRSA-293D-SPS            :
LUN  .              8808                 :
HIDE .        3-SPS-41D                  :
HID2 .        COMPENSATED Z-DENSILOG     :
HID3 .        COMPENSATED NEUTRON LOG    :
HID4 .        GAMMA RAY LOG              :
HID5 .        TTRM SUB                   :
CLAB .        BACIA                      :
SLAB .        PAIS                       :
CMT1 .        ESC  1 1000                :
CMT2 .        PROF. MEDIDA               :
CMT4 .        SONDA  SS-43               :
HDAT .        SAD 69                     :
FL   .        BASE SAD 69                :
OS1  .        RCI/GR                     :
OS2  .        CHECK SHOT                 :
OS3  .        GR/XMAC/HDIL               :
OS5  .        RCOR/GR                    :
LNAM .        ZDL/CN/XMAC/HDIL/EARTH IMAGER/RCI/RCOR/CHECK SHOT/GR :
TOOL .        ZDL/CN/XMAC/HDIL/EARTH IMAGER/RCI/RCOR/CHECK SHOT/GR :
LSOU .        PETROBRAS                  :
LSRV .        OH WIRELINE                :
LTYP .        RAW                        :
EPD  .M                0                 :
LDAT .        15/11/2004                 :
TRIP .                 4                 :
SON  .            786588                 :
CBDR .M             4277                 :
CBLO .        NR                         :
CBL1 .        NR                         :
STEM .DEGF    N/A                        :
BSAL .            254762                 :
BARI .        OFF                        :
DLAB .        12/11/2004                 :
MRT  .DEGF           292                 :
TSTR .        ZDL/CN/GR/TTRM             :
TSTG .        N/A                        :
STUS .        FINAL                      :
LCNM .        BAKER ATLAS                :
LCC  .               150                 :
NATI .        BRASIL                     :
OPMD .        OH.WIRELINE                :
PANA .        HERNANDEZ / LOCK           :
PCON .        BAKER ATLAS                :
R11  .        GR     5268.3 M / 4277.0 M :
R12  .        CN     5286.5 M / 5128.0 M (FERRAMENTA PERDEU LEITURA ACIMA DE 5128M) :
R13  .        ZDL    5292.0 M / 4277.0 M :
R15  .        10. PONTO FRACO UTILIZADO  10K :
R17  .        12. COORDENADAS BASE       :
R19  .        X   7292512.00 M           :
R21  .        MC  45 GRAUS               :
R23  .        13. CADASTRO ANP  86316021017 :
PVER .           4.10000                 :
WDFN .        /space/expusr/3-SPS-41D_RUN2/i77bf03_8spf.xtf :
OCT  .        i77bf                      :
OS4  .        EARTH IMAGER               :
R16  .        11. DECLINAÇÃO MAGNETICA  -20.9 GRAUS :
R20  .        Y    583936.00 M           :
#-----------------------------------------------------------------------------
~CURVE INFORMATION
#MNEM.UNIT   API CODE                                  DESCRIPTION
#---- -----  --------                                  -----------------------
DEPT .M                                                :DEPTH (BOREHOLE) {F10.4}
DEPT .M                                                : {F13.4}
BIT  .IN                                               : {F13.4}
DEPM .M                                                : {F13.4}
GR   .GAPI                                             : {F13.4}
SPD  .M/MN                                             : {F13.4}
TTEN .LBF                                              : {F13.4}
CAL  .IN                                               : {F13.4}
CALX .IN                                               : {F13.4}
HRD1 .HZ                                               : {F13.4}
HRD2 .HZ                                               : {F13.4}
PE   .B/E                                              : {F13.4}
SFT2 .HZ                                               : {F13.4}
SOFT .HZ                                               : {F13.4}
SSD  .HZ                                               : {F13.4}
ZCOR .G/C3                                             : {F13.4}
ZDEN .G/C3                                             : {F13.4}
CNC  .PU                                               : {F13.4}
CN   .PU                                               : {F13.4}
LSN  .HZ                                               : {F13.4}
SSN  .HZ                                               : {F13.4}
CNCF .PU                                               : {F13.4}
MMRK .MN                                               : {F13.4}
#-----------------------------------------------------------------------------
# DEPT       
#     DEPT         BIT          DEPM         GR           SPD          TTEN         
#     CAL          CALX         HRD1         HRD2         PE           SFT2         
#     SOFT         SSD          ZCOR         ZDEN         CNC          CN           
#     LSN          SSN          CNCF         MMRK         
~A  
# ...
5239.5120
   5239.5120       8.5000    5239.2190      90.0785       6.1698    7330.8357
      8.7855       8.7825     600.3317     784.9629       5.4850     464.5131
    332.4001    6652.7175      -0.0264       2.5912      15.1312      15.3754
   1569.2450    3488.8276      15.1312       0.0000
5239.3596
   5239.3596       8.5000    5239.0666      86.7682       6.0984    7331.5208
      8.7861       8.7866     617.5532     800.3593       6.4044     455.3357
    307.9210    6688.5812      -0.0309       2.5840      15.3547      15.7107
   1590.5466    3539.5010      15.3547       0.0000
5239.2072
   5239.2072       8.5000    5238.9142      79.7482       6.0666    7352.2918
      8.7854       8.7858     616.6541     824.3628       6.8166     465.3509
    300.4138    6724.5600      -0.0293       2.5789      15.8549      16.1846
   1621.1222    3664.7196      15.8549       0.0000
5239.0548
   5239.0548       8.5000    5238.7618      72.7325       6.1086    7387.0221
      8.7870       8.7839     616.9011     799.2196       5.4258     482.9957
    345.3043    6694.8952      -0.0245       2.5867      14.7189      15.2529
   1734.8583    3773.8285      14.7189       0.0000
5238.9024
   5238.9023       8.5000    5238.6094      71.8967       6.0948    7421.6816
      8.9099       8.8234     580.9272     772.9352       6.2127     470.1003
    302.1240    6690.8359      -0.0186       2.6039      14.4316      14.6953
   1700.7251    3731.3223      14.4316       0.0000
5238.7500
   5238.7500       8.5000    5238.4561      77.6373       6.1728    7434.7256
      9.0776       9.0079     565.2189     748.7358       6.4202     425.2115
    286.4595    6685.2070      -0.0069       2.6174      16.7854      17.0375
   1487.8726    3561.7202      16.7854       0.0000
5238.5976
   5238.5977       8.5000    5238.3037      84.1490       6.2140    7425.4658
      9.1571       9.1243     556.8638     741.9214       5.5636     455.4505
    311.2372    6729.7920      -0.0018       2.6210      18.9039      19.4083
   1346.0908    3406.1836      18.9039       0.0000
5238.4452
   5238.4452       8.5000    5238.1513      87.2796       6.2092    7410.5061
      9.1702       9.1689     587.9478     764.1790       5.1811     466.5889
    339.5486    6623.2726      -0.0194       2.6059      18.9237      19.7211
   1337.3504    3362.0541      18.9237       0.0000
5238.2928
   5238.2928       8.5000    5237.9989      87.9754       6.1920    7396.6354
      9.1744       9.1727     591.2505     750.1444       6.0099     441.3602
    299.0624    6556.8952      -0.0315       2.6097      18.5977      19.2143
   1338.0302    3336.1128      18.5977       0.0000
5238.1404
   5238.1404       8.5000    5237.8465      87.0501       6.1622    7404.1496
      9.1729       9.1740     577.9246     753.9477       6.3510     421.1373
    287.2566    6564.0097      -0.0301       2.6119      19.4042      20.1242
   1362.2698    3431.7702      19.4042       0.0000
5237.9880
   5237.9880       8.5000    5237.6950      85.4809       6.1206    7441.7398
      9.1750       9.1734     581.4049     769.1802       6.3697     452.8099
    296.6398    6589.6543      -0.0299       2.6052      16.7949      17.8541
   1580.3930    3667.3698      16.7949       0.0000
5237.8356
   5237.8356       8.5000    5237.5426      87.1769       6.1602    7496.3777
      9.1738       9.1752     601.2715     746.6405       5.9614     426.1536
    300.1288    6651.3063      -0.0230       2.6031      14.9266      15.5406
   1676.7910    3741.3975      14.9266       0.0000
5237.6832
   5237.6832       8.5000    5237.3902      92.2874       6.1871    7568.3724
      9.1747       9.1736     590.0892     723.0791       5.7445     413.6425
    299.7277    6670.7148      -0.0108       2.6085      15.2300      15.8659
   1601.4508    3618.0603      15.2300       0.0000
5237.5308
   5237.5308       8.5000    5237.2378      94.7480       6.2754    7628.0665
      9.1676       9.1740     608.8059     755.0415       6.2515     422.0483
    291.2898    6732.8739      -0.0143       2.5923      13.8245      14.5816
   1657.0651    3535.1597      13.8245       0.0000
5237.3784
   5237.3784       8.5000    5237.0854      91.7795       6.4496    7635.9530
      9.1485       9.1570     618.3721     764.3664       5.7437     490.0605
    331.0769    6674.3034      -0.0192       2.5813      13.2479      13.7640
   1672.3690    3506.2321      13.2479       0.0000
5237.2260
   5237.2260       8.5000    5236.9330      87.7257       6.4243    7593.2761
      9.1475       9.1459     616.8173     813.4169       5.8454     507.3008
    333.8189    6521.1941      -0.0501       2.5654      14.1343      14.5424
   1645.2285    3544.3786      14.1343       0.3426
5237.0736
   5237.0736       8.5000    5236.7806      86.5202       6.4237    7517.8137
      9.1496       9.1500     591.2912     810.4434       5.8089     460.8438
    330.7334    6436.4960      -0.0589       2.5688      15.2926      15.8181
   1662.1156    3714.5852      15.2926       0.0014
5236.9212
   5236.9212       8.5000    5236.6282      88.2571       6.3690    7423.5050
      9.1458       9.1466     579.7092     829.9721       5.9388     469.2614
    336.3159    6499.9889      -0.0579       2.5661      16.1493      16.6270
   1648.9184    3821.6417      16.1493       0.0000
5236.7688
   5236.7688       8.5000    5236.4758      90.3394       6.2499    7352.3157
      9.1498       9.1478     606.3076     793.9787       6.4218     485.5243
    307.8234    6547.6376      -0.0442       2.5677      16.4242      17.0558
   1622.0816    3793.0994      16.4242       0.0000
5236.6164
   5236.6164       8.5000    5236.3234      91.7761       6.1657    7338.9406
      9.1477       9.1495     597.8579     755.8662       8.2795     450.2025
    242.8181    6445.4814      -0.0467       2.5830      17.8826      18.2788
   1549.9728    3792.3600      17.8826       0.0000
5236.4640
   5236.4640       8.5000    5236.1710      92.5852       6.1453    7384.2652
      9.1441       9.1456     566.1479     713.0566       8.0445     407.3942
    236.8991    6413.6400      -0.0402       2.6100      19.1243      19.7730
   1519.5716    3834.1365      19.1243       0.0000
5236.3116
   5236.3116       8.5000    5236.0177      91.8434       6.1599    7463.6193
      9.1462       9.1441     523.0882     705.8157       7.1259     398.5925
    252.1312    6497.4228      -0.0210       2.6284      18.6176      19.4033
   1557.1164    3867.7729      18.6176       0.0000
5236.1592
   5236.1592       8.5000    5235.8662      89.4081       6.2034    7515.7168
      9.1469       9.1477     570.3412     743.1000       5.9869     435.9500
    300.9048    6540.1074      -0.0292       2.6058      17.7251      18.4154
   1604.3357    3889.7095      17.7251       0.0000
5236.0068
   5236.0068       8.5000    5235.7139      88.0185       6.3631    7499.0020
      9.1432       9.1449     597.5233     779.0330       6.0833     430.2455
    306.3581    6578.9688      -0.0374       2.5873      18.7165      19.2096
   1548.2554    3886.1055      18.7165       0.0000
5235.8544
   5235.8544       8.5000    5235.5605      88.6613       6.3292    7453.1677
      9.1451       9.1436     610.3669     743.5859       5.0370     430.4452
    333.0054    6625.4471      -0.0261       2.5941      19.0911      19.8104
   1518.9124    3840.5819      19.0911       0.0000
5235.7020
   5235.7020       8.5000    5235.4081      87.5005       6.1979    7440.3560
      9.1474       9.1463     592.4266     736.8444       4.5289     465.2105
    352.9454    6555.2170      -0.0260       2.6022      18.7601      19.4916
   1530.0330    3822.2607      18.7601       0.0000
5235.5496
   5235.5496       8.5000    5235.2557      82.8167       6.1672    7459.9151
      9.1474       9.1479     556.3349     744.3807       5.0160     456.1602
    330.9850    6513.7765      -0.0298       2.6082      16.8492      17.7260
   1621.6039    3817.4495      16.8492       0.0000
5235.3972
   5235.3972       8.5000    5235.1033      78.2003       6.1862    7471.8956
      9.1442       9.1461     563.4647     788.9885       5.1113     470.0621
    349.1819    6577.5795      -0.0343       2.5940      16.9178      17.4046
   1637.1240    3867.5320      16.9178       0.0000
