~VERSION INFORMATION
VERS.           2.0   :CWLS Log ASCII Standard - VERSION 2.0
WRAP.           NO    :One Line per depth step
PROD.  Schlumberger   :LAS Producer
PROG.  DLIS to ASCII 2.3                               :LAS Program name and version
CREA.        2023/07/14 00:15                          :LAS Creation date {YYYY/MM/DD hh:mm}
DLIS_CREA.  2023-Jul-14 00:11                          :DLIS Creation date and time {YYYY-MMM-DD hh:mm}
SOURCE.     LIS_009.dlis                               :DLIS File Name
FILE-ID.     LIS   .002                                :File Identification Number
#--------------------------------------------------
~WELL INFORMATION
#MNEM.UNIT      DATA             DESCRIPTION
#---- ------ --------------   -----------------------------
STRT .M      5301.9960       :START DEPTH     
STOP .M      5058.6132       :STOP DEPTH     
STEP .M        -0.1524       :STEP     
NULL .          -999.25      :NULL VALUE
COMP .        PETROBRAS S.A.                           :COMPANY
WELL .        3-BRSA-293D-SPS                          :WELL
FLD  .        BS-400                                   :FIELD
LOC  .        BASE SAD 69:                             :LOCATION
CNTY .        SANTOS                                   :COUNTY
STAT .        BRASIL                                   :STATE
CTRY .        BRASIL                                   :COUNTRY
API  .                                                 :API NUMBER
UWI  .                                                 :UNIQUE WELL ID
DATE .        15/11/2004                               :LOG DATE
SRVC .        Schlumberger                             :SERVICE COMPANY
LATI .DEG                                              :LATITUDE
LONG .DEG                                              :LONGITUDE
GDAT .                                                 :GeoDetic Datum
#-----------------------------------------------------------------------------
~PARAMETER INFORMATION
#MNEM.UNIT    VALUE                      DESCRIPTION
#---- -----   --------------------       ------------------------
APD  .M               24                 :
BHT  .DEGF           260                 :
BLI  .M             5289                 :
BS   .IN         8.50000                 :
CN   .        PETROBRAS S.A.             :
COUN .        SANTOS                     :
CS   .IN         9.62500                 :
DATE .        15/11/2004                 :
DFD  .LB/G      12.30000                 :
DFL  .C3               2                 :
DFPH .        N/A                        :
DFT  .        SINTETICO                  :
DFV  .S               95                 :
DMF  .        MESA ROTATIVA              :
EDF  .M               24                 :
EGL  .M             -500                 :
EKB  .        N/A                        :
ENGI .        HERNANDEZ / LOCK           :
FL1  .        X   7292392.00 M LAT 24 28 47.189 S :
FL2  .        Y    584087.00 M LON 44 10 12.698 W :
FL3  .        MC  45 GRAUS               :
FN   .        BS-400                     :
LMF  .        MESA ROTATIVA              :
LUL  .        MACAE                      :
MCSS .        PRENSA                     :
MCST .DEGF            80                 :
MFSS .        PRENSA                     :
MFST .DEGF            80                 :
MSS  .        LINHA DE FLUXO             :
MST  .DEGF            80                 :
PDAT .        NIVEL DO MAR               :
R1   .        01. APRESENTAÇÃO DE ACORDO COM REQUERIMENTO DO CLIENTE :
R2   .        02. TEMPERATURA MÁXIMA DO POÇO T1=T2= 290 DEGF @  5275 M :
R3   .        03. INICIO DA CIRCULAÇÃO  12/11/2004 09 00 H :
R4   .        04. FINAL DA CIRCULAÇÃO   12/11/2004 18 00 H :
R5   .        05. TEMPO TOTAL DE CIRCULAÇÃO   09 00 H :
R6   .        06. FLUIDO DE PERFURAÇÃO  SINTETICO (BR-MUL  BR-MI)  60% TEOR DO OLEO :
R7   .        07. SALINIDADE DA LAMA  254762 PPM NACL NA FASE DE AGUA :
R8   .        08. INCLINAÇÃO MÁXIMA DO POÇO  37.37 GRAUS @ 5100 M :
R9   .        09. PRIMEIRAS E ULTIMAS LEITURAS  :
RMB  .OHMM    > 10                       :
RMCS .OHMM    > 10                       :
RMFS .OHMM    > 10                       :
RMS  .OHMM    >10                        :
RUN  .                 2                 :
STAT .        BRASIL                     :
TCS  .        18 00 H                    :
TDD  .M             5288                 :
TDL  .M             5293                 :
TLAB .        N/A                        :
TLI  .M             5000                 :
WITN .        ERNANI / ZE MARIA          :
WN   .        3-BRSA-293D-SPS            :
LUN  .              8808                 :
HIDE .        3-SPS-41D                  :
HID2 .        HIGH DEFINITION INDUCTION LOG :
HID3 .        X-MULTIPOLE ARRAY ACOUSTILOG :
HID4 .        GAMMA RAY LOG              :
HID5 .        TTRM SUB                   :
CLAB .        BACIA                      :
SLAB .        PAIS                       :
CMT1 .        ESC  1 200                 :
CMT2 .        PROF. MEDIDA               :
CMT4 .        SONDA  SS-43               :
HDAT .        SAD 69                     :
FL   .        BASE SAD 69                :
OS1  .        RCI/GR                     :
OS2  .        CHECK SHOT                 :
OS3  .        GR/CN/ZDL                  :
OS5  .        RCOR/GR                    :
LNAM .        ZDL/CN/XMAC/HDIL/EARTH IMAGER/RCI/RCOR/CHECK SHOT/GR :
TOOL .        ZDL/CN/XMAC/HDIL/EARTH IMAGER/RCI/RCOR/CHECK SHOT/GR :
LSOU .        PETROBRAS                  :
LSRV .        OH WIRELINE                :
LTYP .        RAW                        :
EPD  .M                0                 :
LDAT .        15/11/2004                 :
TRIP .                 3                 :
SON  .            786588                 :
CBDR .M             4277                 :
CBLO .        NR                         :
CBL1 .        NR                         :
STEM .DEGF    N/A                        :
BSAL .            254762                 :
BARI .        OFF                        :
DLAB .        12/11/2004                 :
MRT  .DEGF           290                 :
TSTR .        HDIL/XMAC/GR/TTRM          :
TSTG .        N/A                        :
STUS .        FINAL                      :
LCNM .        BAKER ATLAS                :
LCC  .               150                 :
NATI .        BRASIL                     :
OPMD .        OH.WIRELINE                :
PANA .        HERNANDEZ / LOCK           :
PCON .        BAKER ATLAS                :
R11  .        SL     5268.3 M / 5000.0 M :
R12  .        GR     5268.3 M / 5000.0 M :
R13  .        XMAC   5279.5 M / 5000.0 M :
R14  .        HDIL   5289.0 M / 5000.0 M :
R17  .        11. DECLINAÇÃO MAGNETICA  -20.9 GRAUS :
R18  .        12. COORDENADAS BASE       :
R21  .        Y    583936.00 M           :
R22  .        MC  45 GRAUS               :
PVER .           4.10000                 :
WDFN .        /space/expusr/3-SPS-41D_RUN2/i77bf01_4spf.xtf :
OCT  .        i77bf                      :
OS4  .        EARTH IMAGER               :
R16  .        10. PONTO FRACO UTILIZADO  10K :
R20  .        X   7292512.00 M           :
R24  .        13. CADASTRO ANP  86316021017 :
#-----------------------------------------------------------------------------
~CURVE INFORMATION
#MNEM.UNIT   API CODE                                  DESCRIPTION
#---- -----  --------                                  -----------------------
DEPT .M                                                :DEPTH (BOREHOLE) {F10.4}
DEPT .M                                                : {F13.4}
BIT  .IN                                               : {F13.4}
GR   .GAPI                                             : {F13.4}
M2R1 .OHMM                                             : {F13.4}
M2R2 .OHMM                                             : {F13.4}
M2R3 .OHMM                                             : {F13.4}
M2R6 .OHMM                                             : {F13.4}
M2R9 .OHMM                                             : {F13.4}
M2RX .OHMM                                             : {F13.4}
SPD  .M/MN                                             : {F13.4}
TEN  .LBF                                              : {F13.4}
TTEN .LBF                                              : {F13.4}
#-----------------------------------------------------------------------------
# 
#     DEPT        DEPT         BIT          GR           M2R1         M2R2         M2R3         M2R6         M2R9         M2RX         SPD          TEN          TTEN
#
~A  
# ...
 5133.7464    5133.7464       8.5000      86.7623       6.4428       6.6481       7.8736       9.0937       9.4709      10.3612       4.7545      49.1931    7611.9286
 5133.5940    5133.5940       8.5000     102.8472       7.2070       7.2740       8.4853       9.7248       9.9928      10.8303       4.7585      86.9131    7650.9972
 5133.4416    5133.4416       8.5000     120.5271       7.4347       7.6489       8.8215      10.0399      10.1969      10.9456       4.7584     102.4877    7668.4735
 5133.2892    5133.2892       8.5000     131.5105       6.6601       7.2411       8.3120       9.4076       9.4773      10.0844       4.7574     113.8664    7681.9867
 5133.1368    5133.1368       8.5000     132.9415       5.1744       6.0250       6.9244       7.7990       7.8185       8.2577       4.7598     115.0154    7685.3677
 5132.9844    5132.9844       8.5000     129.2761       3.9723       4.9255       5.6860       6.3755       6.3818       6.7026       4.7646      83.8704    7656.1055
 5132.8320    5132.8320       8.5000     125.8717       3.3517       4.3830       5.0899       5.6818       5.6900       5.9539       4.7635      42.5805    7615.9248
 5132.6796    5132.6796       8.5000     124.6758       3.0633       4.1779       4.8821       5.4306       5.4502       5.6933       4.7552      31.5108    7605.5131
 5132.5272    5132.5272       8.5000     123.2197       2.8628       4.0228       4.7272       5.2451       5.2789       5.5154       4.7497      36.7565    7611.5138
 5132.3748    5132.3748       8.5000     120.9711       2.6762       3.8299       4.5216       5.0143       5.0654       5.3030       4.7491      22.6947    7598.1598
 5132.2224    5132.2224       8.5000     120.7158       2.5325       3.6574       4.3351       4.8147       4.8831       5.1303       4.7550       1.7755    7577.5158
 5132.0700    5132.0700       8.5000     121.7502       2.4406       3.5339       4.2065       4.6922       4.7822       5.0490       4.7662      10.0356    7585.8374
 5131.9176    5131.9176       8.5000     120.2360       2.3988       3.4667       4.1488       4.6602       4.7751       5.0712       4.7724      40.6299    7616.8382
 5131.7652    5131.7652       8.5000     115.6072       2.4146       3.4746       4.1889       4.7523       4.9002       5.2388       4.7691      59.7481    7636.8109
 5131.6128    5131.6128       8.5000     112.2677       2.4713       3.5418       4.3100       4.9477       5.1342       5.5272       4.7631      67.1221    7645.2815
 5131.4604    5131.4604       8.5000     114.3408       2.4888       3.5607       4.3789       5.0889       5.3125       5.7580       4.7562      81.0726    7660.6102
 5131.3080    5131.3080       8.5000     120.0808       2.4102       3.4517       4.2867       5.0317       5.2743       5.7513       4.7502      80.3595    7661.4342
 5131.1556    5131.1556       8.5000     123.4291       2.3055       3.3058       4.1301       4.8706       5.1112       5.5998       4.7474      40.6314    7622.7265
 5131.0032    5131.0032       8.5000     122.9411       2.2590       3.2266       4.0244       4.7289       4.9471       5.4358       4.7479      -1.5390    7580.6540
 5130.8508    5130.8508       8.5000     120.8208       2.2700       3.1951       3.9357       4.5650       4.7405       5.2126       4.7568      -7.6690    7574.1691
 5130.6984    5130.6984       8.5000     118.1598       2.3066       3.1554       3.7949       4.3078       4.4229       4.8553       4.7706       5.1042    7586.7211
 5130.5460    5130.5460       8.5000     114.5607       2.3641       3.1064       3.6185       3.9998       4.0502       4.4278       4.7736      16.5851    7598.2339
 5130.3936    5130.3936       8.5000     108.4348       2.4548       3.0843       3.4773       3.7419       3.7341       4.0565       4.7644      45.0086    7627.0986
 5130.2412    5130.2412       8.5000      99.2967       2.5767       3.1168       3.4304       3.6114       3.5552       3.8310       4.7561      83.2183    7666.5078
 5130.0888    5130.0888       8.5000      91.0907       2.7161       3.2316       3.5323       3.6719       3.5749       3.8165       4.7553      85.8590    7670.8226
 5129.9364    5129.9364       8.5000      87.4506       2.9017       3.5231       3.9113       4.0601       3.9242       4.1467       4.7589      34.9571    7621.0903
 5129.7840    5129.7840       8.5000      87.9958       3.1934       4.1353       4.7560       4.9849       4.8048       5.0229       4.7630     -25.0674    7561.1178
 5129.6316    5129.6316       8.5000      90.2176       3.3756       4.7447       5.6840       6.0603       5.8538       6.0454       4.7604     -40.5039    7545.0645
 5129.4792    5129.4792       8.5000      90.5030       2.9147       4.3215       5.3427       5.8067       5.6479       5.7561       4.7550       7.7518    7593.0659
 5129.3268    5129.3268       8.5000      87.7254       2.1069       3.1354       3.9267       4.3361       4.2621       4.2851       4.7553      98.6981    7685.1231
 5129.1744    5129.1744       8.5000      85.2841       1.5398       2.2245       2.7646       3.0740       3.0577       3.0341       4.7616     161.5093    7750.5452
 5129.0220    5129.0220       8.5000      86.6160       1.2684       1.7719       2.1603       2.3941       2.4064       2.3604       4.7661     131.3340    7723.2148
 5128.8696    5128.8696       8.5000      89.5971       1.1726       1.5916       1.8945       2.0765       2.1048       2.0455       4.7635      24.0618    7617.3099
 5128.7172    5128.7172       8.5000      89.5455       1.1731       1.5548       1.8029       1.9436       1.9799       1.9091       4.7557     -79.6903    7512.8580
 5128.5648    5128.5648       8.5000      85.9232       1.1947       1.5544       1.7565       1.8585       1.8966       1.8191       4.7521    -116.7323    7473.8806
 5128.4124    5128.4124       8.5000      83.5943       1.1574       1.4868       1.6414       1.7051       1.7378       1.6613       4.7535     -67.8750    7521.0538
 5128.2600    5128.2600       8.5000      85.3775       1.0315       1.3168       1.4266       1.4580       1.4803       1.4149       4.7577      19.8674    7608.4868
 5128.1076    5128.1076       8.5000      88.5576       0.8890       1.1306       1.2083       1.2188       1.2309       1.1800       4.7629      70.2922    7659.8696
 5127.9552    5127.9552       8.5000      88.4540       0.8115       1.0263       1.0883       1.0881       1.0935       1.0524       4.7651      66.7401    7657.5972
 5127.8028    5127.8028       8.5000      84.9094       0.8088       1.0114       1.0683       1.0633       1.0633       1.0264       4.7616      66.1626    7658.2138
 5127.6504    5127.6504       8.5000      84.8932       0.8743       1.0760       1.1377       1.1315       1.1284       1.0913       4.7548     108.3651    7702.1289
 5127.4980    5127.4980       8.5000      94.4591       1.0339       1.2537       1.3366       1.3341       1.3293       1.2885       4.7435     180.2244    7776.8701
 5127.3456    5127.3456       8.5000     108.9908       1.3422       1.6238       1.7638       1.7786       1.7750       1.7259       4.7325     253.9972    7854.8393
 5127.1932    5127.1932       8.5000     119.2428       1.7672       2.1809       2.4404       2.5013       2.5099       2.4550       4.7295     277.1681    7882.9878
 5127.0408    5127.0408       8.5000     121.3289       2.0618       2.6618       3.0968       3.2439       3.2832       3.2438       4.7347     195.1101    7805.1972
 5126.8884    5126.8884       8.5000     116.3521       2.0281       2.7567       3.3462       3.5995       3.6852       3.6893       4.7471      50.5230    7662.6204
 5126.7360    5126.7360       8.5000     108.5891       1.8752       2.6121       3.2814       3.6302       3.7669       3.8284       4.7637     -43.4166    7568.5499
 5126.5836    5126.5836       8.5000     102.4463       1.8480       2.5582       3.2780       3.7225       3.9159       4.0410       4.7737     -51.0136    7560.0861
