~VERSION INFORMATION
VERS.           2.0   :CWLS Log ASCII Standard - VERSION 2.0
WRAP.           YES   :Multiple lines per depth step
PROD.  Schlumberger   :LAS Producer
PROG.  DLIS to ASCII 2.3                               :LAS Program name and version
CREA.        2023/07/14 00:15                          :LAS Creation date {YYYY/MM/DD hh:mm}
DLIS_CREA.  2023-Jul-14 00:11                          :DLIS Creation date and time {YYYY-MMM-DD hh:mm}
SOURCE.     LIS_007.dlis                               :DLIS File Name
FILE-ID.     LIS   .003                                :File Identification Number
#--------------------------------------------------
~WELL INFORMATION
#MNEM.UNIT      DATA             DESCRIPTION
#---- ------ --------------   -----------------------------
STRT .M      5238.7500       :START DEPTH     
STOP .M      4241.4444       :STOP DEPTH     
STEP .M        -0.1524       :STEP     
NULL .          -999.25      :NULL VALUE
COMP .        PETROBRAS S.A.                           :COMPANY
WELL .        3-BRSA-293D-SPS                          :WELL
FLD  .        BS-400                                   :FIELD
LOC  .        BASE SAD 69:                             :LOCATION
CNTY .        SANTOS                                   :COUNTY
STAT .        BRASIL                                   :STATE
CTRY .        SANTOS                                   :COUNTRY
API  .                                                 :API NUMBER
UWI  .                                                 :UNIQUE WELL ID
DATE .        23/10/2004                               :LOG DATE
SRVC .        Schlumberger                             :SERVICE COMPANY
LATI .DEG                                              :LATITUDE
LONG .DEG                                              :LONGITUDE
GDAT .                                                 :GeoDetic Datum
#-----------------------------------------------------------------------------
~PARAMETER INFORMATION
#MNEM.UNIT    VALUE                      DESCRIPTION
#---- -----   --------------------       ------------------------
APD  .M               24                 :
BHT  .DEGF           280                 :
BLI  .M             5230                 :
BS   .IN         8.50000                 :
CN   .        PETROBRAS S.A.             :
COUN .        SANTOS                     :
CS   .IN         9.62500                 :
DATE .        23/10/2004                 :
DFD  .LB/G      12.30000                 :
DFL  .C3               2                 :
DFPH .        N/A                        :
DFT  .        SINTETICO                  :
DFV  .S               87                 :
DMF  .        MESA ROTATIVA              :
EDF  .M               24                 :
EGL  .M             -500                 :
EKB  .        N/A                        :
ENGI .        HERNANDEZ/LOCK             :
FL1  .        X   7292392.00 M LAT 24 28 47.189 S :
FL2  .        Y    584087.00 M LON 44 10 12.698 W :
FL3  .        MC  45 GRAUS               :
FN   .        BS-400                     :
LMF  .        MESA ROTATIVA              :
LUL  .        MACAE                      :
MCSS .        PRENSA                     :
MCST .DEGF            80                 :
MFSS .        PRENSA                     :
MFST .DEGF            80                 :
MSS  .        LINHA DE FLUXO             :
MST  .DEGF            80                 :
PDAT .        NIVEL DO MAR               :
R1   .        01. APRESENTAÇÃO DE ACORDO COM REQUERIMENTO DO CLIENTE :
R2   .        02. TEMPERATURA MÁXIMA DO POÇO T1=T2= 260 DEGF @  5180 M :
R3   .        03. INICIO DA CIRCULAÇÃO  13 45 H 21/10/2004 :
R4   .        04. FINAL DA CIRCULAÇÃO   16 00 H 21/10/2004 :
R5   .        05. TEMPO TOTAL DE CIRCULAÇÃO  02 15 H :
R6   .        06. FLUIDO DE PERFURAÇÃO  SINTETICO (BR-MUL  BR-MI)  65% TEOR DO OLEO :
R7   .        07. SALINIDADE DA LAMA  266377 PPM NACL NA FASE DE AGUA :
R8   .        08. INCLINAÇÃO MÁXIMA DO POÇO  37.37 GRAUS @ 5100 M :
R9   .        09. PRIMEIRAS E ULTIMAS LEITURAS  :
RMB  .OHMM    > 10                       :
RMCS .OHMM    > 10                       :
RMFS .OHMM    > 10                       :
RMS  .OHMM    > 10                       :
RUN  .                 1                 :
STAT .        BRASIL                     :
TCS  .        16 00 H                    :
TDD  .M             5230                 :
TDL  .M             5231                 :
TLAB .        N/A                        :
TLI  .M             4277                 :
WITN .        ALCIDIO/VLADIMIR           :
WN   .        3-BRSA-293D-SPS            :
LUN  .              8808                 :
HIDE .        3-SPS-41D                  :
HID2 .        COMPENSATED Z-DENSILOG     :
HID3 .        COMPENSATED NEUTRON LOG    :
HID4 .        GAMMA RAY LOG              :
HID5 .        TTRM SUB                   :
CLAB .        BACIA                      :
SLAB .        PAIS                       :
CMT1 .        ESC  1 1000                :
CMT2 .        PROF. MEDIDA               :
CMT4 .        SONDA  SS-43               :
HDAT .        SAD 69                     :
FL   .        BASE SAD 69                :
OS1  .        HDIL/XMAC/SL/GR            :
OS3  .        MREX/GR                    :
OS5  .        SL/GR                      :
LNAM .        MREX/ZDL/CN/XMAC/HDIL/3DEX/RCI/SL/GR :
TOOL .        MREX/ZDL/CN/XMAC/HDIL/3DEX/RCI/SL/GR :
LSOU .        PETROBRAS                  :
LSRV .        OH WIRELINE                :
LTYP .        RAW                        :
EPD  .M                0                 :
LDAT .        23/10/2004                 :
TRIP .                 1                 :
SON  .            772317                 :
CBDR .M             4277                 :
CBLO .M             4277                 :
CBL1 .M             4277                 :
STEM .DEGF    N/A                        :
BSAL .            266377                 :
BARI .        OFF                        :
DLAB .        21/10/2004                 :
MRT  .DEGF           280                 :
TSTR .        ZDL/CN/GR/TTRM             :
TSTG .        N/A                        :
STUS .        FINAL                      :
LCNM .        BAKER ATLAS                :
LCC  .               150                 :
NATI .        SANTOS                     :
OPMD .        OH.WIRELINE                :
PANA .        HERNANDEZ/LOCK             :
PCON .        BAKER ATLAS                :
R11  .        GR     5222.5 M/4277.0 M   :
R12  .        ZDL    5230.0 M/4277.0 M   :
R13  .        CN     5224.0 M/4277.0 M   :
R15  .        10. PONTO FRACO UTILIZADO  10K :
R17  .        12. DECLINAÇÃO MAGNETICA  -20.9 GRAUS :
R18  .        13. COORDENADAS BASE       :
R21  .        Y    583936.00 M           :
R22  .        MC  45 GRAUS               :
PVER .           4.10000                 :
WDFN .        /space/expusr/3-SPS-41D/i77bf07_4spf.xtf :
OCT  .        i77bf                      :
0S2  .        3DEX/GR                    :
OS4  .        RCI/GR                     :
R16  .        11. CNC CORREGIDO PELO CALIPER E SALINIDADE  PRESENTADO MATRIZ CARBONATO :
R20  .        X   7292512.00 M           :
R24  .        14. CADASTRO ANP  86316021017 :
#-----------------------------------------------------------------------------
~CURVE INFORMATION
#MNEM.UNIT   API CODE                                  DESCRIPTION
#---- -----  --------                                  -----------------------
DEPT .M                                                :DEPTH (BOREHOLE) {F10.4}
DEPT .M                                                : {F13.4}
BIT  .IN                                               : {F13.4}
DEPM .M                                                : {F13.4}
GR   .GAPI                                             : {F13.4}
SPD  .M/MN                                             : {F13.4}
TEN  .LBF                                              : {F13.4}
TTEN .LBF                                              : {F13.4}
CAL  .IN                                               : {F13.4}
CALX .IN                                               : {F13.4}
HRD1 .HZ                                               : {F13.4}
HRD2 .HZ                                               : {F13.4}
PE   .B/E                                              : {F13.4}
SFT2 .HZ                                               : {F13.4}
SOFT .HZ                                               : {F13.4}
SSD  .HZ                                               : {F13.4}
ZCOR .G/C3                                             : {F13.4}
ZDEN .G/C3                                             : {F13.4}
CNC  .PU                                               : {F13.4}
CN   .PU                                               : {F13.4}
LSN  .HZ                                               : {F13.4}
SSN  .HZ                                               : {F13.4}
CNCF .PU                                               : {F13.4}
#-----------------------------------------------------------------------------
# DEPT       
#     DEPT         BIT          DEPM         GR           SPD          TEN          
#     TTEN         CAL          CALX         HRD1         HRD2         PE           
#     SFT2         SOFT         SSD          ZCOR         ZDEN         CNC          
#     CN           LSN          SSN          CNCF         
~A  
# ...
4978.4508
   4978.4508       8.5000    4977.9176      64.8109       5.1149     -50.7460
   6222.8845       8.6666       8.6666     629.8046     875.0449       5.4819
    520.5685     368.3246    6265.6644      -0.0419       2.5497      17.7499
     18.0314    1349.5116    3231.1661      17.7499
4978.2984
   4978.2984       8.5000    4977.7652      64.8617       5.1171     -34.1670
   6238.7936       8.6666       8.6666     636.7667     880.6654       5.5086
    516.7515     370.0683    6270.7161      -0.0434       2.5462      17.4856
     17.7653    1368.3883    3250.6808      17.4856
4978.1460
   4978.1460       8.5000    4977.6128      63.8041       5.1270     -17.2016
   6255.3579       8.6646       8.6646     652.1224     892.4107       5.5401
    517.5854     370.0223    6277.6176      -0.0472       2.5398      17.5487
     17.8272    1364.1480    3246.5828      17.5487
4977.9936
   4977.9936       8.5000    4977.4604      61.6880       5.1316     -16.6032
   6255.6439       8.6638       8.6638     656.8013     899.5178       5.5785
    517.3959     369.3394    6285.0068      -0.0482       2.5368      17.7364
     18.0157    1344.3273    3217.2727      17.7364
4977.8412
   4977.8412       8.5000    4977.3080      60.1076       5.1246     -26.8458
   6244.9879       8.6643       8.6643     654.8368     896.1356       5.5985
    512.8211     368.7937    6300.5380      -0.0450       2.5381      17.6755
     17.9548    1331.1337    3179.9882      17.6755
4977.6888
   4977.6888       8.5000    4977.1556      59.8528       5.1184     -33.5435
   6237.7582       8.6644       8.6644     655.7730     887.3853       5.5852
    511.3106     369.2316    6313.6181      -0.0418       2.5401      17.5223
     17.8005    1327.9970    3158.0423      17.5223
4977.5364
   4977.5364       8.5000    4977.0032      59.8544       5.1181     -25.2537
   6245.5920       8.6642       8.6642     651.1837     891.8242       5.6766
    516.7977     367.3119    6307.1199      -0.0427       2.5402      17.3931
     17.6703    1331.0259    3152.9756      17.3931
4977.3840
   4977.3840       8.5000    4976.8508      60.3860       5.1162      -7.5236
   6263.1489       8.6643       8.6643     641.3791     909.7880       5.9872
    522.4580     358.3012    6291.7019      -0.0463       2.5382      17.1147
     17.3899    1342.3748    3153.1230      17.1147
4977.2316
   4977.2316       8.5000    4976.6984      61.2278       5.1118      -1.8127
   6268.8714       8.6633       8.6633     636.6045     919.3465       6.0686
    521.8924     356.8965    6296.0353      -0.0465       2.5372      16.8721
     17.1448    1353.6026    3155.8080      16.8721
4977.0792
   4977.0792       8.5000    4976.5460      61.0380       5.1110     -12.3074
   6258.2660       8.6621       8.6621     640.3926     906.0470       5.6801
    518.3692     370.5850    6317.2985      -0.0418       2.5395      17.0434
     17.3165    1349.4914    3162.7760      17.0434
4976.9268
   4976.9268       8.5000    4976.3926      60.1760       5.1215     -18.8442
   6251.4248       8.6628       8.6628     651.2273     878.5890       5.2513
    516.3379     380.5182    6322.8008      -0.0381       2.5437      17.4193
     17.6956    1335.6736    3166.3818      17.4193
4976.7744
   4976.7744       8.5000    4976.2402      59.9835       5.1312     -15.0621
   6254.8887       8.6646       8.6646     661.1022     857.9878       5.1684
    516.2646     374.1257    6305.9736      -0.0386       2.5466      17.5274
     17.8058    1328.9192    3160.7300      17.5274
4976.6220
   4976.6220       8.5000    4976.0878      60.3786       5.1284     -12.8517
   6256.8550       8.6652       8.6652     659.6626     860.6281       5.3295
    516.9129     366.2229    6294.3084      -0.0405       2.5465      17.2344
     17.5112    1336.2098    3150.1715      17.2344
4976.4696
   4976.4696       8.5000    4975.9354      61.5141       5.1183     -16.5103
   6252.9790       8.6642       8.6642     657.0286     876.6643       5.4676
    515.6695     365.2215    6286.5867      -0.0440       2.5433      16.8741
     17.1474    1347.5685    3141.9939      16.8741
4976.3172
   4976.3172       8.5000    4975.7830      63.9034       5.1087     -20.1345
   6249.1211       8.6638       8.6638     664.5665     880.0043       5.4710
    509.6314     363.3956    6265.6711      -0.0489       2.5413      16.9993
     17.2733    1341.1282    3139.0395      16.9993
4976.1648
   4976.1648       8.5000    4975.6316      65.9483       5.0982     -25.9724
   6242.9684       8.6641       8.6641     663.7488     858.7168       5.4538
    505.5206     356.9394    6232.3076      -0.0498       2.5467      17.5473
     17.8254    1319.9442    3141.2106      17.5473
4976.0124
   4976.0124       8.5000    4975.4792      65.5727       5.0957     -34.3504
   6234.1045       8.6638       8.6638     647.7055     830.1343       5.4485
    505.9147     351.6151    6219.3857      -0.0437       2.5571      17.9925
     18.2736    1304.5215    3145.6210      17.9925
4975.8600
   4975.8600       8.5000    4975.3268      63.4670       5.1114     -39.9506
   6227.8644       8.6621       8.6621     635.0183     823.9767       5.4215
    503.4171     351.3392    6224.9944      -0.0394       2.5628      18.0548
     18.3350    1302.4587    3146.2448      18.0548
4975.7076
   4975.7076       8.5000    4975.1744      61.7496       5.1424     -42.5169
   6224.5729       8.6602       8.6602     630.2557     837.2230       5.3979
    499.7952     354.1901    6214.5174      -0.0425       2.5626      18.0185
     18.2969    1300.6489    3138.4111      18.0185
4975.5552
   4975.5552       8.5000    4975.0220      61.5380       5.1593     -37.1197
   6229.2818       8.6598       8.6598     623.5129     838.4653       5.4133
    505.7745     355.9341    6186.3416      -0.0455       2.5640      18.1356
     18.4145    1292.2901    3128.8601      18.1356
4975.4028
   4975.4028       8.5000    4974.8696      61.7662       5.1455      -8.3855
   6257.6553       8.6608       8.6608     617.2544     831.2691       5.4502
    514.4688     352.5712    6179.5860      -0.0440       2.5663      18.4689
     18.7507    1282.2137    3134.4624      18.4689
4975.2504
   4975.2504       8.5000    4974.7172      61.5407       5.1204      33.2125
   6299.4792       8.6619       8.6619     620.6503     842.6923       5.4979
    509.2642     350.2719    6189.2565      -0.0454       2.5620      18.7153
     18.9994    1282.3686    3156.9125      18.7153
4975.0980
   4975.0980       8.5000    4974.5648      60.8076       5.0563      45.2564
   6312.0672       8.6617       8.6617     639.6176     867.5494       5.5481
    497.4805     354.1045    6199.0577      -0.0519       2.5515      18.4526
     18.7349    1299.4505    3175.1797      18.4526
4974.9456
   4974.9456       8.5000    4974.4124      61.2921       4.9510      25.7970
   6292.9462       8.6611       8.6611     664.7417     874.4472       5.5694
    497.9669     359.9980    6230.5201      -0.0530       2.5439      17.9538
     18.2326    1316.9585    3171.8313      17.9538
4974.7932
   4974.7932       8.5000    4974.2600      63.8397       4.9108      20.7552
   6288.0734       8.6617       8.6617     674.7639     859.2629       5.3482
    512.6829     365.1661    6273.9919      -0.0458       2.5446      17.8659
     18.1445    1311.6820    3151.0206      17.8659
4974.6408
   4974.6408       8.5000    4974.1076      66.5095       4.9855      34.8031
   6302.5071       8.6621       8.6621     663.7140     843.5951       5.1433
    521.7558     369.3394    6295.9971      -0.0380       2.5503      18.1089
     18.3894    1291.8097    3125.4352      18.1089
4974.4884
   4974.4884       8.5000    4973.9542      67.3551       5.0455      30.1595
   6298.3508       8.6611       8.6611     644.8974     844.6249       5.2112
    514.1751     366.8392    6292.7687      -0.0352       2.5541      18.2377
     18.5183    1279.7575    3107.7816      18.2377
4974.3360
   4974.3360       8.5000    4973.8018      67.1502       5.0349       6.3112
   6274.6802       8.6595       8.6595     636.7401     858.2910       5.5259
    500.5312     356.2995    6278.8160      -0.0382       2.5528      18.2716
     18.5511    1278.7426    3108.2407      18.2716
