~VERSION INFORMATION
VERS.           2.0   :CWLS Log ASCII Standard - VERSION 2.0
WRAP.           YES   :Multiple lines per depth step
PROD.  Schlumberger   :LAS Producer
PROG.  DLIS to ASCII 2.3                               :LAS Program name and version
CREA.        2023/07/14 00:15                          :LAS Creation date {YYYY/MM/DD hh:mm}
DLIS_CREA.  2023-Jul-14 00:11                          :DLIS Creation date and time {YYYY-MMM-DD hh:mm}
SOURCE.     LIS_007.dlis                               :DLIS File Name
FILE-ID.     LIS   .003                                :File Identification Number
#--------------------------------------------------
~WELL INFORMATION
#MNEM.UNIT      DATA             DESCRIPTION
#---- ------ --------------   -----------------------------
STRT .M      5238.7500       :START DEPTH     
STOP .M      4241.4444       :STOP DEPTH     
STEP .M        -0.1524       :STEP     
NULL .          -999.25      :NULL VALUE
COMP .        PETROBRAS S.A.                           :COMPANY
WELL .        3-BRSA-293D-SPS                          :WELL
FLD  .        BS-400                                   :FIELD
LOC  .        BASE SAD 69:                             :LOCATION
CNTY .        SANTOS                                   :COUNTY
STAT .        BRASIL                                   :STATE
CTRY .        SANTOS                                   :COUNTRY
API  .                                                 :API NUMBER
UWI  .                                                 :UNIQUE WELL ID
DATE .        23/10/2004                               :LOG DATE
SRVC .        Schlumberger                             :SERVICE COMPANY
LATI .DEG                                              :LATITUDE
LONG .DEG                                              :LONGITUDE
GDAT .                                                 :GeoDetic Datum
#-----------------------------------------------------------------------------
~PARAMETER INFORMATION
#MNEM.UNIT    VALUE                      DESCRIPTION
#---- -----   --------------------       ------------------------
APD  .M               24                 :
BHT  .DEGF           280                 :
BLI  .M             5230                 :
BS   .IN         8.50000                 :
CN   .        PETROBRAS S.A.             :
COUN .        SANTOS                     :
CS   .IN         9.62500                 :
DATE .        23/10/2004                 :
DFD  .LB/G      12.30000                 :
DFL  .C3               2                 :
DFPH .        N/A                        :
DFT  .        SINTETICO                  :
DFV  .S               87                 :
DMF  .        MESA ROTATIVA              :
EDF  .M               24                 :
EGL  .M             -500                 :
EKB  .        N/A                        :
ENGI .        HERNANDEZ/LOCK             :
FL1  .        X   7292392.00 M LAT 24 28 47.189 S :
FL2  .        Y    584087.00 M LON 44 10 12.698 W :
FL3  .        MC  45 GRAUS               :
FN   .        BS-400                     :
LMF  .        MESA ROTATIVA              :
LUL  .        MACAE                      :
MCSS .        PRENSA                     :
MCST .DEGF            80                 :
MFSS .        PRENSA                     :
MFST .DEGF            80                 :
MSS  .        LINHA DE FLUXO             :
MST  .DEGF            80                 :
PDAT .        NIVEL DO MAR               :
R1   .        01. APRESENTAÇÃO DE ACORDO COM REQUERIMENTO DO CLIENTE :
R2   .        02. TEMPERATURA MÁXIMA DO POÇO T1=T2= 260 DEGF @  5180 M :
R3   .        03. INICIO DA CIRCULAÇÃO  13 45 H 21/10/2004 :
R4   .        04. FINAL DA CIRCULAÇÃO   16 00 H 21/10/2004 :
R5   .        05. TEMPO TOTAL DE CIRCULAÇÃO  02 15 H :
R6   .        06. FLUIDO DE PERFURAÇÃO  SINTETICO (BR-MUL  BR-MI)  65% TEOR DO OLEO :
R7   .        07. SALINIDADE DA LAMA  266377 PPM NACL NA FASE DE AGUA :
R8   .        08. INCLINAÇÃO MÁXIMA DO POÇO  37.37 GRAUS @ 5100 M :
R9   .        09. PRIMEIRAS E ULTIMAS LEITURAS  :
RMB  .OHMM    > 10                       :
RMCS .OHMM    > 10                       :
RMFS .OHMM    > 10                       :
RMS  .OHMM    > 10                       :
RUN  .                 1                 :
STAT .        BRASIL                     :
TCS  .        16 00 H                    :
TDD  .M             5230                 :
TDL  .M             5231                 :
TLAB .        N/A                        :
TLI  .M             4277                 :
WITN .        ALCIDIO/VLADIMIR           :
WN   .        3-BRSA-293D-SPS            :
LUN  .              8808                 :
HIDE .        3-SPS-41D                  :
HID2 .        COMPENSATED Z-DENSILOG     :
HID3 .        COMPENSATED NEUTRON LOG    :
HID4 .        GAMMA RAY LOG              :
HID5 .        TTRM SUB                   :
CLAB .        BACIA                      :
SLAB .        PAIS                       :
CMT1 .        ESC  1 1000                :
CMT2 .        PROF. MEDIDA               :
CMT4 .        SONDA  SS-43               :
HDAT .        SAD 69                     :
FL   .        BASE SAD 69                :
OS1  .        HDIL/XMAC/SL/GR            :
OS3  .        MREX/GR                    :
OS5  .        SL/GR                      :
LNAM .        MREX/ZDL/CN/XMAC/HDIL/3DEX/RCI/SL/GR :
TOOL .        MREX/ZDL/CN/XMAC/HDIL/3DEX/RCI/SL/GR :
LSOU .        PETROBRAS                  :
LSRV .        OH WIRELINE                :
LTYP .        RAW                        :
EPD  .M                0                 :
LDAT .        23/10/2004                 :
TRIP .                 1                 :
SON  .            772317                 :
CBDR .M             4277                 :
CBLO .M             4277                 :
CBL1 .M             4277                 :
STEM .DEGF    N/A                        :
BSAL .            266377                 :
BARI .        OFF                        :
DLAB .        21/10/2004                 :
MRT  .DEGF           280                 :
TSTR .        ZDL/CN/GR/TTRM             :
TSTG .        N/A                        :
STUS .        FINAL                      :
LCNM .        BAKER ATLAS                :
LCC  .               150                 :
NATI .        SANTOS                     :
OPMD .        OH.WIRELINE                :
PANA .        HERNANDEZ/LOCK             :
PCON .        BAKER ATLAS                :
R11  .        GR     5222.5 M/4277.0 M   :
R12  .        ZDL    5230.0 M/4277.0 M   :
R13  .        CN     5224.0 M/4277.0 M   :
R15  .        10. PONTO FRACO UTILIZADO  10K :
R17  .        12. DECLINAÇÃO MAGNETICA  -20.9 GRAUS :
R18  .        13. COORDENADAS BASE       :
R21  .        Y    583936.00 M           :
R22  .        MC  45 GRAUS               :
PVER .           4.10000                 :
WDFN .        /space/expusr/3-SPS-41D/i77bf07_4spf.xtf :
OCT  .        i77bf                      :
0S2  .        3DEX/GR                    :
OS4  .        RCI/GR                     :
R16  .        11. CNC CORREGIDO PELO CALIPER E SALINIDADE  PRESENTADO MATRIZ CARBONATO :
R20  .        X   7292512.00 M           :
R24  .        14. CADASTRO ANP  86316021017 :
#-----------------------------------------------------------------------------
~CURVE INFORMATION
#MNEM.UNIT   API CODE                                  DESCRIPTION
#---- -----  --------                                  -----------------------
DEPT .M                                                :DEPTH (BOREHOLE) {F10.4}
DEPT .M                                                : {F13.4}
BIT  .IN                                               : {F13.4}
DEPM .M                                                : {F13.4}
GR   .GAPI                                             : {F13.4}
SPD  .M/MN                                             : {F13.4}
TEN  .LBF                                              : {F13.4}
TTEN .LBF                                              : {F13.4}
CAL  .IN                                               : {F13.4}
CALX .IN                                               : {F13.4}
HRD1 .HZ                                               : {F13.4}
HRD2 .HZ                                               : {F13.4}
PE   .B/E                                              : {F13.4}
SFT2 .HZ                                               : {F13.4}
SOFT .HZ                                               : {F13.4}
SSD  .HZ                                               : {F13.4}
ZCOR .G/C3                                             : {F13.4}
ZDEN .G/C3                                             : {F13.4}
CNC  .PU                                               : {F13.4}
CN   .PU                                               : {F13.4}
LSN  .HZ                                               : {F13.4}
SSN  .HZ                                               : {F13.4}
CNCF .PU                                               : {F13.4}
#-----------------------------------------------------------------------------
# DEPT       
#     DEPT         BIT          DEPM         GR           SPD          TEN          
#     TTEN         CAL          CALX         HRD1         HRD2         PE           
#     SFT2         SOFT         SSD          ZCOR         ZDEN         CNC          
#     CN           LSN          SSN          CNCF         
~A  
# ...
4713.8844
   4713.8844       8.5000    4713.3512      73.7640       6.3708     326.4016
   6342.8660       8.8045       8.8045     580.8067     828.7853       6.1274
    458.6355     319.1572    6155.1252      -0.0403       2.5813      19.1820
     19.5808    1269.7317    3176.4417      19.1820
4713.7320
   4713.7320       8.5000    4713.1988      73.9326       6.3859     211.5671
   6231.4543       8.8053       8.8053     576.7510     818.3965       6.1773
    460.5689     318.8991    6132.2322      -0.0408       2.5844      19.2931
     19.6935    1259.3517    3160.1444      19.2931
4713.5796
   4713.5796       8.5000    4713.0464      74.1482       6.3733      44.2220
   6065.5720       8.8067       8.8067     587.2754     834.2530       6.2179
    472.0065     326.4579    6145.9968      -0.0439       2.5775      19.3428
     19.7448    1246.0351    3131.0713      19.3428
4713.4272
   4713.4272       8.5000    4712.8940      74.1419       6.3547     -49.1404
   5972.0350       8.8069       8.8069     602.0406     859.6848       6.2765
    482.3498     332.5270    6164.9434      -0.0486       2.5667      19.4006
     19.8034    1235.0142    3108.2940      19.4006
4713.2748
   4713.2748       8.5000    4712.7416      74.7242       6.3538     -51.8702
   5968.6497       8.8074       8.8074     609.1079     876.8778       6.3866
    480.7412     331.1654    6185.7219      -0.0500       2.5598      19.6516
     20.0570    1223.2708    3099.7421      19.6516
4713.1224
   4713.1224       8.5000    4712.5892      76.0017       6.3602     -39.6928
   5980.3064       8.8085       8.8085     607.1083     883.2952       6.4549
    468.3306     325.7393    6220.3389      -0.0458       2.5584      19.9753
     20.3846    1211.0422    3095.4483      19.9753
4712.9700
   4712.9700       8.5000    4712.4368      77.1198       6.3534     -43.2543
   5976.2707       8.8084       8.8084     603.5775     872.9555       6.4684
    461.4281     325.1914    6240.8474      -0.0403       2.5616      20.1739
     20.5849    1199.9422    3083.1594      20.1739
4712.8176
   4712.8176       8.5000    4712.2844      77.1478       6.3372     -51.4732
   5967.4897       8.8072       8.8072     606.2928     850.5895       6.2392
    470.7924     330.5808    6219.9296      -0.0397       2.5665      19.9179
     20.3256    1201.5049    3066.3187      19.9179
4712.6652
   4712.6652       8.5000    4712.1320      76.0042       6.3410     -57.0575
   5961.2342       8.8058       8.8058     613.7650     831.7640       6.1492
    486.6343     333.6575    6191.5932      -0.0417       2.5696      19.1945
     19.5944    1223.9672    3063.0882      19.1945
4712.5128
   4712.5128       8.5000    4711.9796      74.9617       6.3701     -58.0127
   5959.5400       8.8050       8.8050     616.4353     829.5583       6.1316
    497.7252     331.4716    6180.7144      -0.0434       2.5700      18.5546
     18.9475    1254.4324    3083.6365      18.5546
4712.3604
   4712.3604       8.5000    4711.8262      74.7499       6.3787     -50.3659
   5966.4941       8.8049       8.8049     604.7909     840.8590       6.0513
    503.8912     331.6946    6171.5186      -0.0447       2.5707      18.6170
     19.0104    1264.4573    3113.7783      18.6170
4712.2080
   4712.2080       8.5000    4711.6738      74.3353       6.3480     -38.1095
   5978.1904       8.8045       8.8045     583.0908     846.0226       6.0436
    499.2581     333.8529    6161.4580      -0.0430       2.5759      19.2139
     19.6129    1251.1345    3132.6577      19.2139
4712.0556
   4712.0556       8.5000    4711.5214      72.9577       6.3168     -28.1896
   5987.6640       8.8031       8.8031     566.2291     826.4248       6.1145
    486.2830     331.4124    6149.8542      -0.0378       2.5860      19.7090
     20.1116    1235.7033    3135.7965      19.7090
4711.9032
   4711.9032       8.5000    4711.3690      71.4337       6.3128     -20.3992
   5995.0946       8.8021       8.8021     562.3130     801.0553       6.1539
    479.9136     324.9527    6125.9916      -0.0356       2.5943      19.6918
     20.0935    1234.3578    3130.8748      19.6918
4711.7508
   4711.7508       8.5000    4711.2166      70.6454       6.3199      -8.0984
   6007.1898       8.8014       8.8014     565.7813     798.2279       6.1906
    484.2077     317.1227    6102.7163      -0.0391       2.5943      19.5661
     19.9661    1238.3392    3130.3151      19.5661
4711.5984
   4711.5984       8.5000    4711.0642      70.6352       6.3217       3.9591
   6019.2284       8.8005       8.8005     577.4460     813.6792       6.3608
    480.2877     307.1410    6116.7905      -0.0423       2.5872      19.7486
     20.1494    1236.8275    3141.8074      19.7486
4711.4460
   4711.4460       8.5000    4710.9128      70.5708       6.3176       9.1915
   6024.5596       8.8005       8.8005     591.6360     823.4575       6.5133
    463.4004     302.2390    6149.2463      -0.0422       2.5810      19.8229
     20.2245    1238.4704    3152.2365      19.8229
4711.2936
   4711.2936       8.5000    4710.7604      70.5029       6.3304      -8.8722
   6006.5292       8.8015       8.8015     595.3957     819.8422       6.6047
    450.0064     306.2477    6151.7799      -0.0418       2.5806      19.4452
     19.8441    1248.2323    3145.0083      19.4452
4711.1412
   4711.1412       8.5000    4710.6080      71.6807       6.3541     -60.4343
   5954.5451       8.8018       8.8018     592.8498     814.5173       6.6548
    447.8441     305.7931    6126.3175      -0.0441       2.5829      18.9304
     19.3247    1259.7625    3129.4416      18.9304
4710.9888
   4710.9888       8.5000    4710.4556      73.0224       6.3541    -117.8526
   5895.9694       8.8012       8.8012     592.7549     809.8087       6.9233
    443.8416     292.5405    6106.1691      -0.0461       2.5854      18.6156
     19.0063    1267.6037    3121.1613      18.6156
4710.8364
   4710.8364       8.5000    4710.3032      72.6792       6.3311    -137.5464
   5874.6116       8.7996       8.7996     582.8374     805.4947       7.3329
    440.2493     278.8907    6098.5005      -0.0445       2.5891      18.4940
     18.8822    1271.0821    3118.8340      18.4940
4710.6840
   4710.6840       8.5000    4710.1508      72.3962       6.3169    -116.3233
   5894.2163       8.7986       8.7986     569.6109     817.9412       7.5125
    447.5817     276.0051    6102.3640      -0.0438       2.5892      18.5785
     18.9668    1268.0274    3118.7504      18.5785
4710.5316
   4710.5316       8.5000    4709.9984      74.1967       6.3144     -92.9307
   5916.2503       8.7994       8.7994     573.5783     837.2936       7.3988
    456.7977     280.6467    6120.6307      -0.0456       2.5848      18.5556
     18.9442    1268.2018    3117.2035      18.5556
4710.3792
   4710.3792       8.5000    4709.8460      76.3035       6.3090     -89.3787
   5918.5295       8.8030       8.8030     582.5911     831.6559       7.2108
    453.4149     286.1808    6153.6884      -0.0414       2.5845      18.5198
     18.9108    1263.3252    3102.2993      18.5198
4710.2268
   4710.2268       8.5000    4709.6936      76.8676       6.3055     -97.8751
   5908.6588       8.8132       8.8132     583.7694     814.1553       7.0319
    442.8687     288.9589    6181.4959      -0.0342       2.5888      18.8691
     19.2715    1240.0021    3075.8310      18.8691
4710.0744
   4710.0744       8.5000    4709.5412      75.6426       6.3239    -109.5091
   5895.5150       8.8289       8.8289     586.4368     805.1649       6.8591
    436.2668     291.0942    6167.8065      -0.0350       2.5923      19.3636
     19.7832    1215.0635    3056.4206      19.3636
4709.9220
   4709.9220       8.5000    4709.3878      73.4695       6.3607    -123.2743
   5880.0949       8.8408       8.8408     587.9857     793.1442       6.5882
    436.1732     296.2904    6121.7041      -0.0397       2.5965      19.4579
     19.8877    1208.4136    3048.2596      19.4579
4709.7696
   4709.7696       8.5000    4709.2354      73.1621       6.3750    -121.9170
   5879.7796       8.8443       8.8443     578.7717     783.3802       6.3905
    441.3469     302.1911    6101.6951      -0.0389       2.6024      19.2710
     19.7016    1210.9813    3039.4350      19.2710
