~VERSION INFORMATION
VERS.           2.0   :CWLS Log ASCII Standard - VERSION 2.0
WRAP.           YES   :Multiple lines per depth step
PROD.  Schlumberger   :LAS Producer
PROG.  DLIS to ASCII 2.3                               :LAS Program name and version
CREA.        2023/07/14 00:15                          :LAS Creation date {YYYY/MM/DD hh:mm}
DLIS_CREA.  2023-Jul-14 00:11                          :DLIS Creation date and time {YYYY-MMM-DD hh:mm}
SOURCE.     LIS_007.dlis                               :DLIS File Name
FILE-ID.     LIS   .003                                :File Identification Number
#--------------------------------------------------
~WELL INFORMATION
#MNEM.UNIT      DATA             DESCRIPTION
#---- ------ --------------   -----------------------------
STRT .M      5238.7500       :START DEPTH     
STOP .M      4241.4444       :STOP DEPTH     
STEP .M        -0.1524       :STEP     
NULL .          -999.25      :NULL VALUE
COMP .        PETROBRAS S.A.                           :COMPANY
WELL .        3-BRSA-293D-SPS                          :WELL
FLD  .        BS-400                                   :FIELD
LOC  .        BASE SAD 69:                             :LOCATION
CNTY .        SANTOS                                   :COUNTY
STAT .        BRASIL                                   :STATE
CTRY .        SANTOS                                   :COUNTRY
API  .                                                 :API NUMBER
UWI  .                                                 :UNIQUE WELL ID
DATE .        23/10/2004                               :LOG DATE
SRVC .        Schlumberger                             :SERVICE COMPANY
LATI .DEG                                              :LATITUDE
LONG .DEG                                              :LONGITUDE
GDAT .                                                 :GeoDetic Datum
#-----------------------------------------------------------------------------
~PARAMETER INFORMATION
#MNEM.UNIT    VALUE                      DESCRIPTION
#---- -----   --------------------       ------------------------
APD  .M               24                 :
BHT  .DEGF           280                 :
BLI  .M             5230                 :
BS   .IN         8.50000                 :
CN   .        PETROBRAS S.A.             :
COUN .        SANTOS                     :
CS   .IN         9.62500                 :
DATE .        23/10/2004                 :
DFD  .LB/G      12.30000                 :
DFL  .C3               2                 :
DFPH .        N/A                        :
DFT  .        SINTETICO                  :
DFV  .S               87                 :
DMF  .        MESA ROTATIVA              :
EDF  .M               24                 :
EGL  .M             -500                 :
EKB  .        N/A                        :
ENGI .        HERNANDEZ/LOCK             :
FL1  .        X   7292392.00 M LAT 24 28 47.189 S :
FL2  .        Y    584087.00 M LON 44 10 12.698 W :
FL3  .        MC  45 GRAUS               :
FN   .        BS-400                     :
LMF  .        MESA ROTATIVA              :
LUL  .        MACAE                      :
MCSS .        PRENSA                     :
MCST .DEGF            80                 :
MFSS .        PRENSA                     :
MFST .DEGF            80                 :
MSS  .        LINHA DE FLUXO             :
MST  .DEGF            80                 :
PDAT .        NIVEL DO MAR               :
R1   .        01. APRESENTAÇÃO DE ACORDO COM REQUERIMENTO DO CLIENTE :
R2   .        02. TEMPERATURA MÁXIMA DO POÇO T1=T2= 260 DEGF @  5180 M :
R3   .        03. INICIO DA CIRCULAÇÃO  13 45 H 21/10/2004 :
R4   .        04. FINAL DA CIRCULAÇÃO   16 00 H 21/10/2004 :
R5   .        05. TEMPO TOTAL DE CIRCULAÇÃO  02 15 H :
R6   .        06. FLUIDO DE PERFURAÇÃO  SINTETICO (BR-MUL  BR-MI)  65% TEOR DO OLEO :
R7   .        07. SALINIDADE DA LAMA  266377 PPM NACL NA FASE DE AGUA :
R8   .        08. INCLINAÇÃO MÁXIMA DO POÇO  37.37 GRAUS @ 5100 M :
R9   .        09. PRIMEIRAS E ULTIMAS LEITURAS  :
RMB  .OHMM    > 10                       :
RMCS .OHMM    > 10                       :
RMFS .OHMM    > 10                       :
RMS  .OHMM    > 10                       :
RUN  .                 1                 :
STAT .        BRASIL                     :
TCS  .        16 00 H                    :
TDD  .M             5230                 :
TDL  .M             5231                 :
TLAB .        N/A                        :
TLI  .M             4277                 :
WITN .        ALCIDIO/VLADIMIR           :
WN   .        3-BRSA-293D-SPS            :
LUN  .              8808                 :
HIDE .        3-SPS-41D                  :
HID2 .        COMPENSATED Z-DENSILOG     :
HID3 .        COMPENSATED NEUTRON LOG    :
HID4 .        GAMMA RAY LOG              :
HID5 .        TTRM SUB                   :
CLAB .        BACIA                      :
SLAB .        PAIS                       :
CMT1 .        ESC  1 1000                :
CMT2 .        PROF. MEDIDA               :
CMT4 .        SONDA  SS-43               :
HDAT .        SAD 69                     :
FL   .        BASE SAD 69                :
OS1  .        HDIL/XMAC/SL/GR            :
OS3  .        MREX/GR                    :
OS5  .        SL/GR                      :
LNAM .        MREX/ZDL/CN/XMAC/HDIL/3DEX/RCI/SL/GR :
TOOL .        MREX/ZDL/CN/XMAC/HDIL/3DEX/RCI/SL/GR :
LSOU .        PETROBRAS                  :
LSRV .        OH WIRELINE                :
LTYP .        RAW                        :
EPD  .M                0                 :
LDAT .        23/10/2004                 :
TRIP .                 1                 :
SON  .            772317                 :
CBDR .M             4277                 :
CBLO .M             4277                 :
CBL1 .M             4277                 :
STEM .DEGF    N/A                        :
BSAL .            266377                 :
BARI .        OFF                        :
DLAB .        21/10/2004                 :
MRT  .DEGF           280                 :
TSTR .        ZDL/CN/GR/TTRM             :
TSTG .        N/A                        :
STUS .        FINAL                      :
LCNM .        BAKER ATLAS                :
LCC  .               150                 :
NATI .        SANTOS                     :
OPMD .        OH.WIRELINE                :
PANA .        HERNANDEZ/LOCK             :
PCON .        BAKER ATLAS                :
R11  .        GR     5222.5 M/4277.0 M   :
R12  .        ZDL    5230.0 M/4277.0 M   :
R13  .        CN     5224.0 M/4277.0 M   :
R15  .        10. PONTO FRACO UTILIZADO  10K :
R17  .        12. DECLINAÇÃO MAGNETICA  -20.9 GRAUS :
R18  .        13. COORDENADAS BASE       :
R21  .        Y    583936.00 M           :
R22  .        MC  45 GRAUS               :
PVER .           4.10000                 :
WDFN .        /space/expusr/3-SPS-41D/i77bf07_4spf.xtf :
OCT  .        i77bf                      :
0S2  .        3DEX/GR                    :
OS4  .        RCI/GR                     :
R16  .        11. CNC CORREGIDO PELO CALIPER E SALINIDADE  PRESENTADO MATRIZ CARBONATO :
R20  .        X   7292512.00 M           :
R24  .        14. CADASTRO ANP  86316021017 :
#-----------------------------------------------------------------------------
~CURVE INFORMATION
#MNEM.UNIT   API CODE                                  DESCRIPTION
#---- -----  --------                                  -----------------------
DEPT .M                                                :DEPTH (BOREHOLE) {F10.4}
DEPT .M                                                : {F13.4}
BIT  .IN                                               : {F13.4}
DEPM .M                                                : {F13.4}
GR   .GAPI                                             : {F13.4}
SPD  .M/MN                                             : {F13.4}
TEN  .LBF                                              : {F13.4}
TTEN .LBF                                              : {F13.4}
CAL  .IN                                               : {F13.4}
CALX .IN                                               : {F13.4}
HRD1 .HZ                                               : {F13.4}
HRD2 .HZ                                               : {F13.4}
PE   .B/E                                              : {F13.4}
SFT2 .HZ                                               : {F13.4}
SOFT .HZ                                               : {F13.4}
SSD  .HZ                                               : {F13.4}
ZCOR .G/C3                                             : {F13.4}
ZDEN .G/C3                                             : {F13.4}
CNC  .PU                                               : {F13.4}
CN   .PU                                               : {F13.4}
LSN  .HZ                                               : {F13.4}
SSN  .HZ                                               : {F13.4}
CNCF .PU                                               : {F13.4}
#-----------------------------------------------------------------------------
# DEPT       
#     DEPT         BIT          DEPM         GR           SPD          TEN          
#     TTEN         CAL          CALX         HRD1         HRD2         PE           
#     SFT2         SOFT         SSD          ZCOR         ZDEN         CNC          
#     CN           LSN          SSN          CNCF         
~A  
# ...
4649.8764
   4649.8764       8.5000    4649.3432      75.4436       6.3068     958.9020
   7036.0033       8.7549       8.7549     609.9023     818.7798       5.5166
    477.8617     346.1453    6209.0646      -0.0360       2.5745      19.7269
     20.0912    1225.8693    3109.1602      19.7269
4649.7240
   4649.7240       8.5000    4649.1908      76.6260       6.3143    1009.1664
   7099.0655       8.7535       8.7535     605.3242     821.6625       5.4654
    484.2794     350.5512    6217.0579      -0.0346       2.5747      19.3647
     19.7252    1237.9272    3109.0468      19.3647
4649.5716
   4649.5716       8.5000    4649.0384      78.7899       6.3283    1057.8357
   7160.8689       8.7529       8.7529     616.4448     824.1460       5.4111
    491.8096     349.9073    6226.2953      -0.0358       2.5715      19.2811
     19.6404    1240.4543    3108.2363      19.2811
4649.4192
   4649.4192       8.5000    4648.8860      79.0567       6.3360    1095.4761
   7212.5403       8.7535       8.7535     624.6208     824.5868       5.3857
    484.9968     350.6869    6217.5003      -0.0387       2.5697      19.1947
     19.5538    1239.8219    3099.3330      19.1947
4649.2668
   4649.2668       8.5000    4648.7336      77.8659       6.3487    1126.6226
   7258.6505       8.7540       8.7540     617.6128     827.0051       5.4584
    477.5630     348.3962    6198.8241      -0.0405       2.5714      19.0924
     19.4511    1235.7813    3080.5629      19.0924
4649.1144
   4649.1144       8.5000    4648.5812      76.7054       6.3640    1167.9123
   7315.5022       8.7541       8.7541     605.7454     825.1776       5.6810
    483.3198     337.6354    6168.1508      -0.0424       2.5752      18.9137
     19.2708    1233.9880    3060.8580      18.9137
4648.9620
   4648.9620       8.5000    4648.4278      75.9845       6.3595    1217.8420
   7381.2207       8.7545       8.7545     603.0516     818.2956       5.9004
    485.2552     326.2640    6134.4349      -0.0455       2.5783      18.4120
     18.7652    1246.3484    3048.0428      18.4120
4648.8096
   4648.8096       8.5000    4648.2754      75.7106       6.3377    1257.0330
   7436.0713       8.7551       8.7551     604.5935     813.5256       6.0196
    473.8411     320.4581    6112.9580      -0.0481       2.5793      17.8697
     18.2183    1263.9314    3042.8521      17.8697
4648.6572
   4648.6572       8.5000    4648.1230      76.2665       6.3262    1285.4314
   7479.9404       8.7551       8.7551     605.7104     818.4930       6.0823
    465.5719     318.7267    6109.2109      -0.0498       2.5779      17.7636
     18.1112    1271.5469    3051.6289      17.7636
4648.5048
   4648.5048       8.5000    4647.9706      77.4188       6.3274    1323.8325
   7534.2586       8.7548       8.7548     607.1501     823.9233       5.9639
    468.9217     325.2214    6122.6461      -0.0491       2.5760      18.1889
     18.5403    1270.4046    3087.0198      18.1889
4648.3524
   4648.3524       8.5000    4647.8182      77.2619       6.3268    1371.5976
   7599.1715       8.7546       8.7546     612.2987     820.8439       5.5959
    477.6527     339.7601    6153.9373      -0.0449       2.5753      18.9954
     19.3536    1264.4043    3143.4826      18.9954
4648.2000
   4648.2000       8.5000    4647.6658      76.4615       6.3235    1410.1345
   7656.0505       8.7538       8.7538     618.2935     813.2438       5.3069
    486.2266     350.1703    6194.9948      -0.0386       2.5753      19.7164
     20.0798    1257.2087    3187.6767      19.7164
4648.0476
   4648.0476       8.5000    4647.5144      77.5586       6.3288    1440.3440
   7705.0304       8.7523       8.7523     619.9306     818.4310       5.3250
    493.0730     351.0465    6212.8546      -0.0373       2.5740      19.7273
     20.0896    1255.0885    3183.1327      19.7273
4647.8952
   4647.8952       8.5000    4647.3620      80.4259       6.3493    1483.1145
   7767.1726       8.7510       8.7510     613.5030     829.0631       5.4372
    491.7483     348.6027    6200.9001      -0.0398       2.5736      19.0588
     19.4148    1256.2338    3128.4303      19.0588
4647.7428
   4647.7428       8.5000    4647.2096      82.7126       6.3617    1531.7873
   7835.6623       8.7505       8.7505     605.7119     829.1652       5.4738
    479.7872     346.9229    6188.4735      -0.0402       2.5753      18.2216
     18.5700    1260.3723    3065.2445      18.2216
4647.5904
   4647.5904       8.5000    4647.0572      83.6900       6.3457    1559.2043
   7882.6414       8.7516       8.7516     609.4362     829.3151       5.4883
    467.8162     344.3235    6199.1237      -0.0394       2.5754      17.6451
     17.9890    1268.1941    3032.6823      17.6451
4647.4380
   4647.4380       8.5000    4646.9048      83.2900       6.3232    1571.3857
   7914.3176       8.7542       8.7542     615.6403     828.1160       5.4880
    466.6550     341.4731    6207.1421      -0.0391       2.5761      17.7047
     18.0510    1266.3221    3033.7376      17.7047
4647.2856
   4647.2856       8.5000    4646.7524      82.1020       6.3192    1598.6555
   7962.1056       8.7572       8.7572     613.0603     809.4616       5.4686
    471.4196     336.6908    6200.1464      -0.0362       2.5824      18.1774
     18.5305    1259.2580    3059.0730      18.1774
4647.1332
   4647.1332       8.5000    4646.6000      82.2072       6.3232    1645.7555
   8030.5353       8.7586       8.7586     609.1260     782.3219       5.3883
    474.8309     331.0549    6191.6367      -0.0315       2.5902      18.3839
     18.7400    1272.5350    3109.8579      18.3839
4646.9808
   4646.9808       8.5000    4646.4476      83.6722       6.3204    1692.6506
   8099.0811       8.7580       8.7580     616.9413     772.0707       5.3065
    480.6337     329.7199    6182.0619      -0.0324       2.5918      18.3243
     18.6793    1300.5257    3172.7880      18.3243
4646.8284
   4646.8284       8.5000    4646.2952      83.7792       6.3208    1733.0582
   8161.8785       8.7564       8.7564     625.4238     773.1899       5.2675
    489.8588     334.8564    6173.1760      -0.0355       2.5908      18.2412
     18.5943    1320.1825    3212.9399      18.2412
4646.6760
   4646.6760       8.5000    4646.1428      81.8663       6.3430    1774.6498
   8226.5197       8.7552       8.7552     621.7368     781.7012       5.2241
    487.3643     343.0751    6176.3517      -0.0360       2.5886      17.8701
     18.2188    1336.2506    3217.0047      17.8701
4646.5236
   4646.5236       8.5000    4645.9894      80.9451       6.3759    1815.5499
   8290.3031       8.7550       8.7550     613.7532     796.4970       5.2417
    470.7817     347.4143    6196.1747      -0.0344       2.5868      17.0794
     17.4202    1365.6263    3210.6872      17.0794
4646.3712
   4646.3712       8.5000    4645.8370      81.4766       6.4026    1823.6712
   8310.4636       8.7555       8.7555     612.7751     813.1952       5.2252
    461.9097     346.1984    6225.7198      -0.0331       2.5834      16.5017
     16.8370    1392.2327    3215.1146      16.5017
4646.2188
   4646.2188       8.5000    4645.6856      79.9461       7.2784    1841.8862
   8355.6172       8.7549       8.7549     616.3591     821.8795       5.2072
    467.5629     346.6696    6234.2695      -0.0342       2.5793      16.5642
     16.8997    1393.7390    3224.8804      16.5642
4646.0664
   4646.0664       8.5000    4645.5332      74.7293       9.9285    1901.1191
   8441.1250       8.7531       8.7531     623.4374     821.4240       5.2104
    470.5673     355.3013    6201.1836      -0.0402       2.5765      17.0237
     17.3626    1377.7725    3233.5879      17.0237
4645.9140
   4645.9140       8.5000    4645.3798      69.3791      14.4864    2008.8118
   8565.8194       8.7526       8.7526     630.0760     816.0560       5.2509
    471.3914     364.6723    6167.9363      -0.0453       2.5749      17.1899
     17.6116    1371.0769    3242.1522      17.1899
4645.7616
   4645.7616       8.5000    4645.2274      67.8762      19.1798    2107.9602
   8672.5674       8.7529       8.7536     624.4652     815.7830       5.2579
    480.5881     365.0740    6173.7682      -0.0433       2.5749      17.2902
     17.6105    1372.3772    3245.1177      17.2902
