~VERSION INFORMATION
VERS.           2.0   :CWLS Log ASCII Standard - VERSION 2.0
WRAP.           NO    :One Line per depth step
PROD.  Schlumberger   :LAS Producer
PROG.  DLIS to ASCII 2.3                               :LAS Program name and version
CREA.        2023/07/14 00:15                          :LAS Creation date {YYYY/MM/DD hh:mm}
DLIS_CREA.  2023-Jul-14 00:11                          :DLIS Creation date and time {YYYY-MMM-DD hh:mm}
SOURCE.     LIS_005.dlis                               :DLIS File Name
FILE-ID.     LIS   .001                                :File Identification Number
#--------------------------------------------------
~WELL INFORMATION
#MNEM.UNIT      DATA             DESCRIPTION
#---- ------ --------------   -----------------------------
STRT .M      5238.7500       :START DEPTH     
STOP .M      5087.2644       :STOP DEPTH     
STEP .M        -0.1524       :STEP     
NULL .          -999.25      :NULL VALUE
COMP .        PETROBRAS S.A.                           :COMPANY
WELL .        3-BRSA-293D-SPS                          :WELL
FLD  .        BS-400                                   :FIELD
LOC  .        BASE SAD 69:                             :LOCATION
CNTY .        SANTOS                                   :COUNTY
STAT .        BRASIL                                   :STATE
CTRY .        SANTOS                                   :COUNTRY
API  .                                                 :API NUMBER
UWI  .                                                 :UNIQUE WELL ID
DATE .        23/10/2004                               :LOG DATE
SRVC .        Schlumberger                             :SERVICE COMPANY
LATI .DEG                                              :LATITUDE
LONG .DEG                                              :LONGITUDE
GDAT .                                                 :GeoDetic Datum
#-----------------------------------------------------------------------------
~PARAMETER INFORMATION
#MNEM.UNIT    VALUE                      DESCRIPTION
#---- -----   --------------------       ------------------------
APD  .M               24                 :
BHT  .DEGF           280                 :
BLI  .M             5230                 :
BS   .IN         8.50000                 :
CN   .        PETROBRAS S.A.             :
COUN .        SANTOS                     :
CS   .IN         9.62500                 :
DATE .        23/10/2004                 :
DFD  .LB/G      12.30000                 :
DFL  .C3               2                 :
DFPH .        N/A                        :
DFT  .        SINTETICO                  :
DFV  .S               87                 :
DMF  .        MESA ROTATIVA              :
EDF  .M               24                 :
EGL  .M             -500                 :
EKB  .        N/A                        :
ENGI .        HERNANDEZ/LOCK             :
FL1  .        X   7292392.00 M LAT 24 28 47.189 S :
FL2  .        Y    584087.00 M LON 44 10 12.698 W :
FL3  .        MC  45 GRAUS               :
FN   .        BS-400                     :
LMF  .        MESA ROTATIVA              :
LUL  .        MACAE                      :
MCSS .        PRENSA                     :
MCST .DEGF            80                 :
MFSS .        PRENSA                     :
MFST .DEGF            80                 :
MSS  .        LINHA DE FLUXO             :
MST  .DEGF            80                 :
PDAT .        NIVEL DO MAR               :
R1   .        01. APRESENTAÇÃO DE ACORDO COM REQUERIMENTO DO CLIENTE :
R2   .        02. TEMPERATURA MÁXIMA DO POÇO T1=T2= 260 DEGF @  5180 M :
R3   .        03. INICIO DA CIRCULAÇÃO  13 45 H 21/10/2004 :
R4   .        04. FINAL DA CIRCULAÇÃO   16 00 H 21/10/2004 :
R5   .        05. TEMPO TOTAL DE CIRCULAÇÃO  02 15 H :
R6   .        06. FLUIDO DE PERFURAÇÃO  SINTETICO (BR-MUL  BR-MI)  65% TEOR DO OLEO :
R7   .        07. SALINIDADE DA LAMA  266377 PPM NACL NA FASE DE AGUA :
R8   .        08. INCLINAÇÃO MÁXIMA DO POÇO  37.37 GRAUS @ 5100 M :
R9   .        09. PRIMEIRAS E ULTIMAS LEITURAS  :
RMB  .OHMM    > 10                       :
RMCS .OHMM    > 10                       :
RMFS .OHMM    > 10                       :
RMS  .OHMM    > 10                       :
RUN  .                 1                 :
STAT .        BRASIL                     :
TCS  .        16 00 H                    :
TDD  .M             5230                 :
TDL  .M             5231                 :
TLAB .        N/A                        :
TLI  .M             4277                 :
WITN .        ALCIDIO/VLADIMIR           :
WN   .        3-BRSA-293D-SPS            :
LUN  .              8808                 :
HIDE .        3-SPS-41D                  :
HID2 .        COMPENSATED Z-DENSILOG     :
HID3 .        COMPENSATED NEUTRON LOG    :
HID4 .        GAMMA RAY LOG              :
HID5 .        TTRM SUB                   :
CLAB .        BACIA                      :
SLAB .        PAIS                       :
CMT1 .        ESC  1 1000                :
CMT2 .        PROF. MEDIDA               :
CMT4 .        SONDA  SS-43               :
HDAT .        SAD 69                     :
FL   .        BASE SAD 69                :
OS1  .        HDIL/XMAC/SL/GR            :
OS3  .        MREX/GR                    :
OS5  .        SL/GR                      :
LNAM .        MREX/ZDL/CN/XMAC/HDIL/3DEX/RCI/SL/GR :
TOOL .        MREX/ZDL/CN/XMAC/HDIL/3DEX/RCI/SL/GR :
LSOU .        PETROBRAS                  :
LSRV .        OH WIRELINE                :
LTYP .        RAW                        :
EPD  .M                0                 :
LDAT .        23/10/2004                 :
TRIP .                 1                 :
SON  .            772317                 :
CBDR .M             4277                 :
CBLO .M             4277                 :
CBL1 .M             4277                 :
STEM .DEGF    N/A                        :
BSAL .            266377                 :
BARI .        OFF                        :
DLAB .        21/10/2004                 :
MRT  .DEGF           280                 :
TSTR .        ZDL/CN/GR/TTRM             :
TSTG .        N/A                        :
STUS .        FINAL                      :
LCNM .        BAKER ATLAS                :
LCC  .               150                 :
NATI .        SANTOS                     :
OPMD .        OH.WIRELINE                :
PANA .        HERNANDEZ/LOCK             :
PCON .        BAKER ATLAS                :
R11  .        GR     5222.5 M/4277.0 M   :
R12  .        ZDL    5230.0 M/4277.0 M   :
R13  .        CN     5224.0 M/4277.0 M   :
R15  .        10. PONTO FRACO UTILIZADO  10K :
R17  .        12. DECLINAÇÃO MAGNETICA  -20.9 GRAUS :
R18  .        13. COORDENADAS BASE       :
R21  .        Y    583936.00 M           :
R22  .        MC  45 GRAUS               :
PVER .           4.10000                 :
WDFN .        /space/expusr/3-SPS-41D/i77bf06_8spf.xtf :
OCT  .        i77bf                      :
0S2  .        3DEX/GR                    :
OS4  .        RCI/GR                     :
R16  .        11. CNC CORREGIDO PELO CALIPER E SALINIDADE  PRESENTADO MATRIZ CARBONATO :
R20  .        X   7292512.00 M           :
R24  .        14. CADASTRO ANP  86316021017 :
#-----------------------------------------------------------------------------
~CURVE INFORMATION
#MNEM.UNIT   API CODE                                  DESCRIPTION
#---- -----  --------                                  -----------------------
DEPT .M                                                :DEPTH (BOREHOLE) {F10.4}
DEPT .M                                                : {F13.4}
BIT  .IN                                               : {F13.4}
GR   .GAPI                                             : {F13.4}
TEN  .LBF                                              : {F13.4}
TTEN .LBF                                              : {F13.4}
CAL  .IN                                               : {F13.4}
CALX .IN                                               : {F13.4}
HRD1 .HZ                                               : {F13.4}
HRD2 .HZ                                               : {F13.4}
PE   .B/E                                              : {F13.4}
SFT2 .HZ                                               : {F13.4}
SOFT .HZ                                               : {F13.4}
SSD  .HZ                                               : {F13.4}
ZCOR .G/C3                                             : {F13.4}
ZDEN .G/C3                                             : {F13.4}
#-----------------------------------------------------------------------------
# 
#     DEPT        DEPT         BIT          GR           TEN          TTEN         CAL          CALX         HRD1         HRD2         PE           SFT2         SOFT         SSD          ZCOR         ZDEN
#
~A  
# ...
 5220.9192    5220.9192       8.5000      65.9385     -23.8302    6628.2030       8.5419       8.5419     779.1416    1036.2774       3.9975     666.7658     522.7392    6704.4872      -0.0315       2.4761
 5220.7668    5220.7668       8.5000      67.6850     -86.3848    6564.6872       8.5410       8.5410     811.3433    1077.7066       3.9476     705.6616     557.2050    6813.0179      -0.0278       2.4601
 5220.6144    5220.6144       8.5000      68.1391    -118.6591    6530.7253       8.5397       8.5397     830.5261    1108.5730       3.9596     723.9721     568.3165    6856.2431      -0.0291       2.4490
 5220.4620    5220.4620       8.5000      68.5850    -128.9930    6518.4289       8.5400       8.5400     839.8795    1119.3566       3.9617     723.3621     564.7449    6865.8994      -0.0306       2.4449
 5220.3096    5220.3096       8.5000      69.7035    -138.1104    6507.1096       8.5413       8.5413     842.9998    1103.8128       3.9547     709.6424     554.8906    6848.6405      -0.0312       2.4476
 5220.1572    5220.1572       8.5000      70.2192    -140.1096    6502.7453       8.5411       8.5411     835.8631    1076.1756       3.9607     683.6053     540.3100    6800.4609      -0.0327       2.4556
 5220.0048    5220.0048       8.5000      69.7335    -133.0373    6507.5421       8.5397       8.5397     816.2558    1048.3328       3.9648     657.9646     527.8380    6728.7593      -0.0354       2.4664
 5219.8524    5219.8524       8.5000      68.5129    -129.2884    6509.1726       8.5398       8.5398     798.8589    1030.8064       3.9254     651.3188     524.0660    6674.1789      -0.0377       2.4742
 5219.7000    5219.7000       8.5000      65.2160    -133.4012    6502.9337       8.5426       8.5426     803.3852    1033.7685       3.8238     666.7906     532.3898    6674.4569      -0.0387       2.4736
 5219.5476    5219.5476       8.5000      60.7013    -132.8152    6501.3690       8.5453       8.5453     817.8693    1043.3532       3.6084     685.4117     554.5599    6710.7604      -0.0374       2.4693
 5219.3952    5219.3952       8.5000      58.2400    -122.2159    6509.9124       8.5457       8.5457     823.1456    1037.3010       3.3112     696.7762     580.7847    6745.3649      -0.0326       2.4686
 5219.2428    5219.2428       8.5000      58.9024    -107.5208    6522.7139       8.5452       8.5452     821.8947    1025.2772       3.1382     702.2164     593.0280    6753.5064      -0.0296       2.4703
 5219.0904    5219.0904       8.5000      60.1129    -100.2748    6528.1666       8.5454       8.5454     823.9075    1027.1905       3.1472     706.6804     590.4585    6731.0067      -0.0332       2.4694
 5218.9380    5218.9380       8.5000      60.2551    -104.8507    6521.7740       8.5454       8.5454     826.6171    1037.1217       3.1682     708.6848     590.8554    6702.4070      -0.0389       2.4668
 5218.7856    5218.7856       8.5000      59.3990    -114.3126    6510.4387       8.5444       8.5444     831.6466    1040.0412       3.1533     709.6893     593.6531    6698.4303      -0.0405       2.4652
 5218.6332    5218.6332       8.5000      58.6710    -116.0117    6506.8826       8.5440       8.5440     832.6031    1036.0100       3.1425     707.9460     589.1772    6715.3138      -0.0378       2.4662
 5218.4808    5218.4808       8.5000      59.0833    -105.4144    6515.7318       8.5463       8.5463     824.6071    1030.3141       3.1375     702.0333     584.3327    6724.4522      -0.0346       2.4698
 5218.3284    5218.3284       8.5000      60.9483     -89.2017    6530.3763       8.5515       8.5515     818.7976    1012.9070       3.0522     700.1107     588.1645    6712.4477      -0.0328       2.4752
 5218.1760    5218.1760       8.5000      63.2459     -76.1614    6542.0566       8.5583       8.5583     822.9010     984.1429       2.9181     702.4575     589.5698    6687.7703      -0.0325       2.4808
 5218.0236    5218.0236       8.5000      64.2047     -68.6934    6548.3374       8.5637       8.5637     819.5475     964.7261       2.9706     696.7732     573.6221    6647.1342      -0.0346       2.4867
 5217.8712    5217.8712       8.5000      63.1852     -66.9263    6548.9774       8.5662       8.5662     789.7931     947.2571       3.2845     670.7017     532.7302    6570.1687      -0.0378       2.4973
 5217.7188    5217.7188       8.5000      61.6276     -78.6427    6535.9991       8.5672       8.5672     751.6531     925.6241       3.6815     632.7476     486.0483    6506.6768      -0.0371       2.5097
 5217.5664    5217.5664       8.5000      60.9942     -98.8670    6514.1880       8.5683       8.5683     739.2897     921.8690       3.8566     607.1411     469.7857    6522.9822      -0.0323       2.5132
 5217.4140    5217.4140       8.5000      60.9669    -107.0092    6504.2013       8.5685       8.5685     755.2508     942.1061       3.6495     614.4706     497.3658    6589.7552      -0.0289       2.5052
 5217.2616    5217.2616       8.5000      61.1059     -96.0070    6513.4309       8.5680       8.5680     778.9821     969.2009       3.2636     654.3531     548.7727    6645.1480      -0.0293       2.4920
 5217.1092    5217.1092       8.5000      61.0293     -80.6110    6527.3392       8.5675       8.5675     805.4430    1008.8169       3.0764     701.7941     590.3484    6685.6333      -0.0339       2.4755
 5216.9568    5216.9568       8.5000      60.2044     -70.9415    6535.7213       8.5679       8.5679     832.7169    1062.2467       3.2100     726.4809     604.0278    6723.4317      -0.0405       2.4579
 5216.8044    5216.8044       8.5000      59.4097     -65.7779    6539.6503       8.5718       8.5718     847.3050    1105.7288       3.4621     726.1954     599.1597    6753.9705      -0.0446       2.4457
 5216.6520    5216.6520       8.5000      60.0059     -68.5580    6535.6294       8.5798       8.5798     846.0782    1121.1014       3.5595     722.2304     594.5247    6770.9705      -0.0442       2.4429
 5216.4996    5216.4996       8.5000      61.4140     -80.6315    6522.1939       8.5870       8.5870     835.4357    1103.0289       3.5240     724.0904     592.9527    6753.0118      -0.0427       2.4487
 5216.3472    5216.3472       8.5000      62.1000     -94.2819    6507.0104       8.5899       8.5899     820.2174    1065.6274       3.5010     721.1558     585.0738    6702.9299      -0.0420       2.4601
 5216.1948    5216.1948       8.5000      61.9884    -105.1776    6494.4633       8.5901       8.5901     795.6428    1021.7989       3.5139     698.4479     559.6008    6631.0093      -0.0417       2.4757
 5216.0424    5216.0424       8.5000      60.8046    -114.9389    6482.9372       8.5901       8.5901     757.3985     976.1618       3.6611     652.8682     516.6375    6527.9292      -0.0431       2.4958
 5215.8900    5215.8900       8.5000      58.0541    -115.4694    6480.5727       8.5900       8.5900     713.8361     929.2605       3.8079     601.1326     477.0156    6429.4352      -0.0423       2.5182
 5215.7376    5215.7376       8.5000      55.1848    -104.5273    6489.7287       8.5897       8.5897     683.5537     882.8456       3.8026     565.6501     456.2178    6388.1188      -0.0352       2.5397
 5215.5852    5215.5852       8.5000      53.8458     -92.1037    6500.4735       8.5885       8.5885     654.0272     825.9930       3.7670     541.2544     434.4722    6334.2888      -0.0276       2.5647
 5215.4328    5215.4328       8.5000      53.2929     -84.6345    6506.3923       8.5864       8.5864     606.9599     763.2937       3.9321     510.9386     392.5356    6187.2736      -0.0279       2.5957
 5215.2804    5215.2804       8.5000      52.3391     -80.8554    6508.7348       8.5856       8.5856     562.6239     724.1645       4.3767     474.3770     347.3708    6015.8430      -0.0363       2.6212
 5215.1280    5215.1280       8.5000      50.3813     -83.9676    6504.1975       8.5859       8.5859     543.2837     718.7506       4.8113     445.9107     324.7208    5932.5388      -0.0436       2.6310
