~VERSION INFORMATION
VERS.           2.0   :CWLS Log ASCII Standard - VERSION 2.0
WRAP.           YES   :Multiple lines per depth step
PROD.  Schlumberger   :LAS Producer
PROG.  DLIS to ASCII 2.3                               :LAS Program name and version
CREA.        2023/07/14 00:15                          :LAS Creation date {YYYY/MM/DD hh:mm}
DLIS_CREA.  2023-Jul-14 00:11                          :DLIS Creation date and time {YYYY-MMM-DD hh:mm}
SOURCE.     LIS_007.dlis                               :DLIS File Name
FILE-ID.     LIS   .003                                :File Identification Number
#--------------------------------------------------
~WELL INFORMATION
#MNEM.UNIT      DATA             DESCRIPTION
#---- ------ --------------   -----------------------------
STRT .M      5238.7500       :START DEPTH     
STOP .M      4241.4444       :STOP DEPTH     
STEP .M        -0.1524       :STEP     
NULL .          -999.25      :NULL VALUE
COMP .        PETROBRAS S.A.                           :COMPANY
WELL .        3-BRSA-293D-SPS                          :WELL
FLD  .        BS-400                                   :FIELD
LOC  .        BASE SAD 69:                             :LOCATION
CNTY .        SANTOS                                   :COUNTY
STAT .        BRASIL                                   :STATE
CTRY .        SANTOS                                   :COUNTRY
API  .                                                 :API NUMBER
UWI  .                                                 :UNIQUE WELL ID
DATE .        23/10/2004                               :LOG DATE
SRVC .        Schlumberger                             :SERVICE COMPANY
LATI .DEG                                              :LATITUDE
LONG .DEG                                              :LONGITUDE
GDAT .                                                 :GeoDetic Datum
#-----------------------------------------------------------------------------
~PARAMETER INFORMATION
#MNEM.UNIT    VALUE                      DESCRIPTION
#---- -----   --------------------       ------------------------
APD  .M               24                 :
BHT  .DEGF           280                 :
BLI  .M             5230                 :
BS   .IN         8.50000                 :
CN   .        PETROBRAS S.A.             :
COUN .        SANTOS                     :
CS   .IN         9.62500                 :
DATE .        23/10/2004                 :
DFD  .LB/G      12.30000                 :
DFL  .C3               2                 :
DFPH .        N/A                        :
DFT  .        SINTETICO                  :
DFV  .S               87                 :
DMF  .        MESA ROTATIVA              :
EDF  .M               24                 :
EGL  .M             -500                 :
EKB  .        N/A                        :
ENGI .        HERNANDEZ/LOCK             :
FL1  .        X   7292392.00 M LAT 24 28 47.189 S :
FL2  .        Y    584087.00 M LON 44 10 12.698 W :
FL3  .        MC  45 GRAUS               :
FN   .        BS-400                     :
LMF  .        MESA ROTATIVA              :
LUL  .        MACAE                      :
MCSS .        PRENSA                     :
MCST .DEGF            80                 :
MFSS .        PRENSA                     :
MFST .DEGF            80                 :
MSS  .        LINHA DE FLUXO             :
MST  .DEGF            80                 :
PDAT .        NIVEL DO MAR               :
R1   .        01. APRESENTAÇÃO DE ACORDO COM REQUERIMENTO DO CLIENTE :
R2   .        02. TEMPERATURA MÁXIMA DO POÇO T1=T2= 260 DEGF @  5180 M :
R3   .        03. INICIO DA CIRCULAÇÃO  13 45 H 21/10/2004 :
R4   .        04. FINAL DA CIRCULAÇÃO   16 00 H 21/10/2004 :
R5   .        05. TEMPO TOTAL DE CIRCULAÇÃO  02 15 H :
R6   .        06. FLUIDO DE PERFURAÇÃO  SINTETICO (BR-MUL  BR-MI)  65% TEOR DO OLEO :
R7   .        07. SALINIDADE DA LAMA  266377 PPM NACL NA FASE DE AGUA :
R8   .        08. INCLINAÇÃO MÁXIMA DO POÇO  37.37 GRAUS @ 5100 M :
R9   .        09. PRIMEIRAS E ULTIMAS LEITURAS  :
RMB  .OHMM    > 10                       :
RMCS .OHMM    > 10                       :
RMFS .OHMM    > 10                       :
RMS  .OHMM    > 10                       :
RUN  .                 1                 :
STAT .        BRASIL                     :
TCS  .        16 00 H                    :
TDD  .M             5230                 :
TDL  .M             5231                 :
TLAB .        N/A                        :
TLI  .M             4277                 :
WITN .        ALCIDIO/VLADIMIR           :
WN   .        3-BRSA-293D-SPS            :
LUN  .              8808                 :
HIDE .        3-SPS-41D                  :
HID2 .        COMPENSATED Z-DENSILOG     :
HID3 .        COMPENSATED NEUTRON LOG    :
HID4 .        GAMMA RAY LOG              :
HID5 .        TTRM SUB                   :
CLAB .        BACIA                      :
SLAB .        PAIS                       :
CMT1 .        ESC  1 1000                :
CMT2 .        PROF. MEDIDA               :
CMT4 .        SONDA  SS-43               :
HDAT .        SAD 69                     :
FL   .        BASE SAD 69                :
OS1  .        HDIL/XMAC/SL/GR            :
OS3  .        MREX/GR                    :
OS5  .        SL/GR                      :
LNAM .        MREX/ZDL/CN/XMAC/HDIL/3DEX/RCI/SL/GR :
TOOL .        MREX/ZDL/CN/XMAC/HDIL/3DEX/RCI/SL/GR :
LSOU .        PETROBRAS                  :
LSRV .        OH WIRELINE                :
LTYP .        RAW                        :
EPD  .M                0                 :
LDAT .        23/10/2004                 :
TRIP .                 1                 :
SON  .            772317                 :
CBDR .M             4277                 :
CBLO .M             4277                 :
CBL1 .M             4277                 :
STEM .DEGF    N/A                        :
BSAL .            266377                 :
BARI .        OFF                        :
DLAB .        21/10/2004                 :
MRT  .DEGF           280                 :
TSTR .        ZDL/CN/GR/TTRM             :
TSTG .        N/A                        :
STUS .        FINAL                      :
LCNM .        BAKER ATLAS                :
LCC  .               150                 :
NATI .        SANTOS                     :
OPMD .        OH.WIRELINE                :
PANA .        HERNANDEZ/LOCK             :
PCON .        BAKER ATLAS                :
R11  .        GR     5222.5 M/4277.0 M   :
R12  .        ZDL    5230.0 M/4277.0 M   :
R13  .        CN     5224.0 M/4277.0 M   :
R15  .        10. PONTO FRACO UTILIZADO  10K :
R17  .        12. DECLINAÇÃO MAGNETICA  -20.9 GRAUS :
R18  .        13. COORDENADAS BASE       :
R21  .        Y    583936.00 M           :
R22  .        MC  45 GRAUS               :
PVER .           4.10000                 :
WDFN .        /space/expusr/3-SPS-41D/i77bf07_4spf.xtf :
OCT  .        i77bf                      :
0S2  .        3DEX/GR                    :
OS4  .        RCI/GR                     :
R16  .        11. CNC CORREGIDO PELO CALIPER E SALINIDADE  PRESENTADO MATRIZ CARBONATO :
R20  .        X   7292512.00 M           :
R24  .        14. CADASTRO ANP  86316021017 :
#-----------------------------------------------------------------------------
~CURVE INFORMATION
#MNEM.UNIT   API CODE                                  DESCRIPTION
#---- -----  --------                                  -----------------------
DEPT .M                                                :DEPTH (BOREHOLE) {F10.4}
DEPT .M                                                : {F13.4}
BIT  .IN                                               : {F13.4}
DEPM .M                                                : {F13.4}
GR   .GAPI                                             : {F13.4}
SPD  .M/MN                                             : {F13.4}
TEN  .LBF                                              : {F13.4}
TTEN .LBF                                              : {F13.4}
CAL  .IN                                               : {F13.4}
CALX .IN                                               : {F13.4}
HRD1 .HZ                                               : {F13.4}
HRD2 .HZ                                               : {F13.4}
PE   .B/E                                              : {F13.4}
SFT2 .HZ                                               : {F13.4}
SOFT .HZ                                               : {F13.4}
SSD  .HZ                                               : {F13.4}
ZCOR .G/C3                                             : {F13.4}
ZDEN .G/C3                                             : {F13.4}
CNC  .PU                                               : {F13.4}
CN   .PU                                               : {F13.4}
LSN  .HZ                                               : {F13.4}
SSN  .HZ                                               : {F13.4}
CNCF .PU                                               : {F13.4}
#-----------------------------------------------------------------------------
# DEPT       
#     DEPT         BIT          DEPM         GR           SPD          TEN          
#     TTEN         CAL          CALX         HRD1         HRD2         PE           
#     SFT2         SOFT         SSD          ZCOR         ZDEN         CNC          
#     CN           LSN          SSN          CNCF         
~A  
# ...
4846.1676
   4846.1676       8.5000    4845.6344      49.8886       5.8880       1.8731
   6146.2029       8.6657       8.6657     515.6768     691.5226       5.3102
    414.8578     296.2350    5692.8127      -0.0688       2.6415      13.3814
     13.6244    2123.5305    4398.5429      13.3814
4846.0152
   4846.0152       8.5000    4845.4820      42.9911       5.8597       1.4122
   6145.7672       8.6643       8.6643     491.5146     645.7148       5.6563
    383.5680     265.3257    5557.5539      -0.0743       2.6652      13.5728
     13.8170    2247.3670    4687.9976      13.5728
4845.8628
   4845.8628       8.5000    4845.3296      45.1977       5.8446      -3.4712
   6140.8766       8.6635       8.6635     485.2651     620.3211       6.0091
    360.1374     245.9444    5581.2598      -0.0629       2.6753      15.4788
     15.7402    2110.5700    4705.6370      15.4788
4845.7104
   4845.7104       8.5000    4845.1772      57.7583       5.8446       2.0149
   6146.3456       8.6639       8.6639     490.7571     634.8809       6.3394
    352.0698     241.3673    5727.1049      -0.0445       2.6675      17.2632
     17.5391    1895.9319    4473.4752      17.2632
4845.5580
   4845.5580       8.5000    4845.0248      73.8943       5.8525      29.1543
   6173.7139       8.6644       8.6644     501.9173     676.5137       6.4232
    366.4165     254.2422    5879.1905      -0.0333       2.6487      16.9362
     17.2101    1734.9552    4053.0117      16.9362
4845.4056
   4845.4056       8.5000    4844.8724      84.6985       5.8646      71.1490
   6216.5401       8.6630       8.6630     513.1675     720.2105       6.3252
    397.6045     274.1720    5950.3751      -0.0347       2.6297      16.1090
     16.3753    1574.1535    3582.7118      16.1090
4845.2532
   4845.2532       8.5000    4844.7200      89.4473       5.8806      90.7695
   6237.5290       8.6612       8.6612     524.7370     753.0580       6.1959
    429.9308     290.2428    5955.0495      -0.0436       2.6145      16.9391
     17.2107    1380.7049    3225.4846      16.9391
4845.1008
   4845.1008       8.5000    4844.5676      94.9381       5.8889      57.0223
   6204.9459       8.6620       8.6620     543.4639     772.9224       6.0970
    451.7416     301.5098    5948.7982      -0.0525       2.6015      19.2093
     19.4964    1212.2013    3025.5139      19.2093
4844.9484
   4844.9484       8.5000    4844.4152     102.6662       5.8761       3.1732
   6151.4206       8.6651       8.6651     571.5438     789.1266       6.0806
    460.5181     313.3408    5968.3040      -0.0585       2.5890      20.9391
     21.2369    1114.6661    2912.2286      20.9391
4844.7960
   4844.7960       8.5000    4844.2628     106.4645       5.8525     -10.9703
   6137.1044       8.6679       8.6679     592.7060     800.1726       6.0516
    461.0833     320.3809    6001.8554      -0.0597       2.5808      21.5761
     21.8786    1067.2613    2833.1563      21.5761
4844.6436
   4844.6436       8.5000    4844.1094     102.8993       5.8424       5.4643
   6153.5615       8.6692       8.6692     597.5626     805.4326       6.0197
    463.1290     320.1767    6016.0879      -0.0596       2.5788      20.9029
     21.2040    1072.2024    2798.9702      20.9029
4844.4912
   4844.4912       8.5000    4843.9570      95.1989       5.8466       3.0698
   6151.3369       8.6694       8.6694     592.0806     805.7773       5.9884
    467.3321     319.8300    6027.2773      -0.0569       2.5807      18.5614
     18.8504    1153.6807    2828.2266      18.5614
4844.3388
   4844.3388       8.5000    4843.8046      88.4916       5.8546     -19.7653
   6128.3800       8.6692       8.6692     585.1080     803.7032       5.9092
    462.3283     323.8217    6076.8393      -0.0478       2.5829      16.3511
     16.6239    1273.5195    2921.3943      16.3511
4844.1864
   4844.1864       8.5000    4843.6522      86.1904       5.8666     -28.8052
   6118.9215       8.6679       8.6679     579.0218     804.7141       5.9744
    449.1999     321.7404    6127.7854      -0.0393       2.5835      15.8896
     16.1576    1354.8490    3062.1200      15.8896
4844.0340
   4844.0340       8.5000    4843.4998      86.8982       5.8847     -20.3339
   6126.9699       8.6650       8.6650     575.4720     812.6930       6.1758
    439.9678     309.0292    6132.2634      -0.0395       2.5817      16.3508
     16.6205    1394.4975    3198.5797      16.3508
4843.8816
   4843.8816       8.5000    4843.3484      86.6659       5.8902     -12.2826
   6134.6967       8.6634       8.6634     578.0859     815.6190       6.0988
    442.4806     302.8742    6107.3404      -0.0442       2.5800      16.4619
     16.7314    1421.8017    3272.5908      16.4619
4843.7292
   4843.7292       8.5000    4843.1960      84.9665       5.8707     -15.9945
   6130.6456       8.6654       8.6654     586.2063     805.6929       6.0523
    450.4483     313.0023    6090.5053      -0.0464       2.5797      16.5446
     16.8162    1424.3026    3287.0408      16.5446
4843.5768
   4843.5768       8.5000    4843.0436      84.2790       5.8525     -20.5605
   6125.6661       8.6681       8.6681     595.2355     804.0951       5.8522
    460.2068     325.4079    6106.4161      -0.0454       2.5770      17.0656
     17.3432    1398.8147    3281.0413      17.0656
4843.4244
   4843.4244       8.5000    4842.8912      85.7621       5.8574      -4.8014
   6141.1462       8.6683       8.6683     605.5035     821.7259       5.7790
    478.5134     331.5717    6156.3384      -0.0434       2.5702      17.5477
     17.8290    1374.6943    3271.8488      17.5477
4843.2720
   4843.2720       8.5000    4842.7388      88.1630       5.8668      32.4596
   6178.6141       8.6667       8.6667     614.4463     832.2440       5.6002
    502.6397     342.3105    6192.0754      -0.0419       2.5661      17.6440
     17.9248    1366.3944    3261.3401      17.6440
4843.1196
   4843.1196       8.5000    4842.5864      90.0204       5.8605      52.2636
   6199.0720       8.6648       8.6648     613.3556     814.7131       5.3241
    511.9726     350.5945    6168.6826      -0.0418       2.5705      17.6344
     17.9137    1364.8464    3256.5742      17.6344
4842.9672
   4842.9672       8.5000    4842.4340      90.2225       5.8509      24.8588
   6172.1699       8.6621       8.6621     606.6104     791.7086       5.4698
    496.3103     335.4426    6108.7404      -0.0449       2.5774      17.8040
     18.0825    1356.5615    3252.9234      17.8040
4842.8148
   4842.8148       8.5000    4842.2816      89.4145       5.8607     -24.5906
   6122.5611       8.6605       8.6605     603.6629     795.9892       6.0423
    470.3788     311.4095    6063.0813      -0.0519       2.5771      18.2211
     18.5012    1333.4029    3236.4641      18.2211
4842.6624
   4842.6624       8.5000    4842.1292      88.5277       5.8810     -48.5247
   6097.9597       8.6619       8.6619     609.8375     819.6377       6.2853
    461.1413     309.2265    6059.0904      -0.0582       2.5699      18.7130
     18.9971    1302.8585    3207.1377      18.7130
4842.5100
   4842.5100       8.5000    4841.9768      87.9689       5.8800     -32.0641
   6113.8220       8.6647       8.6647     621.9631     834.2395       6.0788
    472.3027     324.3946    6094.7179      -0.0579       2.5630      18.8242
     19.1111    1287.7912    3180.1777      18.8242
4842.3576
   4842.3576       8.5000    4841.8244      87.5841       5.8559      -1.0023
   6144.7151       8.6665       8.6665     632.1579     830.0759       5.7703
    486.3725     336.8815    6135.6029      -0.0530       2.5603      18.3878
     18.6734    1298.2258    3166.6459      18.3878
4842.2052
   4842.2052       8.5000    4841.6710      87.3027       5.8479      10.5300
   6156.3747       8.6674       8.6674     634.0244     828.9706       5.4776
    496.2488     348.4663    6160.0178      -0.0496       2.5596      17.7374
     18.0194    1320.2247    3159.9294      17.7374
4842.0528
   4842.0528       8.5000    4841.5186      87.4366       5.8810      -3.6260
   6142.2735       8.6678       8.6678     627.6980     833.6875       5.3756
    499.6213     355.8337    6143.2397      -0.0517       2.5610      17.3484
     17.6279    1326.3970    3138.0264      17.3484
