~VERSION INFORMATION
VERS.           2.0   :CWLS Log ASCII Standard - VERSION 2.0
WRAP.           NO    :One Line per depth step
PROD.  Schlumberger   :LAS Producer
PROG.  DLIS to ASCII 2.3                               :LAS Program name and version
CREA.        2023/07/14 00:15                          :LAS Creation date {YYYY/MM/DD hh:mm}
DLIS_CREA.  2023-Jul-14 00:11                          :DLIS Creation date and time {YYYY-MMM-DD hh:mm}
SOURCE.     LIS_008.dlis                               :DLIS File Name
FILE-ID.     LIS   .001                                :File Identification Number
#--------------------------------------------------
~WELL INFORMATION
#MNEM.UNIT      DATA             DESCRIPTION
#---- ------ --------------   -----------------------------
STRT .M      5286.4512       :START DEPTH     
STOP .M      5066.6904       :STOP DEPTH     
STEP .M        -0.1524       :STEP     
NULL .          -999.25      :NULL VALUE
COMP .        PETROBRAS S.A.                           :COMPANY
WELL .        3-BRSA-293D-SPS                          :WELL
FLD  .        BS-400                                   :FIELD
LOC  .        BASE SAD 69:                             :LOCATION
CNTY .        SANTOS                                   :COUNTY
STAT .        BRASIL                                   :STATE
CTRY .        BRASIL                                   :COUNTRY
API  .                                                 :API NUMBER
UWI  .                                                 :UNIQUE WELL ID
DATE .        15/11/2004                               :LOG DATE
SRVC .        Schlumberger                             :SERVICE COMPANY
LATI .DEG                                              :LATITUDE
LONG .DEG                                              :LONGITUDE
GDAT .                                                 :GeoDetic Datum
#-----------------------------------------------------------------------------
~PARAMETER INFORMATION
#MNEM.UNIT    VALUE                      DESCRIPTION
#---- -----   --------------------       ------------------------
APD  .M               24                 :
BHT  .DEGF           260                 :
BLI  .M             5289                 :
BS   .IN         8.50000                 :
CN   .        PETROBRAS S.A.             :
COUN .        SANTOS                     :
CS   .IN         9.62500                 :
DATE .        15/11/2004                 :
DFD  .LB/G      12.30000                 :
DFL  .C3               2                 :
DFPH .        N/A                        :
DFT  .        SINTETICO                  :
DFV  .S               95                 :
DMF  .        MESA ROTATIVA              :
EDF  .M               24                 :
EGL  .M             -500                 :
EKB  .        N/A                        :
ENGI .        HERNANDEZ / LOCK           :
FL1  .        X   7292392.00 M LAT 24 28 47.189 S :
FL2  .        Y    584087.00 M LON 44 10 12.698 W :
FL3  .        MC  45 GRAUS               :
FN   .        BS-400                     :
LMF  .        MESA ROTATIVA              :
LUL  .        MACAE                      :
MCSS .        PRENSA                     :
MCST .DEGF            80                 :
MFSS .        PRENSA                     :
MFST .DEGF            80                 :
MSS  .        LINHA DE FLUXO             :
MST  .DEGF            80                 :
PDAT .        NIVEL DO MAR               :
R1   .        01. APRESENTAÇÃO DE ACORDO COM REQUERIMENTO DO CLIENTE :
R2   .        02. TEMPERATURA MÁXIMA DO POÇO T1=T2= 290 DEGF @  5275 M :
R3   .        03. INICIO DA CIRCULAÇÃO  12/11/2004 09 00 H :
R4   .        04. FINAL DA CIRCULAÇÃO   12/11/2004 18 00 H :
R5   .        05. TEMPO TOTAL DE CIRCULAÇÃO   09 00 H :
R6   .        06. FLUIDO DE PERFURAÇÃO  SINTETICO (BR-MUL  BR-MI)  60% TEOR DO OLEO :
R7   .        07. SALINIDADE DA LAMA  254762 PPM NACL NA FASE DE AGUA :
R8   .        08. INCLINAÇÃO MÁXIMA DO POÇO  37.37 GRAUS @ 5100 M :
R9   .        09. PRIMEIRAS E ULTIMAS LEITURAS  :
RMB  .OHMM    > 10                       :
RMCS .OHMM    > 10                       :
RMFS .OHMM    > 10                       :
RMS  .OHMM    >10                        :
RUN  .                 2                 :
STAT .        BRASIL                     :
TCS  .        18 00 H                    :
TDD  .M             5288                 :
TDL  .M             5293                 :
TLAB .        N/A                        :
TLI  .M             5000                 :
WITN .        ERNANI / ZE MARIA          :
WN   .        3-BRSA-293D-SPS            :
LUN  .              8808                 :
HIDE .        3-SPS-41D                  :
HID2 .        HIGH DEFINITION INDUCTION LOG :
HID3 .        X-MULTIPOLE ARRAY ACOUSTILOG :
HID4 .        GAMMA RAY LOG              :
HID5 .        TTRM SUB                   :
CLAB .        BACIA                      :
SLAB .        PAIS                       :
CMT1 .        ESC  1 200                 :
CMT2 .        PROF. MEDIDA               :
CMT4 .        SONDA  SS-43               :
HDAT .        SAD 69                     :
FL   .        BASE SAD 69                :
OS1  .        RCI/GR                     :
OS2  .        CHECK SHOT                 :
OS3  .        GR/CN/ZDL                  :
OS5  .        RCOR/GR                    :
LNAM .        ZDL/CN/XMAC/HDIL/EARTH IMAGER/RCI/RCOR/CHECK SHOT/GR :
TOOL .        ZDL/CN/XMAC/HDIL/EARTH IMAGER/RCI/RCOR/CHECK SHOT/GR :
LSOU .        PETROBRAS                  :
LSRV .        OH WIRELINE                :
LTYP .        RAW                        :
EPD  .M                0                 :
LDAT .        15/11/2004                 :
TRIP .                 3                 :
SON  .            786588                 :
CBDR .M             4277                 :
CBLO .        NR                         :
CBL1 .        NR                         :
STEM .DEGF    N/A                        :
BSAL .            254762                 :
BARI .        OFF                        :
DLAB .        12/11/2004                 :
MRT  .DEGF           290                 :
TSTR .        HDIL/XMAC/GR/TTRM          :
TSTG .        N/A                        :
STUS .        FINAL                      :
LCNM .        BAKER ATLAS                :
LCC  .               150                 :
NATI .        BRASIL                     :
OPMD .        OH.WIRELINE                :
PANA .        HERNANDEZ / LOCK           :
PCON .        BAKER ATLAS                :
R11  .        SL     5268.3 M / 5000.0 M :
R12  .        GR     5268.3 M / 5000.0 M :
R13  .        XMAC   5279.5 M / 5000.0 M :
R14  .        HDIL   5289.0 M / 5000.0 M :
R17  .        11. DECLINAÇÃO MAGNETICA  -20.9 GRAUS :
R18  .        12. COORDENADAS BASE       :
R21  .        Y    583936.00 M           :
R22  .        MC  45 GRAUS               :
PVER .           4.10000                 :
WDFN .        /space/expusr/3-SPS-41D_RUN2/i77bf01_2spf.xtf :
OCT  .        i77bf                      :
OS4  .        EARTH IMAGER               :
R16  .        10. PONTO FRACO UTILIZADO  10K :
R20  .        X   7292512.00 M           :
R24  .        13. CADASTRO ANP  86316021017 :
#-----------------------------------------------------------------------------
~CURVE INFORMATION
#MNEM.UNIT   API CODE                                  DESCRIPTION
#---- -----  --------                                  -----------------------
DEPT .M                                                :DEPTH (BOREHOLE) {F10.4}
DEPT .M                                                : {F13.4}
DT   .US/F                                             : {F13.4}
SFN1 .US                                               : {F13.4}
SFN2 .US                                               : {F13.4}
SFN3 .US                                               : {F13.4}
SFN4 .US                                               : {F13.4}
TT   .MS                                               : {F13.4}
#-----------------------------------------------------------------------------
# 
#     DEPT        DEPT         DT           SFN1         SFN2         SFN3         SFN4         TT
#
~A  
# ...
 5141.9760    5141.9760      73.8696     743.9939     776.0000     816.2456     850.2463      30.8970
 5141.8236    5141.8236      74.1945     746.4941     776.3741     815.6265     851.9959      30.9341
 5141.6712    5141.6712      73.8541     742.1337     780.3671     815.9993     849.0059      30.9710
 5141.5188    5141.5188      72.9116     743.4978     776.0070     818.2464     852.4944      31.0075
 5141.3664    5141.3664      71.9651     744.3739     778.3721     816.0028     855.1217      31.0435
 5141.2140    5141.2140      71.7955     743.1261     779.8737     817.6236     848.5058      31.0794
 5141.0616    5141.0616      72.9574     724.3844     760.0100     804.0068     840.0043      31.1159
 5140.9092    5140.9092      74.9897     728.8750     768.0000     808.0000     841.0000      31.1534
 5140.7568    5140.7568      76.5509     736.0000     775.6250     815.6250     849.2500      31.1917
 5140.6044    5140.6044      76.8553     735.3754     770.3752     811.7492     850.7483      31.2301
 5140.4520    5140.4520      76.4115     735.9989     770.6224     810.3727     847.9957      31.2684
 5140.2996    5140.2996      76.3045     734.8772     768.0013     808.0000     843.6260      31.3065
 5140.1472    5140.1472      76.9290     736.4924     768.9953     808.0000     844.3715      31.3448
 5139.9948    5139.9948      77.5449     736.0022     770.3690     808.0000     843.5038      31.3836
 5139.8424    5139.8424      76.9487     736.0000     770.8730     810.1166     844.8696      31.4220
 5139.6900    5139.6900      74.9611     737.7437     770.1277     808.0076     843.7540      31.4595
 5139.5376    5139.5376      72.6400     736.0056     769.8758     808.0000     842.2548      31.4959
 5139.3852    5139.3852      70.9720     733.8811     768.0053     808.0000     841.3775      31.5314
 5139.2328    5139.2328      70.2903     890.9841     763.5112     805.3815     841.3750      31.5665
 5139.0804    5139.0804      70.3081     696.4128     728.0750     778.5568     824.5357      31.6017
 5138.9280    5138.9280      70.5134     703.9861     742.3499     776.0044     808.0288      31.6370
 5138.7756    5138.7756      70.8097     694.5131     730.7660     770.0082     805.1290      31.6724
 5138.6232    5138.6232      71.7366     693.6259     731.4992     772.8721     807.9971      31.7083
 5138.4708    5138.4708      73.9041     703.3688     729.2514     772.1255     809.7489      31.7452
 5138.3184    5138.3184      77.0273     704.0000     738.3750     768.7500     808.0000      31.7838
 5138.1660    5138.1660      79.7017     705.5000     743.6250     776.8750     808.0000      31.8236
 5138.0136    5138.0136      80.0839     762.2225     744.6489     829.1245     867.7473      31.8637
 5137.8612    5137.8612      77.5129     703.9933     795.1934     827.9495     862.0728      31.9025
 5137.7088    5137.7088      73.5750     696.0000     728.0038     768.0000     800.0092      31.9393
 5137.5564    5137.5564      70.8876     696.0000     731.1100     768.0000     807.5884      31.9745
 5137.4040    5137.4040      70.8041     695.3778     733.3650     771.7333     808.8694      32.0099
 5137.2516    5137.2516      72.5453     691.5159     731.3832     770.3806     811.6137      32.0462
 5137.0992    5137.0992      74.0844     688.0130     726.2691     765.6427     845.7475      32.0832
 5136.9468    5136.9468      73.9607     688.1246     720.0210     764.6284     803.5175      32.1202
 5136.7944    5136.7944      72.4536     689.1220     722.7418     760.0138     800.0101      32.1565
 5136.6420    5136.6420      70.8871     688.2523     726.3655     760.0000     794.8884      32.1919
 5136.4896    5136.4896      70.1084     719.9287     727.9963     766.2360     799.9885      32.2270
 5136.3372    5136.3372      70.1221     727.9850     759.4409     768.8701     803.3687      32.2621
 5136.1848    5136.1848      70.4283     727.7504     760.6233     797.3320     807.9930      32.2973
 5136.0324    5136.0324      70.5818     727.5003     760.9996     799.9970     832.3472      32.3326
 5135.8800    5135.8800      70.4732     726.6257     760.0008     798.2513     832.2501      32.3678
 5135.7276    5135.7276      70.1299     724.3759     758.8755     792.0025     828.5015      32.4029
 5135.5752    5135.5752      69.5007     719.5000     752.0000     792.0000     830.3750      32.4377
 5135.4228    5135.4229      68.4925     717.5000     752.0000     792.0000     825.0000      32.4719
 5135.2704    5135.2704      67.2728     712.7480     750.4912     789.8659     823.9943      32.5056
 5135.1180    5135.1180      66.2956     709.8773     738.1230     776.9968     815.9935      32.5388
 5134.9656    5134.9656      65.9612     712.0029     736.2586     773.9943     809.9910      32.5717
 5134.8132    5134.8132      66.2594     713.9909     742.2226     770.0183     803.7785      32.6047
 5134.6608    5134.6608      66.6732     709.7680     743.1213     776.0991     803.2521      32.6380
 5134.5084    5134.5084      66.5023     707.8822     741.8798     781.3548     808.3552      32.6713
 5134.3560    5134.3560      65.4449     704.0135     738.1381     777.8872     812.2365      32.7040
 5134.2036    5134.2036      63.9445     701.0094     735.0097     775.7566     808.6363      32.7360
 5134.0512    5134.0512      62.8208     701.2493     726.5234     768.0213     803.8881      32.7674
 5133.8988    5133.8988      62.5879     695.0149     727.9964     597.4069     393.3542      32.7987
 5133.7464    5133.7464      63.2384     698.8672     720.2656     759.6723     483.3168      32.8304
 5133.5940    5133.5940      64.4382     694.2576     726.8641     756.8801     711.6250      32.8626
 5133.4416    5133.4416      65.9047     686.2602     718.0113     759.9960     712.0000      32.8956
 5133.2892    5133.2892      67.5530     687.9984     720.8724     760.0000     634.8197      32.9294
 5133.1368    5133.1368      69.1700     687.5003     721.3747     760.2499     523.0596      32.9639
 5132.9844    5132.9844      70.3080     685.7500     721.8750     762.8750     682.2500      32.9991
 5132.8320    5132.8320      70.6641     688.0000     720.1250     761.1250     493.7500      33.0345
 5132.6796    5132.6796      70.3984     688.0000     720.0000     758.3741     794.7479      33.0697
 5132.5272    5132.5272      70.0316     688.0000     720.0000     756.7496     791.1258      33.1047
 5132.3748    5132.3748      69.9831     688.0000     720.0000     756.3752     792.0000      33.1397
 5132.2224    5132.2224      70.1979     688.0000     720.0000     756.4994     792.0000      33.1746
 5132.0700    5132.0700      70.3404     686.7554     720.0000     756.6245     792.0000      33.2098
 5131.9176    5131.9176      70.1676     687.9950     718.3815     756.5005     792.0000      33.2449
 5131.7652    5131.7652      69.7078     685.5091     719.9941     757.9946     792.0000      33.2797
 5131.6128    5131.6128      69.2189     692.8510     720.4984     754.1376     791.6262      33.3144
 5131.4604    5131.4604      68.9693     695.9910     725.4856     758.9859     791.9989      33.3489
 5131.3080    5131.3080      69.1296     696.0000     723.2557     759.9975     791.7506      33.3834
 5131.1556    5131.1556      69.7211     695.0021     727.9898     760.2495     791.9995      33.4183
 5131.0032    5131.0032      70.5585     693.3779     729.6221     767.9862     798.3637      33.4536
 5130.8508    5130.8508      71.2516     693.3750     729.1257     768.0000     802.8687      33.4892
 5130.6984    5130.6984      71.4110     711.1066     728.6255     768.0000     803.6242      33.5250
 5130.5460    5130.5460      70.9570     711.9994     743.9897     768.0000     802.8755      33.5604
 5130.3936    5130.3936      70.0620     709.5000     744.2500     781.8750     802.1250      33.5955
 5130.2412    5130.2412      68.9868     709.5000     739.6250     777.2500     816.0000      33.6300
 5130.0888    5130.0888      67.9919     704.7532     736.1281     776.5009     816.4982      33.6640
