~VERSION INFORMATION
VERS.           2.0   :CWLS Log ASCII Standard - VERSION 2.0
WRAP.           NO    :One Line per depth step
PROD.  Schlumberger   :LAS Producer
PROG.  DLIS to ASCII 2.3                               :LAS Program name and version
CREA.        2023/07/14 00:15                          :LAS Creation date {YYYY/MM/DD hh:mm}
DLIS_CREA.  2023-Jul-14 00:11                          :DLIS Creation date and time {YYYY-MMM-DD hh:mm}
SOURCE.     LIS_010.dlis                               :DLIS File Name
FILE-ID.     LIS   .003                                :File Identification Number
#--------------------------------------------------
~WELL INFORMATION
#MNEM.UNIT      DATA             DESCRIPTION
#---- ------ --------------   -----------------------------
STRT .M      5284.9272       :START DEPTH     
STOP .M      4939.1316       :STOP DEPTH     
STEP .M        -0.1524       :STEP     
NULL .          -999.25      :NULL VALUE
COMP .        PETROBRAS S.A.                           :COMPANY
WELL .        3-BRSA-293D-SPS                          :WELL
FLD  .        BS-400                                   :FIELD
LOC  .        BASE SAD 69:                             :LOCATION
CNTY .        SANTOS                                   :COUNTY
STAT .        BRASIL                                   :STATE
CTRY .        BRASIL                                   :COUNTRY
API  .                                                 :API NUMBER
UWI  .                                                 :UNIQUE WELL ID
DATE .        15/11/2004                               :LOG DATE
SRVC .        Schlumberger                             :SERVICE COMPANY
LATI .DEG                                              :LATITUDE
LONG .DEG                                              :LONGITUDE
GDAT .                                                 :GeoDetic Datum
#-----------------------------------------------------------------------------
~PARAMETER INFORMATION
#MNEM.UNIT    VALUE                      DESCRIPTION
#---- -----   --------------------       ------------------------
APD  .M               24                 :
BHT  .DEGF           260                 :
BLI  .M             5289                 :
BS   .IN         8.50000                 :
CN   .        PETROBRAS S.A.             :
COUN .        SANTOS                     :
CS   .IN         9.62500                 :
DATE .        15/11/2004                 :
DFD  .LB/G      12.30000                 :
DFL  .C3               2                 :
DFPH .        N/A                        :
DFT  .        SINTETICO                  :
DFV  .S               95                 :
DMF  .        MESA ROTATIVA              :
EDF  .M               24                 :
EGL  .M             -500                 :
EKB  .        N/A                        :
ENGI .        HERNANDEZ / LOCK           :
FL1  .        X   7292392.00 M LAT 24 28 47.189 S :
FL2  .        Y    584087.00 M LON 44 10 12.698 W :
FL3  .        MC  45 GRAUS               :
FN   .        BS-400                     :
LMF  .        MESA ROTATIVA              :
LUL  .        MACAE                      :
MCSS .        PRENSA                     :
MCST .DEGF            80                 :
MFSS .        PRENSA                     :
MFST .DEGF            80                 :
MSS  .        LINHA DE FLUXO             :
MST  .DEGF            80                 :
PDAT .        NIVEL DO MAR               :
R1   .        01. APRESENTAÇÃO DE ACORDO COM REQUERIMENTO DO CLIENTE :
R2   .        02. TEMPERATURA MÁXIMA DO POÇO T1=T2= 290 DEGF @  5275 M :
R3   .        03. INICIO DA CIRCULAÇÃO  12/11/2004 09 00 H :
R4   .        04. FINAL DA CIRCULAÇÃO   12/11/2004 18 00 H :
R5   .        05. TEMPO TOTAL DE CIRCULAÇÃO   09 00 H :
R6   .        06. FLUIDO DE PERFURAÇÃO  SINTETICO (BR-MUL  BR-MI)  60% TEOR DO OLEO :
R7   .        07. SALINIDADE DA LAMA  254762 PPM NACL NA FASE DE AGUA :
R8   .        08. INCLINAÇÃO MÁXIMA DO POÇO  37.37 GRAUS @ 5100 M :
R9   .        09. PRIMEIRAS E ULTIMAS LEITURAS  :
RMB  .OHMM    > 10                       :
RMCS .OHMM    > 10                       :
RMFS .OHMM    > 10                       :
RMS  .OHMM    >10                        :
RUN  .                 2                 :
STAT .        BRASIL                     :
TCS  .        18 00 H                    :
TDD  .M             5288                 :
TDL  .M             5293                 :
TLAB .        N/A                        :
TLI  .M             5000                 :
WITN .        ERNANI / ZE MARIA          :
WN   .        3-BRSA-293D-SPS            :
LUN  .              8808                 :
HIDE .        3-SPS-41D                  :
HID2 .        HIGH DEFINITION INDUCTION LOG :
HID3 .        X-MULTIPOLE ARRAY ACOUSTILOG :
HID4 .        GAMMA RAY LOG              :
HID5 .        TTRM SUB                   :
CLAB .        BACIA                      :
SLAB .        PAIS                       :
CMT1 .        ESC  1 200                 :
CMT2 .        PROF. MEDIDA               :
CMT4 .        SONDA  SS-43               :
HDAT .        SAD 69                     :
FL   .        BASE SAD 69                :
OS1  .        RCI/GR                     :
OS2  .        CHECK SHOT                 :
OS3  .        GR/CN/ZDL                  :
OS5  .        RCOR/GR                    :
LNAM .        ZDL/CN/XMAC/HDIL/EARTH IMAGER/RCI/RCOR/CHECK SHOT/GR :
TOOL .        ZDL/CN/XMAC/HDIL/EARTH IMAGER/RCI/RCOR/CHECK SHOT/GR :
LSOU .        PETROBRAS                  :
LSRV .        OH WIRELINE                :
LTYP .        RAW                        :
EPD  .M                0                 :
LDAT .        15/11/2004                 :
TRIP .                 3                 :
SON  .            786588                 :
CBDR .M             4277                 :
CBLO .        NR                         :
CBL1 .        NR                         :
STEM .DEGF    N/A                        :
BSAL .            254762                 :
BARI .        OFF                        :
DLAB .        12/11/2004                 :
MRT  .DEGF           290                 :
TSTR .        HDIL/XMAC/GR/TTRM          :
TSTG .        N/A                        :
STUS .        FINAL                      :
LCNM .        BAKER ATLAS                :
LCC  .               150                 :
NATI .        BRASIL                     :
OPMD .        OH.WIRELINE                :
PANA .        HERNANDEZ / LOCK           :
PCON .        BAKER ATLAS                :
R11  .        SL     5268.3 M / 5000.0 M :
R12  .        GR     5268.3 M / 5000.0 M :
R13  .        XMAC   5279.5 M / 5000.0 M :
R14  .        HDIL   5289.0 M / 5000.0 M :
R17  .        11. DECLINAÇÃO MAGNETICA  -20.9 GRAUS :
R18  .        12. COORDENADAS BASE       :
R21  .        Y    583936.00 M           :
R22  .        MC  45 GRAUS               :
PVER .           4.10000                 :
WDFN .        /space/expusr/3-SPS-41D_RUN2/i77bf02_2spf.xtf :
OCT  .        i77bf                      :
OS4  .        EARTH IMAGER               :
R16  .        10. PONTO FRACO UTILIZADO  10K :
R20  .        X   7292512.00 M           :
R24  .        13. CADASTRO ANP  86316021017 :
#-----------------------------------------------------------------------------
~CURVE INFORMATION
#MNEM.UNIT   API CODE                                  DESCRIPTION
#---- -----  --------                                  -----------------------
DEPT .M                                                :DEPTH (BOREHOLE) {F10.4}
DEPT .M                                                : {F13.4}
DT   .US/F                                             : {F13.4}
SFN1 .US                                               : {F13.4}
SFN2 .US                                               : {F13.4}
SFN3 .US                                               : {F13.4}
SFN4 .US                                               : {F13.4}
TT   .MS                                               : {F13.4}
#-----------------------------------------------------------------------------
# 
#     DEPT        DEPT         DT           SFN1         SFN2         SFN3         SFN4         TT
#
~A  
# ...
 5128.4124    5128.4124      75.6270     721.9695     756.3392     791.9726     826.9690      33.8520
 5128.2600    5128.2600      77.7335     720.3775     753.2548     791.8752     824.2542      33.8909
 5128.1076    5128.1076      79.0002     724.8697     757.9944     794.2472     829.3690      33.9304
 5127.9552    5127.9552      78.8198     729.4963     765.2442     801.2444     833.4967      33.9698
 5127.8028    5127.8028      77.2005     728.0006     760.6270     800.0005     833.0002      34.0084
 5127.6504    5127.6504      74.7355     735.6250     772.1250     808.2500     845.1250      34.0458
 5127.4980    5127.4980      72.2054     736.0000     768.0000     800.0000     834.1250      34.0819
 5127.3456    5127.3456      70.3359     728.0060     761.5042     803.1258     839.3746      34.1171
 5127.1932    5127.1932      69.5404     736.8737     767.7539     804.3780     838.7507      34.1519
 5127.0408    5127.0408      69.4789     735.6287     771.4823     807.2489     839.3653      34.1866
 5126.8884    5126.8884      69.3695     738.2482     759.0332     806.4885     832.1888      34.2213
 5126.7360    5126.7360      68.7820     737.2542     777.6707     800.0275     657.7422      34.2555
 5126.5836    5126.5836      67.7436     745.4679     768.0379     810.3347     512.4391      34.2894
 5126.4312    5126.4312      66.6492     742.6351     777.8403     805.2680     842.4579      34.3227
 5126.2788    5126.2788      65.9173     728.0461     773.6384     813.1002     834.6533      34.3557
 5126.1264    5126.1264      65.6542     732.1135     757.6695     808.0142     844.3479      34.3885
 5125.9740    5125.9740      65.8440     735.9907     764.1093     793.1609     840.0105      34.4215
 5125.8216    5125.8216      66.3898     734.2536     766.8694     797.7406     824.0327      34.4547
 5125.6692    5125.6692      67.0194     719.8990     766.0015     802.4921     831.3627      34.4882
 5125.5168    5125.5168      67.4167     718.2521     750.1457     802.7497     834.8704      34.5219
 5125.3644    5125.3644      67.3767     702.6396     749.3757     784.2673     834.8750      34.5556
 5125.2120    5125.2120      66.9563     699.3768     735.2580     787.1234     817.7597      34.5891
 5125.0596    5125.0596      66.4179     696.0000     731.5000     770.1250     820.5000      34.6223
 5124.9072    5124.9072      66.0263     685.5000     728.0000     768.0000     800.8750      34.6554
 5124.7548    5124.7548      65.9010     692.2501     713.0052     760.9951     799.2461      34.6883
 5124.6024    5124.6024      65.9502     692.3701     722.6251     752.0042     791.9926      34.7213
 5124.4500    5124.4500      66.0111     686.9910     722.7417     756.6250     783.8817      34.7543
 5124.2976    5124.2976      66.0120     680.0000     716.2430     756.6205     789.1246      34.7873
 5124.1452    5124.1452      66.0194     680.0000     712.0185     753.8870     788.8761      34.8202
 5123.9928    5123.9928      66.1563     680.0000     711.3775     744.7867     786.0116      34.8532
 5123.8404    5123.8404      66.3498     679.1282     711.4995     746.2445     776.2856      34.8864
 5123.6880    5123.6880      66.2086     678.5021     710.1295     745.3779     778.3680      34.9196
 5123.5356    5123.5356      65.3670     679.9956     710.2496     745.3750     777.8765      34.9522
 5123.3832    5123.3832      63.9965     677.6310     707.0083     744.0035     776.6282      34.9843
 5123.2308    5123.2308      62.8602     668.8940     700.8883     736.0174     768.0188      35.0157
 5123.0784    5123.0784      62.8002     665.3813     696.0088     731.5081     764.7559      35.0471
 5122.9260    5122.9260      64.0183     665.6246     696.4993     736.6176     768.8691      35.0791
 5122.7736    5122.7736      65.8520     665.5001     696.5000     738.1234     771.2475      35.1121
 5122.6212    5122.6212      67.3933     665.9997     696.6249     738.0001     770.7503      35.1458
 5122.4688    5122.4688      68.2202     671.8750     698.5000     737.8750     771.1250      35.1799
 5122.3164    5122.3164      68.5082     672.0000     704.0000     739.0000     770.7500      35.2142
 5122.1640    5122.1640      68.6212     672.0000     704.7501     740.3765     771.6262      35.2485
 5122.0116    5122.0116      68.6222     672.0030     704.8770     744.0000     774.6261      35.2828
 5121.8592    5121.8592      68.2613     675.8736     707.4990     744.0000     776.0000      35.3170
 5121.7068    5121.7068      67.4586     674.6265     706.6275     744.0000     775.9998      35.3507
 5121.5544    5121.5544      66.5800     675.6285     708.2498     744.0000     775.8755      35.3840
 5121.4020    5121.4020      66.1653     677.4923     708.1255     744.0000     776.1240      35.4169
 5121.2496    5121.2496      66.4661     676.7528     709.7438     744.0000     776.0005      35.4501
 5121.0972    5121.0972      67.2107     679.9889     711.3694     744.0000     778.6160      35.4837
 5120.9448    5120.9448      67.7785     680.0000     712.1227     751.9756     783.3605      35.5177
 5120.7924    5120.7924      67.7682     679.2520     711.7510     749.3820     783.9983      35.5515
 5120.6400    5120.6400      67.2941     677.5040     710.1288     747.5043     782.8776      35.5852
 5120.4876    5120.4876      66.7592     684.2369     708.1289     746.2524     782.3760      35.6186
 5120.3352    5120.3352      66.4222     687.9941     713.2420     744.0035     777.3828      35.6518
 5120.1828    5120.1828      66.2337     688.0000     719.7422     751.9904     776.7508      35.6850
 5120.0304    5120.0304      66.0261     688.0000     718.7508     757.3705     783.9940      35.7180
 5119.8780    5119.8780      65.7889     688.0000     718.7500     754.2514     788.9977      35.7509
 5119.7256    5119.7256      65.7208     688.0000     719.1250     754.5000     785.8750      35.7838
 5119.5732    5119.5732      65.9614     687.3750     718.8750     754.5000     786.2500      35.8167
 5119.4208    5119.4208      66.4295     687.4999     716.7501     753.7492     786.2500      35.8500
 5119.2684    5119.2684      66.9333     687.3747     716.8754     752.5003     786.2537      35.8834
 5119.1160    5119.1160      67.3360     687.1262     717.2486     752.7500     789.8748      35.9171
 5118.9636    5118.9636      67.5965     688.0046     716.2509     752.7493     789.7502      35.9509
 5118.8112    5118.8112      67.7231     690.6138     716.7479     752.3766     789.8745      35.9846
 5118.6588    5118.6588      67.7297     695.2319     724.4696     752.3750     789.6260      36.0185
 5118.5064    5118.5064      67.5967     693.7553     726.1192     759.9729     790.3723      36.0523
 5118.3540    5118.3540      67.2333     691.0087     724.2560     761.1214     791.9948      36.0859
 5118.2016    5118.2016      66.4077     691.7479     723.0035     760.0032     793.3711      36.1191
 5118.0492    5118.0492      65.1171     692.1241     722.5012     760.0000     792.0034      36.1517
 5117.8968    5117.8968      64.1033     691.8755     722.8742     759.5010     792.0000      36.1838
 5117.7444    5117.7444      64.4669     691.8750     722.5006     759.6248     790.7521      36.2160
 5117.5920    5117.5920      66.7160     691.8750     722.5000     759.5002     790.8748      36.2494
 5117.4396    5117.4396      70.0380     691.8750     722.5000     759.6249     790.8750      36.2844
 5117.2872    5117.2872      72.6209     688.0023     722.6249     759.3751     790.3753      36.3207
 5117.1348    5117.1348      73.1575     697.2500     720.0000     759.5000     790.7500      36.3573
 5116.9824    5116.9824      71.8662     697.0000     728.6250     760.8750     791.0000      36.3933
 5116.8300    5116.8300      69.9847     696.0000     728.3748     767.3744     798.2504      36.4283
 5116.6776    5116.6776      68.5676     695.9999     727.9997     766.1240     799.1248      36.4626
 5116.5252    5116.5252      67.8813     695.8752     727.6245     764.9973     798.8730      36.4965
