~VERSION INFORMATION
VERS.           2.0   :CWLS Log ASCII Standard - VERSION 2.0
WRAP.           NO    :One Line per depth step
PROD.  Schlumberger   :LAS Producer
PROG.  DLIS to ASCII 2.3                               :LAS Program name and version
CREA.        2023/07/14 00:15                          :LAS Creation date {YYYY/MM/DD hh:mm}
DLIS_CREA.  2023-Jul-14 00:11                          :DLIS Creation date and time {YYYY-MMM-DD hh:mm}
SOURCE.     LIS_003.dlis                               :DLIS File Name
FILE-ID.     LIS   .003                                :File Identification Number
#--------------------------------------------------
~WELL INFORMATION
#MNEM.UNIT      DATA             DESCRIPTION
#---- ------ --------------   -----------------------------
STRT .M      5239.8168       :START DEPTH     
STOP .M      3827.6784       :STOP DEPTH     
STEP .M        -0.1524       :STEP     
NULL .          -999.25      :NULL VALUE
COMP .        PETROBRAS S.A.                           :COMPANY
WELL .        3-BRSA-293D-SPS                          :WELL
FLD  .        BS-400                                   :FIELD
LOC  .        BASE SAD 69:                             :LOCATION
CNTY .        SANTOS                                   :COUNTY
STAT .        BRASIL                                   :STATE
CTRY .        BRASIL                                   :COUNTRY
API  .                                                 :API NUMBER
UWI  .                                                 :UNIQUE WELL ID
DATE .        22/10/2004                               :LOG DATE
SRVC .        Schlumberger                             :SERVICE COMPANY
LATI .DEG                                              :LATITUDE
LONG .DEG                                              :LONGITUDE
GDAT .                                                 :GeoDetic Datum
#-----------------------------------------------------------------------------
~PARAMETER INFORMATION
#MNEM.UNIT    VALUE                      DESCRIPTION
#---- -----   --------------------       ------------------------
APD  .M               24                 :
BHT  .DEGF           260                 :
BLI  .M       5227.50000                 :
BS   .IN         8.50000                 :
CN   .        PETROBRAS S.A.             :
COUN .        SANTOS                     :
CS   .IN         9.62500                 :
DATE .        22/10/2004                 :
DFD  .LB/G      12.30000                 :
DFL  .C3               2                 :
DFPH .        N/A                        :
DFT  .        SINTETICO                  :
DFV  .S               87                 :
DMF  .        MESA ROTATIVA              :
EDF  .M               24                 :
EGL  .M             -500                 :
EKB  .        N/A                        :
ENGI .        HERNANDEZ/LOCK             :
FL1  .        X   7292392.00 M LAT 24 28 47.189 S :
FL2  .        Y    584087.00 M LON 44 10 12.698 W :
FL3  .        MC  45 GRAUS               :
FN   .        BS-400                     :
LMF  .        MESA ROTATIVA              :
LUL  .        MACAE                      :
MCSS .        PRENSA                     :
MCST .DEGF            80                 :
MFSS .        PRENSA                     :
MFST .DEGF            80                 :
MSS  .        LINHA DE FLUXO             :
MST  .DEGF            80                 :
PDAT .        NIVEL DO MAR               :
R1   .        01. APRESENTAÇÃO DE ACORDO COM REQUERIMENTO DO CLIENTE :
R2   .        02. TEMPERATURA MÁXIMA DO POÇO T1=T2= 260 DEGF @  5180 M :
R3   .        03. INICIO DA CIRCULAÇÃO  13 45 H 21/10/2004 :
R4   .        04. FINAL DA CIRCULAÇÃO   16 00 H 21/10/2004 :
R5   .        05. TEMPO TOTAL DE CIRCULAÇÃO  02 15 H :
R6   .        06. FLUIDO DE PERFURAÇÃO  SINTETICO (BR-MUL  BR-MI)  65% TEOR DO OLEO :
R7   .        07. SALINIDADE DA LAMA  266377 PPM NACL NA FASE DE AGUA :
R8   .        08. INCLINAÇÃO MÁXIMA DO POÇO  37.37 GRAUS @ 5100 M :
R9   .        09. PRIMEIRAS E ULTIMAS LEITURAS  :
RMB  .OHMM    > 10                       :
RMCS .OHMM    > 10                       :
RMFS .OHMM    > 10                       :
RMS  .OHMM    > 10                       :
RUN  .                 1                 :
STAT .        BRASIL                     :
TCS  .        16 00 H                    :
TDD  .M             5230                 :
TDL  .M             5231                 :
TLAB .        N/A                        :
TLI  .M             3850                 :
WITN .        ALCIDIO/VLADIMIR           :
WN   .        3-BRSA-293D-SPS            :
LUN  .              8808                 :
HIDE .        3-SPS-41D                  :
HID2 .        HIGH DEFINITION INDUCTION LOG :
HID3 .        X-MULTIPOLE ARRAY ACOUSTILOG :
HID4 .        GAMMA RAY LOG              :
HID5 .        TTRM SUB                   :
CLAB .        BACIA                      :
SLAB .        PAIS                       :
CMT1 .        ESC  1 1000                :
CMT2 .        PROF. MEDIDA               :
CMT4 .        SONDA  SS-43               :
HDAT .        SAD 69                     :
FL   .        BASE SAD 69                :
OS1  .        GR/CN/ZDL                  :
OS2  .        MREX/GR                    :
OS3  .        RCI/GR                     :
0S4  .        3DEX/GR                    :
OS5  .        SL/GR                      :
LNAM .        MREX/ZDL/CN/XMAC/HDIL/RCI/3DEX/SL/GR :
TOOL .        MREX/ZDL/CN/XMAC/HDIL/RCI/3DEX/SL/GR :
LSOU .        PETROBRAS                  :
LSRV .        OH WIRELINE                :
LTYP .        RAW                        :
EPD  .M                0                 :
LDAT .        22/10/2004                 :
TRIP .                 1                 :
SON  .            772317                 :
CBDR .M             4277                 :
CBLO .M             4277                 :
CBL1 .M             4277                 :
STEM .DEGF    N/A                        :
BSAL .            266377                 :
BARI .        OFF                        :
DLAB .        21/10/2004                 :
MRT  .DEGF           260                 :
TSTR .        HDIL/XMAC/GR/TTRM          :
TSTG .        N/A                        :
STUS .        FINAL                      :
LCNM .        BAKER ATLAS                :
LCC  .               150                 :
NATI .        BRASIL                     :
OPMD .        OH.WIRELINE                :
PANA .        HERNANDEZ/LOCK             :
PCON .        BAKER ATLAS                :
R11  .        SL     5196.0 M/4960.0 M   :
R12  .        GR     4960.0 M/4277.0 M   :
R13  .        XMAC   5202.0 M/3850.0 M   :
R14  .        HDIL   5227.5 M/4277.0 M   :
R15  .        3DEX   5217.0 M/4960.0 M   :
R17  .        10. PONTO FRACO UTILIZADO  10K :
R18  .        11. DECLINAÇÃO MAGNETICA  -20.9 GRAUS :
R19  .        12. COORDENADAS ARATU      :
R21  .        X   7292512.00 M           :
R22  .        Y    583936.00 M           :
R23  .        MC  45 GRAUS               :
R25  .        13. CADASTRO ANP  86316021017 :
PVER .           4.10000                 :
WDFN .        /space/expusr/3-SPS-41D/i77bf03_2spf.xtf :
OCT  .        i77bf                      :
#-----------------------------------------------------------------------------
~CURVE INFORMATION
#MNEM.UNIT   API CODE                                  DESCRIPTION
#---- -----  --------                                  -----------------------
DEPT .M                                                :DEPTH (BOREHOLE) {F10.4}
DEPT .M                                                : {F13.4}
DT   .US/F                                             : {F13.4}
SFN1 .US                                               : {F13.4}
SFN2 .US                                               : {F13.4}
SFN3 .US                                               : {F13.4}
SFN4 .US                                               : {F13.4}
TT   .MS                                               : {F13.4}
#-----------------------------------------------------------------------------
# 
#     DEPT        DEPT         DT           SFN1         SFN2         SFN3         SFN4         TT
#
~A  
# ...
 4132.1736    4132.1736      66.2684     677.7534     804.2303     735.7511     760.1162     244.5592
 4132.0212    4132.0212      65.7981     679.9998     707.7460     736.6384     837.4941     244.5921
 4131.8688    4131.8688      65.7045     679.8706     705.6253     810.6250     767.4928     244.6250
 4131.7164    4131.7164      66.3404     677.8826     705.7495     810.6250     764.2623     244.6580
 4131.5640    4131.5640      67.8569     764.3269     705.2517     835.9128     760.0146     244.6919
 4131.4116    4131.4116      69.9788     765.1235     801.9525     834.1308     760.0000     244.7269
 4131.2592    4131.2592      72.1162     756.1493     797.0142     834.1250     760.0000     244.7630
 4131.1068    4131.1068      73.5416     757.2474     795.2541     834.1250     760.0000     244.7998
 4130.9544    4130.9544      73.7599     762.7392     795.3748     834.1250     760.0000     244.8367
 4130.8020    4130.8020      72.9135     763.1244     795.1254     834.1250     760.0000     244.8731
 4130.6496    4130.6496      71.7537     757.0075     795.3747     834.1250     760.0000     244.9090
 4130.4972    4130.4972      71.1715     757.0000     789.1303     827.7554     760.0000     244.9446
 4130.3448    4130.3448      71.5905     854.3281     891.3257     929.4510     760.0000     244.9804
 4130.1924    4130.1924      72.7039     853.7500     891.5000     929.7500     760.0000     245.0168
 4130.0400    4130.0400      73.7686     852.7500     891.7500     929.7500     760.0000     245.0537
 4129.8876    4129.8876      74.2458     850.8748     889.3741     928.7495     760.0000     245.0908
 4129.7352    4129.7352      74.1374     850.4975     887.9974     927.9963     760.0000     245.1279
 4129.5828    4129.5828      73.7934     848.0005     885.3752     924.2502     760.1357     245.1648
 4129.4304    4129.4304      73.5713     848.3752     885.4994     924.3737     859.6746     245.2016
 4129.2780    4129.2780      73.5805     848.5008     885.1253     923.6221     960.2492     245.2384
 4129.1256    4129.1256      73.7016     848.8729     885.2494     922.2540     959.8753     245.2753
 4128.9732    4128.9732      73.7444     848.0031     885.0009     923.8692     959.9996     245.3119
 4128.8208    4128.8208      73.5325     849.2460     885.4984     924.2488     960.9968     245.3487
 4128.6684    4128.6684      73.0337     848.3775     886.2479     923.8761     960.7507     245.3852
 4128.5160    4128.5160      72.3879     848.0009     884.0055     922.8775     959.2537     245.4214
 4128.3636    4128.3636      71.7877     843.2599     881.1310     920.0060     957.6284     245.4573
 4128.2112    4128.2112      71.3627     842.1269     878.7541     918.6274     956.0028     245.4930
 4128.0588    4128.0588      71.0578     840.0029     876.3782     913.8814     953.0041     245.5285
 4127.9064    4127.9064      70.7062     843.8712     876.3750     914.2496     951.8761     245.5639
 4127.7540    4127.7540      70.2314     843.3753     879.1233     913.1257     951.1255     245.5990
 4127.6016    4127.6016      69.7426     842.2500     879.8750     917.0000     949.6250     245.6339
 4127.4492    4127.4492      69.4828     839.6250     875.3750     915.3750     952.0000     245.6687
 4127.2968    4127.2968      69.6127     837.7506     875.2488     911.6252     951.4990     245.7035
 4127.1444    4127.1444      70.0599     838.9999     872.8766     911.9990     949.5003     245.7386
 4126.9920    4126.9920      70.6000     838.8741     874.7500     910.8764     949.8732     245.7738
 4126.8396    4126.8396      71.1375     838.1280     874.7486     911.9994     948.3770     245.8094
 4126.6872    4126.6872      71.8404     840.0002     873.8792     911.6248     949.6240     245.8454
 4126.5348    4126.5348      72.8804     840.1331     876.0078     911.5119     949.1305     245.8818
 4126.3824    4126.3824      74.1268     843.6121     879.3626     916.6061     951.4913     245.9187
 4126.2300    4126.2300      75.1489     844.6217     878.6275     917.9954     954.8637     245.9563
 4126.0776    4126.0776      75.5041     848.6131     883.7348     922.1128     958.8631     245.9940
 4125.9252    4125.9252      75.1700     848.1263     883.7500     920.1302     958.0023     246.0316
 4125.7728    4125.7728      74.5004     848.4992     884.8725     920.8733     957.1269     246.0689
 4125.6204    4125.6204      73.8166     848.1257     883.0035     920.5007     955.8773     246.1058
 4125.4680    4125.4680      73.1343     849.4980     885.7459     921.9978     957.7472     246.1424
 4125.3156    4125.3156      72.3236     851.3729     885.9997     922.9989     959.1235     246.1785
 4125.1632    4125.1632      71.4010     855.6218     889.8721     925.7479     959.1250     246.2143
 4125.0108    4125.0107      70.5919     857.6250     894.1250     925.7500     959.1250     246.2496
 4124.8584    4124.8584      70.1231     857.7500     890.8750     926.6250     959.1250     246.2847
 4124.7060    4124.7061      69.9959     859.6250     891.5000     926.6250     959.1250     246.3197
 4124.5536    4124.5536      70.0581     856.9999     894.3756     929.7500     959.1250     246.3547
 4124.4012    4124.4012      70.2041     856.8738     895.2468     929.7500     959.1250     246.3898
 4124.2488    4124.2488      70.3964     855.7504     892.3752     929.7498     959.1250     246.4250
 4124.0964    4124.0964      70.5563     856.0062     892.5037     929.6250     959.1250     246.4603
 4123.9440    4123.9440      70.5535     859.3676     894.4975     929.6250     959.1250     246.4956
 4123.7916    4123.7916      70.3452     856.0129     893.3793     929.6250     959.1250     246.5306
 4123.6392    4123.6392      70.0801     850.7682     892.3785     929.6250     959.1250     246.5656
 4123.4868    4123.4868      70.0016     848.2577     886.7674     928.2543     959.1250     246.6007
 4123.3344    4123.3344      70.1949     848.7486     885.8774     924.8842     959.1250     246.6358
 4123.1820    4123.1820      70.5247     848.8747     886.1244     923.5032     960.4968     246.6710
 4123.0296    4123.0296      70.8996     847.7522     886.0002     922.3772     960.0010     246.7065
 4122.8772    4122.8772      71.4607     847.2508     881.6321     920.7526     958.3776     246.7423
 4122.7248    4122.7248      72.3978     847.1252     881.2505     918.1283     956.0030     246.7785
 4122.5724    4122.5724      73.6058     847.9992     883.2482     919.9983     956.0000     246.8153
 4122.4200    4122.4200      74.5710     853.7471     886.1235     921.8740     959.9979     246.8526
 4122.2676    4122.2676      74.7368     855.2500     893.3750     928.5000     960.0000     246.8900
 4122.1152    4122.1152      73.9931     853.2500     892.5000     930.0000     960.0000     246.9270
 4121.9628    4121.9628      72.7952     853.3748     890.8733     929.9980     960.0000     246.9634
 4121.8104    4121.8104      71.7869     853.0014     888.0014     926.6254     960.0000     246.9993
 4121.6580    4121.6580      71.3233     854.4982     889.4998     927.0010     960.0000     247.0350
 4121.5056    4121.5056      71.3644     853.1214     889.3727     927.7502     960.0000     247.0706
 4121.3532    4121.3532      71.6092     850.9953     887.9974     927.8703     960.0034     247.1065
 4121.2008    4121.2008      71.9372     848.7561     886.7479     925.6201     961.6211     247.1424
 4121.0484    4121.0484      72.6709     851.2411     885.8781     923.6322     960.0058     247.1786
 4120.8960    4120.8960      74.0568     852.1222     887.4947     922.6282     959.7508     247.2156
 4120.7436    4120.7436      75.7426     852.8729     887.8739     925.7411     959.0021     247.2535
 4120.5912    4120.5912      76.8180     853.7478     887.9997     926.1241     959.0000     247.2919
 4120.4388    4120.4388      76.3473     854.1242     889.6215     926.8734     959.0000     247.3301
 4120.2864    4120.2864      74.2330     855.2480     891.2471     927.9980     959.0000     247.3672
