~VERSION INFORMATION
VERS.           2.0   :CWLS Log ASCII Standard - VERSION 2.0
WRAP.           NO    :One Line per depth step
PROD.  Schlumberger   :LAS Producer
PROG.  DLIS to ASCII 2.3                               :LAS Program name and version
CREA.        2023/07/14 00:15                          :LAS Creation date {YYYY/MM/DD hh:mm}
DLIS_CREA.  2023-Jul-14 00:11                          :DLIS Creation date and time {YYYY-MMM-DD hh:mm}
SOURCE.     LIS_006.dlis                               :DLIS File Name
FILE-ID.     LIS   .002                                :File Identification Number
#--------------------------------------------------
~WELL INFORMATION
#MNEM.UNIT      DATA             DESCRIPTION
#---- ------ --------------   -----------------------------
STRT .M      5238.7500       :START DEPTH     
STOP .M      5087.2644       :STOP DEPTH     
STEP .M        -0.1524       :STEP     
NULL .          -999.25      :NULL VALUE
COMP .        Petrobras S.A.                           :COMPANY
WELL .        3-SPS-41D                                :WELL
FLD  .        MEXILHOES                                :FIELD
LOC  .                                                 :LOCATION
CNTY .                                                 :COUNTY
STAT .                                                 :STATE
CTRY .                                                 :COUNTRY
API  .                                                 :API NUMBER
UWI  .                                                 :UNIQUE WELL ID
DATE .                                                 :LOG DATE
SRVC .        Schlumberger                             :SERVICE COMPANY
LATI .DEG                                              :LATITUDE
LONG .DEG                                              :LONGITUDE
GDAT .                                                 :GeoDetic Datum
#-----------------------------------------------------------------------------
~PARAMETER INFORMATION
#MNEM.UNIT    VALUE                      DESCRIPTION
#---- -----   --------------------       ------------------------
CN   .        Petrobras S.A.             :
FN   .        MEXILHOES                  :
WN   .        3-SPS-41D                  :
LCC  .               150                 :
WDFN .        /space/expusr/3-SPS-41D/i77bf06_8spf.xtf :
OCT  .        i77bf                      :
RUN  .                                   :RUN NUMBER
PDAT .                                   :Permanent Datum
EPD  .                                   :Elevation of Permanent Datum above Mean Sea Level
LMF  .                                   :Logging Measured From (Name of Logging Elevation Reference)
APD  .                                   :Elevation of Depth Reference (LMF) above Permanent Datum
#-----------------------------------------------------------------------------
~CURVE INFORMATION
#MNEM.UNIT   API CODE                                  DESCRIPTION
#---- -----  --------                                  -----------------------
DEPT .M                                                :DEPTH (BOREHOLE) {F10.4}
DEPT .M                                                : {F13.4}
BIT  .IN                                               : {F13.4}
DEPM .M                                                : {F13.4}
SPD  .M/MN                                             : {F13.4}
CNC  .PU                                               : {F13.4}
CN   .PU                                               : {F13.4}
LSN  .HZ                                               : {F13.4}
SSN  .HZ                                               : {F13.4}
#-----------------------------------------------------------------------------
# 
#     DEPT        DEPT         BIT          DEPM         SPD          CNC          CN           LSN          SSN
#
~A  
# ...
 5164.0740    5164.0740       8.5000    5163.6795       5.2525      14.5780      14.5681    1471.2061    3218.3983
 5163.9216    5163.9216       8.5000    5163.5271       5.2555      14.0062      14.4429    1569.7455    3377.9587
 5163.7692    5163.7692       8.5000    5163.3747       5.2562      14.2625      14.5156    1628.0213    3516.6156
 5163.6168    5163.6168       8.5000    5163.2223       5.2596      14.0699      14.3957    1665.8468    3540.1804
 5163.4644    5163.4644       8.5000    5163.0699       5.2665      14.2016      14.6099    1631.8871    3473.1801
 5163.3120    5163.3120       8.5000    5162.9175       5.2747      14.5923      14.9848    1582.1161    3425.2277
 5163.1596    5163.1596       8.5000    5162.7651       5.2910      14.6931      14.9522    1571.8807    3420.4733
 5163.0072    5163.0072       8.5000    5162.6127       5.2859      14.1230      14.2064    1602.3752    3422.8031
 5162.8548    5162.8548       8.5000    5162.4603       5.2527      13.6528      14.0790    1649.5277    3481.2657
 5162.7024    5162.7024       8.5000    5162.3079       5.2630      13.7876      13.9424    1687.3736    3580.2331
 5162.5500    5162.5500       8.5000    5162.1555       5.2686      13.5268      14.0256    1737.0116    3635.7176
 5162.3976    5162.3976       8.5000    5162.0031       5.2659      14.2323      14.6323    1702.5339    3644.5212
 5162.2452    5162.2452       8.5000    5161.8507       5.2570      14.2154      14.4730    1695.2674    3624.3694
 5162.0928    5162.0928       8.5000    5161.6973       5.2697      14.0457      14.3243    1702.5676    3627.0783
 5161.9404    5161.9404       8.5000    5161.5449       5.3103      14.0208      14.4816    1718.9589    3659.8585
 5161.7880    5161.7880       8.5000    5161.3935       5.2933      14.7032      15.1524    1677.2202    3642.0044
 5161.6356    5161.6356       8.5000    5161.2411       5.2578      14.8131      14.9936    1650.3242    3600.4657
 5161.4832    5161.4832       8.5000    5161.0887       5.2571      14.1572      14.4537    1692.6304    3632.7593
 5161.3308    5161.3308       8.5000    5160.9363       5.2686      14.5126      15.0610    1706.0966    3702.9582
 5161.1784    5161.1784       8.5000    5160.7839       5.2813      15.1791      15.5328    1670.2469    3680.9203
 5161.0260    5161.0260       8.5000    5160.6315       5.2884      14.7674      15.0328    1652.2415    3576.8074
 5160.8736    5160.8736       8.5000    5160.4791       5.2765      15.6110      16.5751    1556.3487    3468.9572
 5160.7212    5160.7212       8.5000    5160.3267       5.2896      17.4300      17.9024    1430.9645    3383.6555
 5160.5688    5160.5688       8.5000    5160.1743       5.2757      17.3346      17.6537    1407.7397    3324.9389
 5160.4164    5160.4164       8.5000    5160.0219       5.2569      17.8694      18.4888    1365.5551    3276.6371
 5160.2640    5160.2640       8.5000    5159.8695       5.2714      17.8512      17.9318    1351.3966    3252.0921
 5160.1116    5160.1116       8.5000    5159.7171       5.2724      16.9790      17.0543    1391.8091    3273.7257
 5159.9592    5159.9592       8.5000    5159.5647       5.2440      15.4890      15.4929    1489.6720    3359.1355
 5159.8068    5159.8068       8.5000    5159.4123       5.2532      14.6253      14.6912    1600.2804    3518.5157
 5159.6544    5159.6544       8.5000    5159.2589       5.2977      13.5576      13.8901    1735.2367    3648.2934
 5159.5020    5159.5020       8.5000    5159.1065       5.3117      14.3784      14.9043    1698.0312    3639.5252
 5159.3496    5159.3496       8.5000    5158.9551       5.2718      14.7497      15.2591    1629.5134    3519.3068
 5159.1972    5159.1972       8.5000    5158.8036       5.2641      15.7338      16.2237    1520.1318    3403.4986
 5159.0448    5159.0448       8.5000    5158.6503       5.2758      15.9981      16.4904    1481.0192    3364.4814
 5158.8924    5158.8924       8.5000    5158.4979       5.2713      16.6735      17.0177    1447.7337    3361.1917
 5158.7400    5158.7400       8.5000    5158.3455       5.2871      16.1890      16.4691    1464.0072    3342.6304
 5158.5876    5158.5876       8.5000    5158.1931       5.2836      16.4863      17.0238    1436.7792    3309.8200
 5158.4352    5158.4352       8.5000    5158.0407       5.2838      17.2361      17.7650    1389.7200    3276.7381
 5158.2828    5158.2828       8.5000    5157.8883       5.3175      17.3184      17.5220    1376.1939    3260.0994
 5158.1304    5158.1304       8.5000    5157.7359       5.2821      16.6358      16.8690    1405.5908    3261.9449
 5157.9780    5157.9780       8.5000    5157.5835       5.2317      16.7850      17.5158    1401.1434    3269.5735
 5157.8256    5157.8256       8.5000    5157.4311       5.1700      18.0258      18.4652    1353.5890    3275.9555
 5157.6732    5157.6732       8.5000    5157.2787       5.1789      17.8588      18.0230    1360.8503    3275.8720
 5157.5208    5157.5208       8.5000    5157.1263       5.1802      17.3313      17.8287    1376.1456    3255.1775
 5157.3684    5157.3684       8.5000    5156.9739       5.1683      17.8374      18.1675    1343.1892    3225.4350
 5157.2160    5157.2160       8.5000    5156.8215       5.2067      17.7895      18.1533    1337.8254    3216.5816
 5157.0636    5157.0636       8.5000    5156.6691       5.2106      17.6668      18.0464    1351.3244    3245.3838
 5156.9112    5156.9112       8.5000    5156.5167       5.1549      17.5552      17.7713    1369.2300    3270.1636
 5156.7588    5156.7588       8.5000    5156.3643       5.1633      17.0640      17.4590    1386.2802    3251.4169
 5156.6064    5156.6064       8.5000    5156.2119       5.1957      17.2741      17.6691    1361.1117    3211.4110
 5156.4540    5156.4540       8.5000    5156.0595       5.1869      17.6848      18.2556    1332.6452    3190.0076
 5156.3016    5156.3016       8.5000    5155.9071       5.1608      17.7983      17.9045    1326.4655    3188.9109
 5156.1492    5156.1492       8.5000    5155.7547       5.1721      16.8747      17.0978    1362.2561    3182.5387
 5155.9968    5155.9968       8.5000    5155.6023       5.2044      16.7595      17.3236    1365.7379    3183.7678
 5155.8444    5155.8444       8.5000    5155.4499       5.1987      17.6851      18.1025    1335.4475    3205.7880
 5155.6920    5155.6920       8.5000    5155.2975       5.1577      17.0763      17.2325    1366.8882    3213.9714
 5155.5396    5155.5396       8.5000    5155.1451       5.1570      16.7615      17.0177    1375.1757    3199.5929
 5155.3872    5155.3872       8.5000    5154.9927       5.1600      15.8070      15.9626    1413.8692    3196.0708
 5155.2348    5155.2348       8.5000    5154.8403       5.1588      15.4357      15.6338    1433.6868    3203.1919
 5155.0824    5155.0824       8.5000    5154.6879       5.1767      14.7519      15.0770    1475.4278    3226.1698
 5154.9300    5154.9300       8.5000    5154.5355       5.1730      15.3741      16.0882    1460.3479    3262.2390
 5154.7776    5154.7776       8.5000    5154.3831       5.1995      16.8138      17.3591    1401.4108    3263.3234
 5154.6252    5154.6252       8.5000    5154.2307       5.1697      16.8590      17.0853    1381.1943    3215.7444
 5154.4728    5154.4728       8.5000    5154.0783       5.1467      16.9789      17.7523    1362.3806    3193.1669
 5154.3204    5154.3204       8.5000    5153.9259       5.1701      18.7523      19.2507    1293.6075    3194.6890
 5154.1680    5154.1680       8.5000    5153.7725       5.1681      18.2575      18.4468    1302.6528    3163.7968
 5154.0156    5154.0156       8.5000    5153.6204       5.1554      17.9385      18.2881    1300.1789    3130.4672
 5153.8632    5153.8632       8.5000    5153.4687       5.1621      17.8997      18.2620    1292.2846    3116.1450
 5153.7108    5153.7108       8.5000    5153.3163       5.1754      17.9428      18.5301    1298.9306    3147.1817
 5153.5584    5153.5584       8.5000    5153.1639       5.2019      18.9839      19.2836    1283.4133    3207.4602
