~VERSION INFORMATION
VERS.           2.0   :CWLS Log ASCII Standard - VERSION 2.0
WRAP.           NO    :One Line per depth step
PROD.  Schlumberger   :LAS Producer
PROG.  DLIS to ASCII 2.3                               :LAS Program name and version
CREA.        2023/07/14 00:15                          :LAS Creation date {YYYY/MM/DD hh:mm}
DLIS_CREA.  2023-Jul-14 00:11                          :DLIS Creation date and time {YYYY-MMM-DD hh:mm}
SOURCE.     LIS_005.dlis                               :DLIS File Name
FILE-ID.     LIS   .001                                :File Identification Number
#--------------------------------------------------
~WELL INFORMATION
#MNEM.UNIT      DATA             DESCRIPTION
#---- ------ --------------   -----------------------------
STRT .M      5238.7500       :START DEPTH     
STOP .M      5087.2644       :STOP DEPTH     
STEP .M        -0.1524       :STEP     
NULL .          -999.25      :NULL VALUE
COMP .        PETROBRAS S.A.                           :COMPANY
WELL .        3-BRSA-293D-SPS                          :WELL
FLD  .        BS-400                                   :FIELD
LOC  .        BASE SAD 69:                             :LOCATION
CNTY .        SANTOS                                   :COUNTY
STAT .        BRASIL                                   :STATE
CTRY .        SANTOS                                   :COUNTRY
API  .                                                 :API NUMBER
UWI  .                                                 :UNIQUE WELL ID
DATE .        23/10/2004                               :LOG DATE
SRVC .        Schlumberger                             :SERVICE COMPANY
LATI .DEG                                              :LATITUDE
LONG .DEG                                              :LONGITUDE
GDAT .                                                 :GeoDetic Datum
#-----------------------------------------------------------------------------
~PARAMETER INFORMATION
#MNEM.UNIT    VALUE                      DESCRIPTION
#---- -----   --------------------       ------------------------
APD  .M               24                 :
BHT  .DEGF           280                 :
BLI  .M             5230                 :
BS   .IN         8.50000                 :
CN   .        PETROBRAS S.A.             :
COUN .        SANTOS                     :
CS   .IN         9.62500                 :
DATE .        23/10/2004                 :
DFD  .LB/G      12.30000                 :
DFL  .C3               2                 :
DFPH .        N/A                        :
DFT  .        SINTETICO                  :
DFV  .S               87                 :
DMF  .        MESA ROTATIVA              :
EDF  .M               24                 :
EGL  .M             -500                 :
EKB  .        N/A                        :
ENGI .        HERNANDEZ/LOCK             :
FL1  .        X   7292392.00 M LAT 24 28 47.189 S :
FL2  .        Y    584087.00 M LON 44 10 12.698 W :
FL3  .        MC  45 GRAUS               :
FN   .        BS-400                     :
LMF  .        MESA ROTATIVA              :
LUL  .        MACAE                      :
MCSS .        PRENSA                     :
MCST .DEGF            80                 :
MFSS .        PRENSA                     :
MFST .DEGF            80                 :
MSS  .        LINHA DE FLUXO             :
MST  .DEGF            80                 :
PDAT .        NIVEL DO MAR               :
R1   .        01. APRESENTAÇÃO DE ACORDO COM REQUERIMENTO DO CLIENTE :
R2   .        02. TEMPERATURA MÁXIMA DO POÇO T1=T2= 260 DEGF @  5180 M :
R3   .        03. INICIO DA CIRCULAÇÃO  13 45 H 21/10/2004 :
R4   .        04. FINAL DA CIRCULAÇÃO   16 00 H 21/10/2004 :
R5   .        05. TEMPO TOTAL DE CIRCULAÇÃO  02 15 H :
R6   .        06. FLUIDO DE PERFURAÇÃO  SINTETICO (BR-MUL  BR-MI)  65% TEOR DO OLEO :
R7   .        07. SALINIDADE DA LAMA  266377 PPM NACL NA FASE DE AGUA :
R8   .        08. INCLINAÇÃO MÁXIMA DO POÇO  37.37 GRAUS @ 5100 M :
R9   .        09. PRIMEIRAS E ULTIMAS LEITURAS  :
RMB  .OHMM    > 10                       :
RMCS .OHMM    > 10                       :
RMFS .OHMM    > 10                       :
RMS  .OHMM    > 10                       :
RUN  .                 1                 :
STAT .        BRASIL                     :
TCS  .        16 00 H                    :
TDD  .M             5230                 :
TDL  .M             5231                 :
TLAB .        N/A                        :
TLI  .M             4277                 :
WITN .        ALCIDIO/VLADIMIR           :
WN   .        3-BRSA-293D-SPS            :
LUN  .              8808                 :
HIDE .        3-SPS-41D                  :
HID2 .        COMPENSATED Z-DENSILOG     :
HID3 .        COMPENSATED NEUTRON LOG    :
HID4 .        GAMMA RAY LOG              :
HID5 .        TTRM SUB                   :
CLAB .        BACIA                      :
SLAB .        PAIS                       :
CMT1 .        ESC  1 1000                :
CMT2 .        PROF. MEDIDA               :
CMT4 .        SONDA  SS-43               :
HDAT .        SAD 69                     :
FL   .        BASE SAD 69                :
OS1  .        HDIL/XMAC/SL/GR            :
OS3  .        MREX/GR                    :
OS5  .        SL/GR                      :
LNAM .        MREX/ZDL/CN/XMAC/HDIL/3DEX/RCI/SL/GR :
TOOL .        MREX/ZDL/CN/XMAC/HDIL/3DEX/RCI/SL/GR :
LSOU .        PETROBRAS                  :
LSRV .        OH WIRELINE                :
LTYP .        RAW                        :
EPD  .M                0                 :
LDAT .        23/10/2004                 :
TRIP .                 1                 :
SON  .            772317                 :
CBDR .M             4277                 :
CBLO .M             4277                 :
CBL1 .M             4277                 :
STEM .DEGF    N/A                        :
BSAL .            266377                 :
BARI .        OFF                        :
DLAB .        21/10/2004                 :
MRT  .DEGF           280                 :
TSTR .        ZDL/CN/GR/TTRM             :
TSTG .        N/A                        :
STUS .        FINAL                      :
LCNM .        BAKER ATLAS                :
LCC  .               150                 :
NATI .        SANTOS                     :
OPMD .        OH.WIRELINE                :
PANA .        HERNANDEZ/LOCK             :
PCON .        BAKER ATLAS                :
R11  .        GR     5222.5 M/4277.0 M   :
R12  .        ZDL    5230.0 M/4277.0 M   :
R13  .        CN     5224.0 M/4277.0 M   :
R15  .        10. PONTO FRACO UTILIZADO  10K :
R17  .        12. DECLINAÇÃO MAGNETICA  -20.9 GRAUS :
R18  .        13. COORDENADAS BASE       :
R21  .        Y    583936.00 M           :
R22  .        MC  45 GRAUS               :
PVER .           4.10000                 :
WDFN .        /space/expusr/3-SPS-41D/i77bf06_8spf.xtf :
OCT  .        i77bf                      :
0S2  .        3DEX/GR                    :
OS4  .        RCI/GR                     :
R16  .        11. CNC CORREGIDO PELO CALIPER E SALINIDADE  PRESENTADO MATRIZ CARBONATO :
R20  .        X   7292512.00 M           :
R24  .        14. CADASTRO ANP  86316021017 :
#-----------------------------------------------------------------------------
~CURVE INFORMATION
#MNEM.UNIT   API CODE                                  DESCRIPTION
#---- -----  --------                                  -----------------------
DEPT .M                                                :DEPTH (BOREHOLE) {F10.4}
DEPT .M                                                : {F13.4}
BIT  .IN                                               : {F13.4}
GR   .GAPI                                             : {F13.4}
TEN  .LBF                                              : {F13.4}
TTEN .LBF                                              : {F13.4}
CAL  .IN                                               : {F13.4}
CALX .IN                                               : {F13.4}
HRD1 .HZ                                               : {F13.4}
HRD2 .HZ                                               : {F13.4}
PE   .B/E                                              : {F13.4}
SFT2 .HZ                                               : {F13.4}
SOFT .HZ                                               : {F13.4}
SSD  .HZ                                               : {F13.4}
ZCOR .G/C3                                             : {F13.4}
ZDEN .G/C3                                             : {F13.4}
#-----------------------------------------------------------------------------
# 
#     DEPT        DEPT         BIT          GR           TEN          TTEN         CAL          CALX         HRD1         HRD2         PE           SFT2         SOFT         SSD          ZCOR         ZDEN
#
~A  
# ...
 5185.2576    5185.2576       8.5000      59.6176     -97.3905    6383.6570       8.6848       8.6848     863.7364    1156.9843       4.3546     725.7246     556.4590    6865.4430      -0.0390       2.4320
 5185.1052    5185.1052       8.5000      58.8486     -83.4854    6395.9598       8.7345       8.7345     893.9648    1156.2286       4.4286     728.2419     547.5999    6926.2225      -0.0350       2.4244
 5184.9528    5184.9528       8.5000      57.5064     -69.8164    6408.3200       8.7869       8.7869     930.3625    1181.1662       4.5106     741.0240     549.9997    7006.1303      -0.0326       2.4120
 5184.8004    5184.8004       8.5000      57.7430     -61.3017    6415.7664       8.8320       8.8320     959.1798    1223.7626       4.3920     775.9733     580.8337    7062.2354      -0.0344       2.3979
 5184.6480    5184.6480       8.5000      60.1059     -59.0077    6417.0979       8.8586       8.8586     998.0556    1276.2076       4.1408     832.8830     630.7411    7150.3637      -0.0343       2.3812
 5184.4956    5184.4956       8.5000      62.3124     -67.3627    6407.7129       8.8656       8.8656    1048.1732    1330.4882       3.9989     887.0681     669.1919    7275.9342      -0.0307       2.3633
 5184.3432    5184.3432       8.5000      62.5866     -82.2488    6391.5483       8.8662       8.8662    1078.2643    1366.2128       3.9593     915.9143     689.5303    7340.1419      -0.0301       2.3518
 5184.1908    5184.1908       8.5000      61.5276     -84.6543    6387.6910       8.8672       8.8672    1073.3391    1370.2625       3.9355     917.4890     696.8880    7286.7757      -0.0366       2.3504
 5184.0384    5184.0384       8.5000      59.7535     -65.5136    6405.5822       8.8678       8.8678    1059.7654    1355.9775       3.9160     900.5061     687.8272    7190.4444      -0.0455       2.3548
 5183.8860    5183.8860       8.5000      57.8805     -46.2690    6423.9815       8.8671       8.8671    1051.5445    1329.4660       3.8970     872.8288     672.8181    7165.0533      -0.0448       2.3608
 5183.7336    5183.7336       8.5000      57.4146     -49.0616    6420.4711       8.8664       8.8664    1049.0454    1304.4049       3.7498     858.1445     677.6570    7230.7064      -0.0334       2.3645
 5183.5812    5183.5812       8.5000      57.9168     -62.3166    6406.3245       8.8663       8.8663    1063.6801    1309.5361       3.5730     878.6445     704.8172    7318.9164      -0.0248       2.3607
 5183.4288    5183.4288       8.5000      57.5979     -68.5922    6398.9640       8.8658       8.8658    1087.5764    1353.7636       3.5708     912.9730     728.9415    7374.2825      -0.0256       2.3505
 5183.2764    5183.2764       8.5000      56.8405     -62.1992    6404.2292       8.8643       8.8643    1096.8702    1392.0048       3.6118     923.4561     733.9247    7378.1817      -0.0303       2.3432
 5183.1240    5183.1240       8.5000      56.8062     -37.3640    6428.2024       8.8628       8.8628    1090.6706    1388.8113       3.5940     909.9128     728.4361    7317.2617      -0.0368       2.3440
 5182.9716    5182.9716       8.5000      56.9243      -6.6835    6458.5639       8.8623       8.8623    1078.0759    1366.2539       3.5754     897.1481     726.1092    7243.7568      -0.0420       2.3492
 5182.8192    5182.8192       8.5000      56.7458      -3.3553    6461.8850       8.8632       8.8632    1062.8907    1356.4262       3.5656     893.6654     729.1964    7230.8368      -0.0409       2.3530
 5182.6668    5182.6668       8.5000      56.7430     -33.6726    6431.2498       8.8653       8.8653    1062.6661    1362.6978       3.5615     900.1203     733.3722    7285.6741      -0.0347       2.3514
 5182.5144    5182.5144       8.5000      56.5385     -65.9763    6398.0533       8.8666       8.8666    1084.3864    1383.1305       3.5461     921.6852     742.1494    7352.9169      -0.0311       2.3438
 5182.3620    5182.3620       8.5000      55.1424     -75.8450    6387.0157       8.8667       8.8667    1110.4337    1412.7310       3.5261     951.9254     762.4822    7396.6944      -0.0318       2.3344
 5182.2096    5182.2096       8.5000      53.5573     -75.2442    6386.4547       8.8663       8.8663    1123.7401    1424.7571       3.5129     968.9208     777.7307    7411.1390      -0.0327       2.3301
 5182.0572    5182.0572       8.5000      53.6326     -84.7682    6375.6664       8.8656       8.8656    1110.3898    1400.2227       3.5129     950.6133     760.6048    7381.0024      -0.0323       2.3358
 5181.9048    5181.9048       8.5000      55.4762     -99.7870    6359.1123       8.8626       8.8626    1070.3778    1348.0083       3.5828     897.4650     717.8688    7290.4148      -0.0334       2.3503
 5181.7524    5181.7524       8.5000      57.3237    -101.8382    6355.3625       8.8534       8.8534    1022.6879    1296.3503       3.6573     844.3423     682.1580    7175.8209      -0.0363       2.3688
 5181.6000    5181.6000       8.5000      57.9333     -94.4467    6361.0786       8.8377       8.8377     962.6084    1235.5818       3.6929     799.0465     649.9510    7018.4529      -0.0418       2.3942
 5181.4476    5181.4476       8.5000      57.2518     -94.5784    6359.3080       8.8173       8.8173     870.4815    1133.4989       3.7911     731.7694     590.3484    6757.6590      -0.0510       2.4326
 5181.2952    5181.2952       8.5000      55.4788    -100.3275    6351.9154       8.7976       8.7976     776.7182    1033.0574       4.0493     658.2130     517.3723    6539.5862      -0.0531       2.4688
 5181.1428    5181.1428       8.5000      54.8000     -94.1487    6356.5375       8.7829       8.7829     760.3640    1041.0194       4.3045     643.8776     498.7958    6601.9555      -0.0433       2.4689
 5180.9904    5180.9904       8.5000      57.0086     -73.3735    6376.0227       8.7743       8.7743     842.0985    1147.2920       4.2758     698.2011     552.9255    6859.7498      -0.0355       2.4319
 5180.8380    5180.8380       8.5000      60.1907     -59.2825    6389.0741       8.7697       8.7697     952.6193    1238.3052       4.0258     767.8786     620.5246    7041.0805      -0.0381       2.3932
 5180.6856    5180.6856       8.5000      60.8620     -70.0846    6377.1637       8.7684       8.7684    1009.6355    1259.5385       3.7803     810.8271     654.3940    7076.5533      -0.0430       2.3768
 5180.5332    5180.5332       8.5000      58.5155     -99.1492    6346.5888       8.7690       8.7690    1002.1043    1243.4132       3.6540     822.3807     660.2753    7059.5040      -0.0423       2.3786
 5180.3808    5180.3808       8.5000      55.6880    -120.0509    6323.7945       8.7694       8.7694     973.3225    1233.4040       3.6914     815.3362     652.5799    7047.6780      -0.0392       2.3850
 5180.2284    5180.2284       8.5000      55.9334    -112.4810    6329.4635       8.7696       8.7696     950.4785    1229.3932       3.8348     797.3519     631.6983    6997.7388      -0.0423       2.3910
 5180.0760    5180.0760       8.5000      60.1422     -84.0532    6356.3504       8.7702       8.7702     932.8607    1200.9461       3.9334     775.8407     605.1500    6887.4894      -0.0508       2.3997
 5179.9236    5179.9236       8.5000      64.4494     -67.0965    6372.0979       8.7705       8.7705     930.1663    1163.7879       3.8462     765.6049     596.1820    6834.5606      -0.0527       2.4062
 5179.7712    5179.7712       8.5000      64.3488     -79.4990    6358.4672       8.7701       8.7701     956.0226    1174.3206       3.6497     786.4055     621.9915    6924.8821      -0.0455       2.3998
 5179.6188    5179.6188       8.5000      60.2924     -93.8499    6342.6625       8.7696       8.7696     998.2937    1234.8053       3.4925     830.4214     669.8537    7077.1266      -0.0386       2.3819
 5179.4664    5179.4664       8.5000      56.5291     -85.0785    6349.9826       8.7696       8.7696    1035.6365    1296.0204       3.4381     869.1031     711.6247    7205.4624      -0.0341       2.3644
