~VERSION INFORMATION
VERS.           2.0   :CWLS Log ASCII Standard - VERSION 2.0
WRAP.           NO    :One Line per depth step
PROD.  Schlumberger   :LAS Producer
PROG.  DLIS to ASCII 2.3                               :LAS Program name and version
CREA.        2023/07/14 00:15                          :LAS Creation date {YYYY/MM/DD hh:mm}
DLIS_CREA.  2023-Jul-14 00:11                          :DLIS Creation date and time {YYYY-MMM-DD hh:mm}
SOURCE.     LIS_010.dlis                               :DLIS File Name
FILE-ID.     LIS   .003                                :File Identification Number
#--------------------------------------------------
~WELL INFORMATION
#MNEM.UNIT      DATA             DESCRIPTION
#---- ------ --------------   -----------------------------
STRT .M      5284.9272       :START DEPTH     
STOP .M      4939.1316       :STOP DEPTH     
STEP .M        -0.1524       :STEP     
NULL .          -999.25      :NULL VALUE
COMP .        PETROBRAS S.A.                           :COMPANY
WELL .        3-BRSA-293D-SPS                          :WELL
FLD  .        BS-400                                   :FIELD
LOC  .        BASE SAD 69:                             :LOCATION
CNTY .        SANTOS                                   :COUNTY
STAT .        BRASIL                                   :STATE
CTRY .        BRASIL                                   :COUNTRY
API  .                                                 :API NUMBER
UWI  .                                                 :UNIQUE WELL ID
DATE .        15/11/2004                               :LOG DATE
SRVC .        Schlumberger                             :SERVICE COMPANY
LATI .DEG                                              :LATITUDE
LONG .DEG                                              :LONGITUDE
GDAT .                                                 :GeoDetic Datum
#-----------------------------------------------------------------------------
~PARAMETER INFORMATION
#MNEM.UNIT    VALUE                      DESCRIPTION
#---- -----   --------------------       ------------------------
APD  .M               24                 :
BHT  .DEGF           260                 :
BLI  .M             5289                 :
BS   .IN         8.50000                 :
CN   .        PETROBRAS S.A.             :
COUN .        SANTOS                     :
CS   .IN         9.62500                 :
DATE .        15/11/2004                 :
DFD  .LB/G      12.30000                 :
DFL  .C3               2                 :
DFPH .        N/A                        :
DFT  .        SINTETICO                  :
DFV  .S               95                 :
DMF  .        MESA ROTATIVA              :
EDF  .M               24                 :
EGL  .M             -500                 :
EKB  .        N/A                        :
ENGI .        HERNANDEZ / LOCK           :
FL1  .        X   7292392.00 M LAT 24 28 47.189 S :
FL2  .        Y    584087.00 M LON 44 10 12.698 W :
FL3  .        MC  45 GRAUS               :
FN   .        BS-400                     :
LMF  .        MESA ROTATIVA              :
LUL  .        MACAE                      :
MCSS .        PRENSA                     :
MCST .DEGF            80                 :
MFSS .        PRENSA                     :
MFST .DEGF            80                 :
MSS  .        LINHA DE FLUXO             :
MST  .DEGF            80                 :
PDAT .        NIVEL DO MAR               :
R1   .        01. APRESENTAÇÃO DE ACORDO COM REQUERIMENTO DO CLIENTE :
R2   .        02. TEMPERATURA MÁXIMA DO POÇO T1=T2= 290 DEGF @  5275 M :
R3   .        03. INICIO DA CIRCULAÇÃO  12/11/2004 09 00 H :
R4   .        04. FINAL DA CIRCULAÇÃO   12/11/2004 18 00 H :
R5   .        05. TEMPO TOTAL DE CIRCULAÇÃO   09 00 H :
R6   .        06. FLUIDO DE PERFURAÇÃO  SINTETICO (BR-MUL  BR-MI)  60% TEOR DO OLEO :
R7   .        07. SALINIDADE DA LAMA  254762 PPM NACL NA FASE DE AGUA :
R8   .        08. INCLINAÇÃO MÁXIMA DO POÇO  37.37 GRAUS @ 5100 M :
R9   .        09. PRIMEIRAS E ULTIMAS LEITURAS  :
RMB  .OHMM    > 10                       :
RMCS .OHMM    > 10                       :
RMFS .OHMM    > 10                       :
RMS  .OHMM    >10                        :
RUN  .                 2                 :
STAT .        BRASIL                     :
TCS  .        18 00 H                    :
TDD  .M             5288                 :
TDL  .M             5293                 :
TLAB .        N/A                        :
TLI  .M             5000                 :
WITN .        ERNANI / ZE MARIA          :
WN   .        3-BRSA-293D-SPS            :
LUN  .              8808                 :
HIDE .        3-SPS-41D                  :
HID2 .        HIGH DEFINITION INDUCTION LOG :
HID3 .        X-MULTIPOLE ARRAY ACOUSTILOG :
HID4 .        GAMMA RAY LOG              :
HID5 .        TTRM SUB                   :
CLAB .        BACIA                      :
SLAB .        PAIS                       :
CMT1 .        ESC  1 200                 :
CMT2 .        PROF. MEDIDA               :
CMT4 .        SONDA  SS-43               :
HDAT .        SAD 69                     :
FL   .        BASE SAD 69                :
OS1  .        RCI/GR                     :
OS2  .        CHECK SHOT                 :
OS3  .        GR/CN/ZDL                  :
OS5  .        RCOR/GR                    :
LNAM .        ZDL/CN/XMAC/HDIL/EARTH IMAGER/RCI/RCOR/CHECK SHOT/GR :
TOOL .        ZDL/CN/XMAC/HDIL/EARTH IMAGER/RCI/RCOR/CHECK SHOT/GR :
LSOU .        PETROBRAS                  :
LSRV .        OH WIRELINE                :
LTYP .        RAW                        :
EPD  .M                0                 :
LDAT .        15/11/2004                 :
TRIP .                 3                 :
SON  .            786588                 :
CBDR .M             4277                 :
CBLO .        NR                         :
CBL1 .        NR                         :
STEM .DEGF    N/A                        :
BSAL .            254762                 :
BARI .        OFF                        :
DLAB .        12/11/2004                 :
MRT  .DEGF           290                 :
TSTR .        HDIL/XMAC/GR/TTRM          :
TSTG .        N/A                        :
STUS .        FINAL                      :
LCNM .        BAKER ATLAS                :
LCC  .               150                 :
NATI .        BRASIL                     :
OPMD .        OH.WIRELINE                :
PANA .        HERNANDEZ / LOCK           :
PCON .        BAKER ATLAS                :
R11  .        SL     5268.3 M / 5000.0 M :
R12  .        GR     5268.3 M / 5000.0 M :
R13  .        XMAC   5279.5 M / 5000.0 M :
R14  .        HDIL   5289.0 M / 5000.0 M :
R17  .        11. DECLINAÇÃO MAGNETICA  -20.9 GRAUS :
R18  .        12. COORDENADAS BASE       :
R21  .        Y    583936.00 M           :
R22  .        MC  45 GRAUS               :
PVER .           4.10000                 :
WDFN .        /space/expusr/3-SPS-41D_RUN2/i77bf02_2spf.xtf :
OCT  .        i77bf                      :
OS4  .        EARTH IMAGER               :
R16  .        10. PONTO FRACO UTILIZADO  10K :
R20  .        X   7292512.00 M           :
R24  .        13. CADASTRO ANP  86316021017 :
#-----------------------------------------------------------------------------
~CURVE INFORMATION
#MNEM.UNIT   API CODE                                  DESCRIPTION
#---- -----  --------                                  -----------------------
DEPT .M                                                :DEPTH (BOREHOLE) {F10.4}
DEPT .M                                                : {F13.4}
DT   .US/F                                             : {F13.4}
SFN1 .US                                               : {F13.4}
SFN2 .US                                               : {F13.4}
SFN3 .US                                               : {F13.4}
SFN4 .US                                               : {F13.4}
TT   .MS                                               : {F13.4}
#-----------------------------------------------------------------------------
# 
#     DEPT        DEPT         DT           SFN1         SFN2         SFN3         SFN4         TT
#
~A  
# ...
 5212.6896    5212.6896      76.4539     611.3742     474.8298     664.1157    1147.6250      14.9139
 5212.5372    5212.5372      73.2578     615.9972     475.2498     671.9952     696.2687      14.9506
 5212.3848    5212.3848      68.5789     620.7500     568.0000     672.7500     702.6250      14.9849
 5212.2324    5212.2324      64.6473     621.2500     441.0000     679.1250     704.0000      15.0172
 5212.0800    5212.0800      62.4872     621.3751     583.9512     686.7503     710.7526      15.0485
 5211.9276    5211.9276      61.8080     621.4983     488.8340     687.2503     715.7502      15.0794
 5211.7752    5211.7752      61.7753     619.6269     583.9428     687.6248     716.0002      15.1103
 5211.6228    5211.6228      61.9824     621.1254     538.4315     687.4998     716.1254      15.1413
 5211.4704    5211.4704      62.4605     621.3739     650.5048     687.3755     716.3739      15.1723
 5211.3180    5211.3180      63.1233     621.7485     650.7510     687.7485     716.1260      15.2039
 5211.1656    5211.1656      63.7559     621.5009     651.7463     687.6255     716.6232      15.2358
 5211.0132    5211.0132      64.2392     621.5000     652.2483     687.9988     716.9988      15.2679
 5210.8608    5210.8608      64.5235     622.8710     652.4993     688.0000     717.0000      15.3002
 5210.7084    5210.7084      64.5531     622.7503     654.7442     688.0000     717.2494      15.3325
 5210.5560    5210.5560      64.2828     622.9994     654.8747     688.3742     717.3747      15.3646
 5210.4036    5210.4036      63.7522     622.5009     655.1245     688.2502     717.9989      15.3965
 5210.2512    5210.2512      63.1179     639.9743     654.8754     688.3748     718.1248      15.4281
 5210.0988    5210.0988      62.6587     663.9737     671.7315     688.3750     718.4996      15.4594
 5209.9464    5209.9464      62.6317     661.8765     693.3593     595.0680     718.1253      15.4908
 5209.7940    5209.7939      63.0688     663.2500     532.3750     728.2500     470.8750      15.5223
 5209.6416    5209.6416      63.8158     662.5000     694.0000     726.6250     584.0000      15.5542
 5209.4892    5209.4893      64.5800     664.3750     695.7500     728.7500     480.0000      15.5865
 5209.3368    5209.3368      65.0080     664.2511     696.1249     729.1259     760.0001      15.6191
 5209.1844    5209.1844      64.9401     665.7480     696.0000     730.3737     760.1263      15.6515
 5209.0320    5209.0320      64.5256     664.0000     695.9963     729.2509     761.2485      15.6838
 5208.8796    5208.8796      64.1153     664.0000     693.4968     729.8715     760.2495      15.7159
 5208.7272    5208.7272      64.0388     664.0000     691.7573     728.0078     760.0010      15.7477
 5208.5748    5208.5748      64.3762     663.0038     692.1236     728.3736     762.2414      15.7799
 5208.4224    5208.4224      64.8946     663.9966     695.9866     728.9978     760.3815      15.8124
 5208.2700    5208.2700      65.1774     663.3769     694.5046     729.6231     760.2504      15.8450
 5208.1176    5208.1176      65.0062     661.3804     694.0014     728.0044     761.4966      15.8775
 5207.9652    5207.9652      64.5010     665.2409     694.6235     728.4988     761.8741      15.9097
 5207.8128    5207.8128      63.9979     661.1331     694.2507     727.8762     760.0037      15.9418
 5207.6604    5207.6604      63.8810     663.7458     688.0100     727.2510     754.7584      15.9737
 5207.5080    5207.5080      64.2161     662.2518     688.0000     721.5071     759.9935      16.0058
 5207.3556    5207.3556      64.6828     666.7461     695.9931     727.9944     757.7519      16.0382
 5207.2032    5207.2032      64.8741     665.5006     696.0000     729.2494     759.9989      16.0706
 5207.0508    5207.0508      64.6911     671.1250     698.2500     734.5000     763.6250      16.1030
 5206.8984    5206.8984      64.3427     671.7500     700.0000     733.5000     764.0000      16.1352
 5206.7460    5206.7460      64.0441     666.7498     698.4992     734.5009     761.5032      16.1672
 5206.5936    5206.5936      63.8870     666.4988     697.1248     735.9986     766.7507      16.1992
 5206.4412    5206.4412      63.7466     665.2498     696.8738     734.6223     767.4958      16.2310
 5206.2888    5206.2888      63.5740     665.1244     695.9989     732.6179     764.3688      16.2628
 5206.1364    5206.1364      63.5872     664.7516     695.3777     728.5177     760.7656      16.2944
 5205.9840    5205.9840      63.9816     666.6176     698.1141     729.3715     761.6215      16.3264
 5205.8316    5205.8316      64.7461     671.2334     701.8616     735.9763     763.6178      16.3588
 5205.6792    5205.6792      65.5798     669.2564     699.1338     734.3802     766.6154      16.3916
 5205.5268    5205.5268      66.0324     667.3803     699.3743     735.1229     767.2482      16.4247
 5205.3744    5205.3744      65.8111     671.2404     696.5071     735.9978     767.9981      16.4576
 5205.2220    5205.2220      65.0282     666.0110     703.9842     736.0000     768.8732      16.4901
 5205.0696    5205.0696      64.1398     669.8683     693.5182     736.1248     763.5093      16.5222
 5204.9172    5204.9172      63.4006     664.1328     697.7442     727.8863     763.1255      16.5539
 5204.7648    5204.7648      62.6978     663.5006     694.0037     731.6213     756.7563      16.5853
 5204.6124    5204.6124      61.8621     663.9997     694.9994     728.6269     762.6213      16.6162
 5204.4600    5204.4600      61.0082     664.0000     695.2500     728.0000     761.1250      16.6467
 5204.3076    5204.3076      60.6297     662.1250     688.7500     724.6250     754.0000      16.6770
 5204.1552    5204.1552      61.1256     656.0020     688.0000     720.0030     752.5008      16.7076
 5204.0028    5204.0028      62.3396     660.2478     688.0035     726.1232     754.2545      16.7388
 5203.8504    5203.8504      63.6862     657.6268     692.1200     723.9977     759.4908      16.7707
 5203.6980    5203.6980      64.7392     659.1327     688.0077     722.1293     752.0087      16.8030
 5203.5456    5203.5456      65.4558     663.9784     692.8534     724.8628     757.4757      16.8356
 5203.3932    5203.3932      65.9203     664.4980     695.6138     727.9872     757.2510      16.8685
 5203.2408    5203.2408      66.0963     669.3569     698.7384     731.6115     761.8578      16.9016
 5203.0884    5203.0884      65.8386     671.9912     701.2416     734.4904     763.8683      16.9345
 5202.9360    5202.9360      65.1547     666.1425     703.9918     735.8709     766.9907      16.9671
 5202.7836    5202.7836      64.3498     668.2445     697.6416     738.6178     767.9974      16.9993
 5202.6312    5202.6312      63.7761     665.0073     696.5025     731.5159     769.4966      17.0312
 5202.4788    5202.4788      63.5817     664.0019     694.0047     728.5056     760.0177      17.0630
 5202.3264    5202.3264      63.7059     664.0000     694.9985     728.0007     760.7489      17.0949
 5202.1740    5202.1740      64.0389     661.0034     695.2497     728.0000     760.0008      17.1269
 5202.0216    5202.0216      64.5012     664.2475     691.8776     728.4996     760.0000      17.1592
 5201.8692    5201.8691      64.9774     663.6250     696.0000     727.8750     760.7500      17.1917
 5201.7168    5201.7168      65.2475     672.1250     695.2500     731.3750     760.0000      17.2243
 5201.5644    5201.5645      65.1182     676.0000     702.3750     731.5000     763.7500      17.2569
 5201.4120    5201.4120      64.6125     671.6254     702.6254     736.0019     759.7555      17.2892
 5201.2596    5201.2596      63.9592     672.1239     703.1226     738.6221     767.3757      17.3212
 5201.1072    5201.1072      63.5416     671.1245     700.8712     735.9964     767.9944      17.3530
 5200.9548    5200.9548      63.5899     670.7502     698.2595     733.5045     764.1300      17.3848
 5200.8024    5200.8024      63.9462     670.8745     703.4780     735.9895     766.8635      17.4166
