~VERSION INFORMATION
VERS.           2.0   :CWLS Log ASCII Standard - VERSION 2.0
WRAP.           NO    :One Line per depth step
PROD.  Schlumberger   :LAS Producer
PROG.  DLIS to ASCII 2.3                               :LAS Program name and version
CREA.        2023/07/14 00:15                          :LAS Creation date {YYYY/MM/DD hh:mm}
DLIS_CREA.  2023-Jul-14 00:11                          :DLIS Creation date and time {YYYY-MMM-DD hh:mm}
SOURCE.     LIS_001.dlis                               :DLIS File Name
FILE-ID.     LIS   .001                                :File Identification Number
#--------------------------------------------------
~WELL INFORMATION
#MNEM.UNIT      DATA             DESCRIPTION
#---- ------ --------------   -----------------------------
STRT .M      5244.5412       :START DEPTH     
STOP .M      5059.0704       :STOP DEPTH     
STEP .M        -0.1524       :STEP     
NULL .          -999.25      :NULL VALUE
COMP .        PETROBRAS S.A.                           :COMPANY
WELL .        3-BRSA-293D-SPS                          :WELL
FLD  .        BS-400                                   :FIELD
LOC  .        BASE SAD 69:                             :LOCATION
CNTY .        SANTOS                                   :COUNTY
STAT .        BRASIL                                   :STATE
CTRY .        BRASIL                                   :COUNTRY
API  .                                                 :API NUMBER
UWI  .                                                 :UNIQUE WELL ID
DATE .        22/10/2004                               :LOG DATE
SRVC .        Schlumberger                             :SERVICE COMPANY
LATI .DEG                                              :LATITUDE
LONG .DEG                                              :LONGITUDE
GDAT .                                                 :GeoDetic Datum
#-----------------------------------------------------------------------------
~PARAMETER INFORMATION
#MNEM.UNIT    VALUE                      DESCRIPTION
#---- -----   --------------------       ------------------------
APD  .M               24                 :
BHT  .DEGF           260                 :
BLI  .M       5227.50000                 :
BS   .IN         8.50000                 :
CN   .        PETROBRAS S.A.             :
COUN .        SANTOS                     :
CS   .IN         9.62500                 :
DATE .        22/10/2004                 :
DFD  .LB/G      12.30000                 :
DFL  .C3               2                 :
DFPH .        N/A                        :
DFT  .        SINTETICO                  :
DFV  .S               87                 :
DMF  .        MESA ROTATIVA              :
EDF  .M               24                 :
EGL  .M             -500                 :
EKB  .        N/A                        :
ENGI .        HERNANDEZ/LOCK             :
FL1  .        X   7292392.00 M LAT 24 28 47.189 S :
FL2  .        Y    584087.00 M LON 44 10 12.698 W :
FL3  .        MC  45 GRAUS               :
FN   .        BS-400                     :
LMF  .        MESA ROTATIVA              :
LUL  .        MACAE                      :
MCSS .        PRENSA                     :
MCST .DEGF            80                 :
MFSS .        PRENSA                     :
MFST .DEGF            80                 :
MSS  .        LINHA DE FLUXO             :
MST  .DEGF            80                 :
PDAT .        NIVEL DO MAR               :
R1   .        01. APRESENTAÇÃO DE ACORDO COM REQUERIMENTO DO CLIENTE :
R2   .        02. TEMPERATURA MÁXIMA DO POÇO T1=T2= 260 DEGF @  5180 M :
R3   .        03. INICIO DA CIRCULAÇÃO  13 45 H 21/10/2004 :
R4   .        04. FINAL DA CIRCULAÇÃO   16 00 H 21/10/2004 :
R5   .        05. TEMPO TOTAL DE CIRCULAÇÃO  02 15 H :
R6   .        06. FLUIDO DE PERFURAÇÃO  SINTETICO (BR-MUL  BR-MI)  65% TEOR DO OLEO :
R7   .        07. SALINIDADE DA LAMA  266377 PPM NACL NA FASE DE AGUA :
R8   .        08. INCLINAÇÃO MÁXIMA DO POÇO  37.37 GRAUS @ 5100 M :
R9   .        09. PRIMEIRAS E ULTIMAS LEITURAS  :
RMB  .OHMM    > 10                       :
RMCS .OHMM    > 10                       :
RMFS .OHMM    > 10                       :
RMS  .OHMM    > 10                       :
RUN  .                 1                 :
STAT .        BRASIL                     :
TCS  .        16 00 H                    :
TDD  .M             5230                 :
TDL  .M             5231                 :
TLAB .        N/A                        :
TLI  .M             3850                 :
WITN .        ALCIDIO/VLADIMIR           :
WN   .        3-BRSA-293D-SPS            :
LUN  .              8808                 :
HIDE .        3-SPS-41D                  :
HID2 .        HIGH DEFINITION INDUCTION LOG :
HID3 .        X-MULTIPOLE ARRAY ACOUSTILOG :
HID4 .        GAMMA RAY LOG              :
HID5 .        TTRM SUB                   :
CLAB .        BACIA                      :
SLAB .        PAIS                       :
CMT1 .        ESC  1 1000                :
CMT2 .        PROF. MEDIDA               :
CMT4 .        SONDA  SS-43               :
HDAT .        SAD 69                     :
FL   .        BASE SAD 69                :
OS1  .        GR/CN/ZDL                  :
OS2  .        MREX/GR                    :
OS3  .        RCI/GR                     :
0S4  .        3DEX/GR                    :
OS5  .        SL/GR                      :
LNAM .        MREX/ZDL/CN/XMAC/HDIL/RCI/3DEX/SL/GR :
TOOL .        MREX/ZDL/CN/XMAC/HDIL/RCI/3DEX/SL/GR :
LSOU .        PETROBRAS                  :
LSRV .        OH WIRELINE                :
LTYP .        RAW                        :
EPD  .M                0                 :
LDAT .        22/10/2004                 :
TRIP .                 1                 :
SON  .            772317                 :
CBDR .M             4277                 :
CBLO .M             4277                 :
CBL1 .M             4277                 :
STEM .DEGF    N/A                        :
BSAL .            266377                 :
BARI .        OFF                        :
DLAB .        21/10/2004                 :
MRT  .DEGF           260                 :
TSTR .        HDIL/XMAC/GR/TTRM          :
TSTG .        N/A                        :
STUS .        FINAL                      :
LCNM .        BAKER ATLAS                :
LCC  .               150                 :
NATI .        BRASIL                     :
OPMD .        OH.WIRELINE                :
PANA .        HERNANDEZ/LOCK             :
PCON .        BAKER ATLAS                :
R11  .        SL     5196.0 M/4960.0 M   :
R12  .        GR     4960.0 M/4277.0 M   :
R13  .        XMAC   5202.0 M/3850.0 M   :
R14  .        HDIL   5227.5 M/4277.0 M   :
R15  .        3DEX   5217.0 M/4960.0 M   :
R17  .        10. PONTO FRACO UTILIZADO  10K :
R18  .        11. DECLINAÇÃO MAGNETICA  -20.9 GRAUS :
R19  .        12. COORDENADAS ARATU      :
R21  .        X   7292512.00 M           :
R22  .        Y    583936.00 M           :
R23  .        MC  45 GRAUS               :
R25  .        13. CADASTRO ANP  86316021017 :
PVER .           4.10000                 :
WDFN .        /space/expusr/3-SPS-41D/i77bf02_2spf.xtf :
OCT  .        i77bf                      :
#-----------------------------------------------------------------------------
~CURVE INFORMATION
#MNEM.UNIT   API CODE                                  DESCRIPTION
#---- -----  --------                                  -----------------------
DEPT .M                                                :DEPTH (BOREHOLE) {F10.4}
DEPT .M                                                : {F13.4}
DT   .US/F                                             : {F13.4}
SFN1 .US                                               : {F13.4}
SFN2 .US                                               : {F13.4}
SFN3 .US                                               : {F13.4}
SFN4 .US                                               : {F13.4}
TT   .MS                                               : {F13.4}
#-----------------------------------------------------------------------------
# 
#     DEPT        DEPT         DT           SFN1         SFN2         SFN3         SFN4         TT
#
~A  
# ...
 5088.0264    5088.0264      68.6205     702.2500     735.1250     768.3750     801.8750      28.5038
 5087.8740    5087.8740      68.6897     702.0000     735.1250     769.2500     802.0000      28.5381
 5087.7216    5087.7216      69.0442     700.2501     734.2502     769.1258     802.8756      28.5727
 5087.5692    5087.5692      69.4109     700.5001     734.6258     770.2215     804.0019      28.6074
 5087.4168    5087.4168      69.5371     700.6250     735.5002     318.9462     806.1247      28.6422
 5087.2644    5087.2644      69.3819     700.6250     735.6250     771.1250     805.8744      28.6769
 5087.1120    5087.1120      69.0790     700.6250     735.6250     771.1250     805.5000      28.7114
 5086.9596    5086.9596      68.7958     700.6247     735.6247     771.1250     805.5006      28.7458
 5086.8072    5086.8072      68.6422     700.5007     735.5003     771.1250     805.7493      28.7802
 5086.6548    5086.6548      68.6406     700.7492     735.6250     771.1246     805.5000      28.8145
 5086.5024    5086.5024      68.7426     700.5000     735.6250     771.0004     805.4996      28.8489
 5086.3500    5086.3500      68.8510     700.5000     735.6250     771.1247     805.3753      28.8831
 5086.1976    5086.1976      68.8627     700.6247     735.6250     771.1250     805.6245      28.9175
 5086.0452    5086.0452      68.7033     701.4984     735.6250     771.2498     805.3755      28.9519
 5085.8928    5085.8928      68.3692     696.3825     735.9995     771.2500     805.4998      28.9861
 5085.7404    5085.7404      67.9667     696.3750     731.1303     772.1240     805.3751      29.0201
 5085.5880    5085.5880      67.6755     697.4992     729.5012     767.3784     804.2508      29.0540
 5085.4356    5085.4355      67.6464     697.5000     731.2500     768.0000     800.0000      29.0878
 5085.2832    5085.2832      67.9035     696.3750     730.5000     768.0000     800.0000      29.1218
 5085.1308    5085.1309      68.3011     696.7500     730.7500     768.0000     800.0000      29.1559
 5084.9784    5084.9784      68.6058     696.0000     728.7498     767.8742     800.0000      29.1902
 5084.8260    5084.8260      68.6774     695.9984     728.4994     766.8726     799.9990      29.2246
 5084.6736    5084.6736      68.5541     694.6267     727.9987     764.7474     799.1237      29.2589
 5084.5212    5084.5212      68.3972     695.7495     727.1266     762.9979     798.2488      29.2931
 5084.3688    5084.3688      68.4016     695.5011     728.0000     761.8806     797.6242      29.3273
 5084.2164    5084.2164      68.6857     696.0000     728.0000     764.3757     797.2500      29.3617
 5084.0640    5084.0640      69.2798     696.0033     728.0019     764.6265     797.2530      29.3963
 5083.9116    5083.9116      70.1073     697.1296     728.6358     765.1346     798.2558      29.4314
 5083.7592    5083.7592      70.9338     698.4963     731.8663     767.9923     799.9953      29.4666
 5083.6068    5083.6068      71.4928     699.9965     732.8727     768.0000     800.2494      29.5024
 5083.4544    5083.4544      71.6368     700.8733     735.6196     771.6179     805.2402      29.5382
 5083.3020    5083.3020      71.4451     703.9950     735.9994     771.9994     805.3748      29.5740
 5083.1496    5083.1496      70.9578     704.9988     736.0000     771.2509     805.2502      29.6094
 5082.9972    5082.9972      69.9242     706.1240     739.4970     774.1226     806.1243      29.6444
 5082.8448    5082.8448      68.0750     711.2475     739.8748     775.9991     807.2495      29.6785
 5082.6924    5082.6924      65.6593     712.0000     743.2500     776.0000     809.6250      29.7113
 5082.5400    5082.5400      63.6303     705.6250     736.7500     771.6250     806.8750      29.7431
 5082.3876    5082.3876      63.0816     696.0000     728.9995     767.5003     799.2506      29.7747
 5082.2352    5082.2352      64.3237     696.0001     728.2509     768.0000     800.2534      29.8069
 5082.0828    5082.0828      66.5563     696.1282     729.1281     768.0000     803.6241      29.8402
 5081.9304    5081.9304      68.5633     698.5011     731.3798     768.0015     802.9989      29.8745
 5081.7780    5081.7780      69.6463     699.1316     734.1268     768.8779     802.3774      29.9093
 5081.6256    5081.6256      69.8953     702.2503     735.0025     770.2522     803.5059      29.9442
 5081.4732    5081.4732      69.8141     702.3764     735.9996     771.1296     805.8764      29.9792
 5081.3208    5081.3208      69.7667     702.8726     734.4316     772.7492     806.3794      30.0141
 5081.1684    5081.1684      69.7669     702.1157     287.8496     772.5071     807.7500      30.0490
 5081.0160    5081.0160      69.7389     699.5064     734.9000     774.4951     807.7500      30.0836
 5080.8636    5080.8636      69.6797     697.3794     733.3805     771.6310     807.9995      30.1185
 5080.7112    5080.7112      69.5807     696.2519     732.1272     768.8797     805.1300      30.1533
 5080.5588    5080.5588      69.4216     696.0003     730.5022     768.3757     804.3760      30.1880
 5080.4064    5080.4064      69.1979     695.6254     728.1273     768.0004     801.6277      30.2226
 5080.2540    5080.2540      68.9459     692.8767     728.0001     766.2511     800.0010      30.2571
 5080.1016    5080.1016      68.7329     688.2500     724.0000     761.7500     798.7500      30.2915
 5079.9492    5079.9492      68.5771     693.6250     723.2500     760.0000     794.8750      30.3258
 5079.7968    5079.7968      68.4382     699.5022     725.6280     760.0004     792.7496      30.3600
 5079.6444    5079.6444      68.2976     703.8738     731.6288     760.7558     792.0003      30.3942
 5079.4920    5079.4920      68.2044     702.5003     735.9968     767.5029     792.3844      30.4283
 5079.3396    5079.3396      68.2144     702.7440     733.3762     769.8734     800.0070      30.4624
 5079.1872    5079.1872      68.3246     699.0012     734.1216     768.8765     804.3703      30.4966
 5079.0348    5079.0348      68.4773     699.6259     732.3747     769.6212     802.0018      30.5308
 5078.8824    5078.8824      68.6272     699.9912     732.2463     768.0000     802.7426      30.5652
 5078.7300    5078.7300      68.8027     696.7496     730.8735     768.0000     800.0008      30.5996
 5078.5776    5078.5776      69.0470     696.6250     730.3750     768.0000     800.2509      30.6341
 5078.4252    5078.4252      69.3382     696.6250     730.3750     768.0000     800.4994      30.6686
 5078.2728    5078.2728      69.6091     696.7497     730.2503     768.0000     801.2483      30.7034
 5078.1204    5078.1204      69.7918     696.6252     730.4995     767.8752     801.4995      30.7383
 5077.9680    5077.9680      69.8706     696.6250     730.3752     767.9998     801.2504      30.7732
 5077.8156    5077.8156      69.8796     696.6250     730.3750     768.0000     801.3749      30.8082
 5077.6632    5077.6632      69.8623     696.5001     730.1252     768.0000     801.4999      30.8431
 5077.5108    5077.5107      69.8405     696.5000     730.1250     768.0000     801.1250      30.8781
 5077.3584    5077.3584      69.8224     696.6250     730.3750     768.0000     801.1250      30.9130
 5077.2060    5077.2061      69.8161     696.5000     730.3750     768.0000     801.1250      30.9479
 5077.0536    5077.0536      69.8257     696.6250     730.2500     768.0000     801.2500      30.9828
 5076.9012    5076.9012      69.8456     696.6249     730.2500     768.0000     801.2500      31.0178
 5076.7488    5076.7488      69.8635     696.5002     730.2500     768.0000     801.2502      31.0527
 5076.5964    5076.5964      69.8657     696.6248     730.2500     768.0000     801.3750      31.0877
 5076.4440    5076.4440      69.8478     696.5003     730.2497     768.0000     801.3747      31.1226
 5076.2916    5076.2916      69.8231     696.6244     730.1250     768.0000     801.2500      31.1575
 5076.1392    5076.1392      69.8119     696.3754     730.1243     768.0000     801.2504      31.1925
