~VERSION INFORMATION
VERS.           2.0   :CWLS Log ASCII Standard - VERSION 2.0
WRAP.           YES   :Multiple lines per depth step
PROD.  Schlumberger   :LAS Producer
PROG.  DLIS to ASCII 2.3                               :LAS Program name and version
CREA.        2023/07/14 00:15                          :LAS Creation date {YYYY/MM/DD hh:mm}
DLIS_CREA.  2023-Jul-14 00:11                          :DLIS Creation date and time {YYYY-MMM-DD hh:mm}
SOURCE.     LIS_013.dlis                               :DLIS File Name
FILE-ID.     LIS   .002                                :File Identification Number
#--------------------------------------------------
~WELL INFORMATION
#MNEM.UNIT      DATA             DESCRIPTION
#---- ------ --------------   -----------------------------
STRT .M      5299.5576       :START DEPTH     
STOP .M      4241.4444       :STOP DEPTH     
STEP .M        -0.1524       :STEP     
NULL .          -999.25      :NULL VALUE
COMP .        PETROBRAS S.A.                           :COMPANY
WELL .        3-BRSA-293D-SPS                          :WELL
FLD  .        BS-400                                   :FIELD
LOC  .        BASE SAD 69:                             :LOCATION
CNTY .        SANTOS                                   :COUNTY
STAT .        BRASIL                                   :STATE
CTRY .        BRASIL                                   :COUNTRY
API  .                                                 :API NUMBER
UWI  .                                                 :UNIQUE WELL ID
DATE .        15/11/2004                               :LOG DATE
SRVC .        Schlumberger                             :SERVICE COMPANY
LATI .DEG                                              :LATITUDE
LONG .DEG                                              :LONGITUDE
GDAT .                                                 :GeoDetic Datum
#-----------------------------------------------------------------------------
~PARAMETER INFORMATION
#MNEM.UNIT    VALUE                      DESCRIPTION
#---- -----   --------------------       ------------------------
APD  .M               24                 :
BHT  .DEGF           260                 :
BLI  .M             5289                 :
BS   .IN         8.50000                 :
CN   .        PETROBRAS S.A.             :
COUN .        SANTOS                     :
CS   .IN         9.62500                 :
DATE .        15/11/2004                 :
DFD  .LB/G      12.30000                 :
DFL  .C3               2                 :
DFPH .        N/A                        :
DFT  .        SINTETICO                  :
DFV  .S               95                 :
DMF  .        MESA ROTATIVA              :
EDF  .M               24                 :
EGL  .M             -500                 :
EKB  .        N/A                        :
ENGI .        HERNANDEZ / LOCK           :
FL1  .        X   7292392.00 M LAT 24 28 47.189 S :
FL2  .        Y    584087.00 M LON 44 10 12.698 W :
FL3  .        MC  45 GRAUS               :
FN   .        BS-400                     :
LMF  .        MESA ROTATIVA              :
LUL  .        MACAE                      :
MCSS .        PRENSA                     :
MCST .DEGF            80                 :
MFSS .        PRENSA                     :
MFST .DEGF            80                 :
MSS  .        LINHA DE FLUXO             :
MST  .DEGF            80                 :
PDAT .        NIVEL DO MAR               :
R1   .        01. APRESENTAÇÃO DE ACORDO COM REQUERIMENTO DO CLIENTE :
R2   .        02. TEMPERATURA MÁXIMA DO POÇO T1=T2= 292 DEGF @  5277 M :
R3   .        03. INICIO DA CIRCULAÇÃO  12/11/2004 09 00 H :
R4   .        04. FINAL DA CIRCULAÇÃO   12/11/2004 18 00 H :
R5   .        05. TEMPO TOTAL DE CIRCULAÇÃO   09 00 H :
R6   .        06. FLUIDO DE PERFURAÇÃO  SINTETICO (BR-MUL  BR-MI)  60% TEOR DO OLEO :
R7   .        07. SALINIDADE DA LAMA  254762 PPM NACL NA FASE DE AGUA :
R8   .        08. INCLINAÇÃO MÁXIMA DO POÇO  37.37 GRAUS @ 5100 M :
R9   .        09. PRIMEIRAS E ULTIMAS LEITURAS  :
RMB  .OHMM    > 10                       :
RMCS .OHMM    > 10                       :
RMFS .OHMM    > 10                       :
RMS  .OHMM    >10                        :
RUN  .                 2                 :
STAT .        BRASIL                     :
TCS  .        18 00 H                    :
TDD  .M             5288                 :
TDL  .M             5293                 :
TLAB .        N/A                        :
TLI  .M             4277                 :
WITN .        ERNANI / ZE MARIA          :
WN   .        3-BRSA-293D-SPS            :
LUN  .              8808                 :
HIDE .        3-SPS-41D                  :
HID2 .        COMPENSATED Z-DENSILOG     :
HID3 .        COMPENSATED NEUTRON LOG    :
HID4 .        GAMMA RAY LOG              :
HID5 .        TTRM SUB                   :
CLAB .        BACIA                      :
SLAB .        PAIS                       :
CMT1 .        ESC  1 1000                :
CMT2 .        PROF. MEDIDA               :
CMT4 .        SONDA  SS-43               :
HDAT .        SAD 69                     :
FL   .        BASE SAD 69                :
OS1  .        RCI/GR                     :
OS2  .        CHECK SHOT                 :
OS3  .        GR/XMAC/HDIL               :
OS5  .        RCOR/GR                    :
LNAM .        ZDL/CN/XMAC/HDIL/EARTH IMAGER/RCI/RCOR/CHECK SHOT/GR :
TOOL .        ZDL/CN/XMAC/HDIL/EARTH IMAGER/RCI/RCOR/CHECK SHOT/GR :
LSOU .        PETROBRAS                  :
LSRV .        OH WIRELINE                :
LTYP .        RAW                        :
EPD  .M                0                 :
LDAT .        15/11/2004                 :
TRIP .                 4                 :
SON  .            786588                 :
CBDR .M             4277                 :
CBLO .        NR                         :
CBL1 .        NR                         :
STEM .DEGF    N/A                        :
BSAL .            254762                 :
BARI .        OFF                        :
DLAB .        12/11/2004                 :
MRT  .DEGF           292                 :
TSTR .        ZDL/CN/GR/TTRM             :
TSTG .        N/A                        :
STUS .        FINAL                      :
LCNM .        BAKER ATLAS                :
LCC  .               150                 :
NATI .        BRASIL                     :
OPMD .        OH.WIRELINE                :
PANA .        HERNANDEZ / LOCK           :
PCON .        BAKER ATLAS                :
R11  .        GR     5268.3 M / 4277.0 M :
R12  .        CN     5286.5 M / 5128.0 M (FERRAMENTA PERDEU LEITURA ACIMA DE 5128M) :
R13  .        ZDL    5292.0 M / 4277.0 M :
R15  .        10. PONTO FRACO UTILIZADO  10K :
R17  .        12. COORDENADAS BASE       :
R19  .        X   7292512.00 M           :
R21  .        MC  45 GRAUS               :
R23  .        13. CADASTRO ANP  86316021017 :
PVER .           4.10000                 :
WDFN .        /space/expusr/3-SPS-41D_RUN2/i77bf04_8spf.xtf :
OCT  .        i77bf                      :
OS4  .        EARTH IMAGER               :
R16  .        11. DECLINAÇÃO MAGNETICA  -20.9 GRAUS :
R20  .        Y    583936.00 M           :
#-----------------------------------------------------------------------------
~CURVE INFORMATION
#MNEM.UNIT   API CODE                                  DESCRIPTION
#---- -----  --------                                  -----------------------
DEPT .M                                                :DEPTH (BOREHOLE) {F10.4}
DEPT .M                                                : {F13.4}
BIT  .IN                                               : {F13.4}
DEPM .M                                                : {F13.4}
GR   .GAPI                                             : {F13.4}
SPD  .M/MN                                             : {F13.4}
TTEN .LBF                                              : {F13.4}
CAL  .IN                                               : {F13.4}
CALX .IN                                               : {F13.4}
HRD1 .HZ                                               : {F13.4}
HRD2 .HZ                                               : {F13.4}
PE   .B/E                                              : {F13.4}
SFT2 .HZ                                               : {F13.4}
SOFT .HZ                                               : {F13.4}
SSD  .HZ                                               : {F13.4}
ZCOR .G/C3                                             : {F13.4}
ZDEN .G/C3                                             : {F13.4}
CNC  .PU                                               : {F13.4}
CN   .PU                                               : {F13.4}
LSN  .HZ                                               : {F13.4}
SSN  .HZ                                               : {F13.4}
CNCF .PU                                               : {F13.4}
MMRK .MN                                               : {F13.4}
#-----------------------------------------------------------------------------
# DEPT       
#     DEPT         BIT          DEPM         GR           SPD          TTEN         
#     CAL          CALX         HRD1         HRD2         PE           SFT2         
#     SOFT         SSD          ZCOR         ZDEN         CNC          CN           
#     LSN          SSN          CNCF         MMRK         
~A  
# ...
5163.0072
   5163.0072       8.5000    5162.6224      81.1916       4.2241    7010.9561
      8.9502       8.9502    1074.9233    1352.6410       4.6859     891.2968
    625.3902    7869.1613      -0.0238       2.3420      14.1576      14.6020
   1886.0186    4062.8611      14.1576       0.0000
5162.8548
   5162.8548       8.5000    5162.4642      82.6563       4.2345    6982.2358
      8.9515       8.9515    1051.7676    1325.2391       4.6112     861.6314
    616.8431    7824.4857      -0.0234       2.3515      13.9181      14.3586
   1925.3851    4112.3693      13.9181       0.0000
5162.7024
   5162.7024       8.5000    5162.3059      84.5424       4.2270    6962.4058
      8.9534       8.9534    1032.3836    1294.5277       4.4312     837.4818
    620.7322    7758.8773      -0.0254       2.3604      13.9332      14.3752
   1940.6590    4147.4232      13.9332       0.0000
5162.5500
   5162.5500       8.5000    5162.1467      85.8061       4.2147    6977.6975
      8.9531       8.9531    1031.4207    1290.5514       4.3492     835.9272
    627.5680    7751.9253      -0.0257       2.3625      13.7483      14.1866
   1954.7700    4149.6544      13.7483       0.0000
5162.3976
   5162.3976       8.5000    5161.9884      85.3028       4.2139    6992.1209
      8.9511       8.9511    1034.1757    1313.9903       4.4871     846.8706
    624.3746    7785.2361      -0.0248       2.3590      13.3467      13.7760
   1978.4651    4138.2465      13.3467       0.0000
5162.2452
   5162.2452       8.5000    5161.8302      83.5599       4.2172    6983.2894
      8.9493       8.9493    1032.3166    1336.4434       4.6780     852.8350
    617.4302    7806.7213      -0.0246       2.3554      13.2869      13.7140
   1984.9490    4142.4335      13.2869       0.0000
5162.0928
   5162.0928       8.5000    5161.6709      81.6883       4.2128    6969.6484
      8.9489       8.9489    1041.4609    1341.6284       4.7667     852.6334
    613.2299    7816.2520      -0.0251       2.3521      13.6100      14.0431
   1966.7603    4153.6895      13.6100       0.0000
5161.9404
   5161.9404       8.5000    5161.5127      80.2314       4.2028    6969.9746
      8.9497       8.9497    1068.8691    1346.0439       4.7746     854.8998
    612.3094    7820.0449      -0.0282       2.3462      13.9404      14.3803
   1938.3489    4143.2012      13.9404       0.0000
5161.7880
   5161.7880       8.5000    5161.3544      79.3590       4.1975    6986.4043
      8.9507       8.9507    1096.7878    1364.1196       4.7584     868.5339
    622.5081    7846.9535      -0.0301       2.3376      14.0466      14.4891
   1919.6987    4119.1240      14.0466       0.0000
5161.6356
   5161.6356       8.5000    5161.1952      78.3037       4.2091    7000.7564
      8.9504       8.9504    1116.1363    1398.3401       4.7057     892.0513
    644.8069    7921.4867      -0.0272       2.3277      13.9230      14.3631
   1928.3905    4119.4215      13.9230       0.0000
5161.4832
   5161.4832       8.5000    5161.0369      75.5016       4.2274    6996.8419
      8.9475       8.9475    1130.8441    1436.0367       4.6315     914.6228
    667.8516    7986.6928      -0.0252       2.3187      13.8759      14.3132
   1941.6665    4140.4862      13.8759       0.0000
5161.3308
   5161.3308       8.5000    5160.8786      72.2693       4.2297    6978.3529
      8.9436       8.9436    1140.4645    1458.5101       4.5265     929.7089
    686.9527    7999.1468      -0.0271       2.3131      14.2979      14.7408
   1907.8007    4129.6449      14.2979       0.0000
5161.1784
   5161.1784       8.5000    5160.7214      71.3853       4.2189    6971.0626
      8.9428       8.9428    1141.8135    1460.4199       4.4124     938.7700
    702.0644    8012.7699      -0.0259       2.3114      14.9980      15.4531
   1829.7477    4057.9162      14.9980       0.0000
5161.0260
   5161.0260       8.5000    5160.5622      72.1205       4.2136    6987.6842
      8.9451       8.9451    1139.9213    1463.5206       4.4115     947.0121
    708.1576    8020.9147      -0.0251       2.3105      15.4843      15.9496
   1750.4531    3946.1688      15.4843       0.0000
5160.8736
   5160.8736       8.5000    5160.4039      71.9949       4.2131    7021.2882
      8.9475       8.9475    1140.0799    1475.2706       4.4334     956.3374
    704.0810    7981.0828      -0.0309       2.3088      15.7799      16.2520
   1682.9392    3831.2186      15.7799       0.0000
5160.7212
   5160.7212       8.5000    5160.2447      70.7944       4.2219    7038.6867
      8.9489       8.9489    1146.1389    1481.0682       4.4260     958.6186
    698.5902    7949.8751      -0.0357       2.3066      16.2562      16.7376
   1616.7359    3737.5149      16.2562       0.0000
5160.5688
   5160.5688       8.5000    5160.0864      70.0755       4.2369    7010.6742
      8.9493       8.9493    1163.1000    1487.5713       4.4209     958.0577
    705.2458    7975.5034      -0.0352       2.3030      16.8130      17.3041
   1562.9883    3677.1400      16.8130       0.0000
5160.4164
   5160.4164       8.5000    5159.9281      71.6088       4.2359    6971.9430
      8.9499       8.9499    1179.9984    1497.2635       4.3932     966.4176
    719.0878    8025.1523      -0.0321       2.2996      16.8699      17.3624
   1555.7223    3666.5417      16.8699       0.5910
5160.2640
   5160.2640       8.5000    5159.7699      75.7279       4.2234    6971.6562
      8.9507       8.9507    1186.3394    1480.8769       4.3643     967.2297
    718.5888    8027.6622      -0.0308       2.3021      16.2564      16.7390
   1617.3505    3738.8172      16.2564       0.0000
5160.1116
   5160.1116       8.5000    5159.6106      79.7520       4.2220    6998.7627
      8.9511       8.9511    1161.8252    1423.0486       4.3466     934.5017
    690.4053    7940.2054      -0.0325       2.3154      15.2758      15.7413
   1737.5160    3889.7717      15.2758       0.0000
5159.9592
   5159.9592       8.5000    5159.4524      80.9681       4.2310    7015.9551
      8.9512       8.9512    1104.9160    1351.2779       4.3617     883.4174
    648.9770    7820.6964      -0.0327       2.3355      14.5350      14.9870
   1846.3562    4030.5521      14.5350       0.0000
5159.8068
   5159.8068       8.5000    5159.2941      80.0190       4.2365    7003.6702
      8.9519       8.9519    1057.7026    1314.1163       4.3590     851.5582
    631.2013    7779.9870      -0.0281       2.3485      14.4824      14.9338
   1865.6949    4065.5039      14.4824       0.0000
5159.6544
   5159.6544       8.5000    5159.1349      78.2892       4.2329    6974.3108
      8.9527       8.9527    1065.9736    1334.1452       4.2133     857.9912
    656.2122    7816.3600      -0.0270       2.3451      14.9477      15.4083
   1803.6528    3993.9438      14.9477       0.0000
5159.5020
   5159.5020       8.5000    5158.9766      75.9505       4.2205    6963.5264
      8.9536       8.9536    1111.3076    1375.1187       4.0351     893.3259
    696.0023    7889.1748      -0.0280       2.3327      15.3575      15.8261
   1734.3064    3894.0112      15.3575       0.0000
5159.3496
   5159.3496       8.5000    5158.8184      74.5290       4.2103    6980.4473
      8.9531       8.9531    1146.0081    1405.1128       4.0057     924.5626
    714.8340    7959.0244      -0.0268       2.3230      15.7380      16.2132
   1684.0159    3828.9404      15.7380       0.0000
5159.1972
   5159.1972       8.5000    5158.6601      75.0854       4.2167    6999.4588
      8.9500       8.9500    1151.4179    1426.0981       4.1160     934.8673
    710.6869    7987.8268      -0.0262       2.3191      15.9799      16.4572
   1657.2633    3797.6304      15.9799       0.0000
5159.0448
   5159.0448       8.5000    5158.5009      76.0584       4.2380    6998.1265
      8.9461       8.9461    1142.6745    1434.4269       4.2360     937.5761
    700.3394    7988.9794      -0.0260       2.3187      15.6986      16.1684
   1659.7793    3768.3932      15.6986       0.0000
5158.8924
   5158.8924       8.5000    5158.3426      75.5528       4.2525    6983.2804
      8.9459       8.9459    1136.3068    1432.9826       4.2810     943.6192
    695.0808    7996.9556      -0.0243       2.3188      15.3132      15.7760
   1666.7791    3736.2831      15.3132       0.0000
