~VERSION INFORMATION
VERS.           2.0   :CWLS Log ASCII Standard - VERSION 2.0
WRAP.           NO    :One Line per depth step
PROD.  Schlumberger   :LAS Producer
PROG.  DLIS to ASCII 2.3                               :LAS Program name and version
CREA.        2023/07/14 00:15                          :LAS Creation date {YYYY/MM/DD hh:mm}
DLIS_CREA.  2023-Jul-14 00:11                          :DLIS Creation date and time {YYYY-MMM-DD hh:mm}
SOURCE.     LIS_010.dlis                               :DLIS File Name
FILE-ID.     LIS   .003                                :File Identification Number
#--------------------------------------------------
~WELL INFORMATION
#MNEM.UNIT      DATA             DESCRIPTION
#---- ------ --------------   -----------------------------
STRT .M      5284.9272       :START DEPTH     
STOP .M      4939.1316       :STOP DEPTH     
STEP .M        -0.1524       :STEP     
NULL .          -999.25      :NULL VALUE
COMP .        PETROBRAS S.A.                           :COMPANY
WELL .        3-BRSA-293D-SPS                          :WELL
FLD  .        BS-400                                   :FIELD
LOC  .        BASE SAD 69:                             :LOCATION
CNTY .        SANTOS                                   :COUNTY
STAT .        BRASIL                                   :STATE
CTRY .        BRASIL                                   :COUNTRY
API  .                                                 :API NUMBER
UWI  .                                                 :UNIQUE WELL ID
DATE .        15/11/2004                               :LOG DATE
SRVC .        Schlumberger                             :SERVICE COMPANY
LATI .DEG                                              :LATITUDE
LONG .DEG                                              :LONGITUDE
GDAT .                                                 :GeoDetic Datum
#-----------------------------------------------------------------------------
~PARAMETER INFORMATION
#MNEM.UNIT    VALUE                      DESCRIPTION
#---- -----   --------------------       ------------------------
APD  .M               24                 :
BHT  .DEGF           260                 :
BLI  .M             5289                 :
BS   .IN         8.50000                 :
CN   .        PETROBRAS S.A.             :
COUN .        SANTOS                     :
CS   .IN         9.62500                 :
DATE .        15/11/2004                 :
DFD  .LB/G      12.30000                 :
DFL  .C3               2                 :
DFPH .        N/A                        :
DFT  .        SINTETICO                  :
DFV  .S               95                 :
DMF  .        MESA ROTATIVA              :
EDF  .M               24                 :
EGL  .M             -500                 :
EKB  .        N/A                        :
ENGI .        HERNANDEZ / LOCK           :
FL1  .        X   7292392.00 M LAT 24 28 47.189 S :
FL2  .        Y    584087.00 M LON 44 10 12.698 W :
FL3  .        MC  45 GRAUS               :
FN   .        BS-400                     :
LMF  .        MESA ROTATIVA              :
LUL  .        MACAE                      :
MCSS .        PRENSA                     :
MCST .DEGF            80                 :
MFSS .        PRENSA                     :
MFST .DEGF            80                 :
MSS  .        LINHA DE FLUXO             :
MST  .DEGF            80                 :
PDAT .        NIVEL DO MAR               :
R1   .        01. APRESENTAÇÃO DE ACORDO COM REQUERIMENTO DO CLIENTE :
R2   .        02. TEMPERATURA MÁXIMA DO POÇO T1=T2= 290 DEGF @  5275 M :
R3   .        03. INICIO DA CIRCULAÇÃO  12/11/2004 09 00 H :
R4   .        04. FINAL DA CIRCULAÇÃO   12/11/2004 18 00 H :
R5   .        05. TEMPO TOTAL DE CIRCULAÇÃO   09 00 H :
R6   .        06. FLUIDO DE PERFURAÇÃO  SINTETICO (BR-MUL  BR-MI)  60% TEOR DO OLEO :
R7   .        07. SALINIDADE DA LAMA  254762 PPM NACL NA FASE DE AGUA :
R8   .        08. INCLINAÇÃO MÁXIMA DO POÇO  37.37 GRAUS @ 5100 M :
R9   .        09. PRIMEIRAS E ULTIMAS LEITURAS  :
RMB  .OHMM    > 10                       :
RMCS .OHMM    > 10                       :
RMFS .OHMM    > 10                       :
RMS  .OHMM    >10                        :
RUN  .                 2                 :
STAT .        BRASIL                     :
TCS  .        18 00 H                    :
TDD  .M             5288                 :
TDL  .M             5293                 :
TLAB .        N/A                        :
TLI  .M             5000                 :
WITN .        ERNANI / ZE MARIA          :
WN   .        3-BRSA-293D-SPS            :
LUN  .              8808                 :
HIDE .        3-SPS-41D                  :
HID2 .        HIGH DEFINITION INDUCTION LOG :
HID3 .        X-MULTIPOLE ARRAY ACOUSTILOG :
HID4 .        GAMMA RAY LOG              :
HID5 .        TTRM SUB                   :
CLAB .        BACIA                      :
SLAB .        PAIS                       :
CMT1 .        ESC  1 200                 :
CMT2 .        PROF. MEDIDA               :
CMT4 .        SONDA  SS-43               :
HDAT .        SAD 69                     :
FL   .        BASE SAD 69                :
OS1  .        RCI/GR                     :
OS2  .        CHECK SHOT                 :
OS3  .        GR/CN/ZDL                  :
OS5  .        RCOR/GR                    :
LNAM .        ZDL/CN/XMAC/HDIL/EARTH IMAGER/RCI/RCOR/CHECK SHOT/GR :
TOOL .        ZDL/CN/XMAC/HDIL/EARTH IMAGER/RCI/RCOR/CHECK SHOT/GR :
LSOU .        PETROBRAS                  :
LSRV .        OH WIRELINE                :
LTYP .        RAW                        :
EPD  .M                0                 :
LDAT .        15/11/2004                 :
TRIP .                 3                 :
SON  .            786588                 :
CBDR .M             4277                 :
CBLO .        NR                         :
CBL1 .        NR                         :
STEM .DEGF    N/A                        :
BSAL .            254762                 :
BARI .        OFF                        :
DLAB .        12/11/2004                 :
MRT  .DEGF           290                 :
TSTR .        HDIL/XMAC/GR/TTRM          :
TSTG .        N/A                        :
STUS .        FINAL                      :
LCNM .        BAKER ATLAS                :
LCC  .               150                 :
NATI .        BRASIL                     :
OPMD .        OH.WIRELINE                :
PANA .        HERNANDEZ / LOCK           :
PCON .        BAKER ATLAS                :
R11  .        SL     5268.3 M / 5000.0 M :
R12  .        GR     5268.3 M / 5000.0 M :
R13  .        XMAC   5279.5 M / 5000.0 M :
R14  .        HDIL   5289.0 M / 5000.0 M :
R17  .        11. DECLINAÇÃO MAGNETICA  -20.9 GRAUS :
R18  .        12. COORDENADAS BASE       :
R21  .        Y    583936.00 M           :
R22  .        MC  45 GRAUS               :
PVER .           4.10000                 :
WDFN .        /space/expusr/3-SPS-41D_RUN2/i77bf02_2spf.xtf :
OCT  .        i77bf                      :
OS4  .        EARTH IMAGER               :
R16  .        10. PONTO FRACO UTILIZADO  10K :
R20  .        X   7292512.00 M           :
R24  .        13. CADASTRO ANP  86316021017 :
#-----------------------------------------------------------------------------
~CURVE INFORMATION
#MNEM.UNIT   API CODE                                  DESCRIPTION
#---- -----  --------                                  -----------------------
DEPT .M                                                :DEPTH (BOREHOLE) {F10.4}
DEPT .M                                                : {F13.4}
DT   .US/F                                             : {F13.4}
SFN1 .US                                               : {F13.4}
SFN2 .US                                               : {F13.4}
SFN3 .US                                               : {F13.4}
SFN4 .US                                               : {F13.4}
TT   .MS                                               : {F13.4}
#-----------------------------------------------------------------------------
# 
#     DEPT        DEPT         DT           SFN1         SFN2         SFN3         SFN4         TT
#
~A  
# ...
 5080.2540    5080.2540      68.3360     701.8749     734.1250     770.8748     801.5000      44.5791
 5080.1016    5080.1016      67.4640     702.1250     734.2500     770.3750     801.5000      44.6128
 5079.9492    5079.9492      66.9201     702.7500     734.3750     770.7500     801.3750      44.6463
 5079.7968    5079.7968      66.7826     696.1286     734.4968     770.9999     801.2501      44.6797
 5079.6444    5079.6444      66.9543     703.5004     728.0068     770.6856     801.4997      44.7132
 5079.4920    5079.4920      67.2800     704.0000     735.8738     696.0937     800.6250      44.7468
 5079.3396    5079.3396      67.6729     703.9982     734.8754     772.1262     395.5242      44.7807
 5079.1872    5079.1872      68.1129     702.8800     735.1239     772.8717     801.4479      44.8145
 5079.0348    5079.0348      68.5266     700.8831     735.0005     772.3770     805.7398      44.8488
 5078.8824    5078.8824      68.7946     699.7542     732.6338     771.5032     806.7463      44.8832
 5078.7300    5078.7300      68.8612     699.7500     733.3725     770.8771     807.4975      44.9176
 5078.5776    5078.5776      68.7997     699.8746     733.6243     771.4981     805.6306      44.9521
 5078.4252    5078.4252      68.7924     699.7503     733.2510     771.2506     805.9990      44.9865
 5078.2728    5078.2728      68.9506     699.5006     733.3747     771.2500     806.0000      45.0210
 5078.1204    5078.1204      69.1383     699.9991     733.6245     771.2500     806.0000      45.0555
 5077.9680    5077.9680      69.0464     700.6241     733.7498     771.2500     806.0000      45.0901
 5077.8156    5077.8156      68.5127     697.8781     734.3743     771.4997     806.1249      45.1243
 5077.6632    5077.6632      67.7262     696.0014     728.0048     769.6264     806.6246      45.1582
 5077.5108    5077.5107      67.1490     696.0000     728.0000     762.8750     803.6250      45.1918
 5077.3584    5077.3584      67.1570     696.0000     726.7500     761.6250     794.0000      45.2254
 5077.2060    5077.2061      67.7192     696.0000     727.3750     765.6250     797.0000      45.2593
 5077.0536    5077.0536      68.4814     696.0000     728.0003     765.5017     798.1259      45.2935
 5076.9012    5076.9012      69.1011     696.0000     728.3749     767.8751     799.3757      45.3281
 5076.7488    5076.7488      69.5022     696.0000     728.2496     768.0000     800.0000      45.3629
 5076.5964    5076.5964      69.8125     696.0005     728.0000     767.9986     800.0000      45.3978
 5076.4440    5076.4440      70.1404     696.2490     728.0000     767.2531     800.0000      45.4326
 5076.2916    5076.2916      70.4042     697.2462     729.1207     767.4990     800.0000      45.4678
 5076.1392    5076.1392      70.4100     699.6168     732.7374     768.9948     800.9965      45.5031
 5075.9868    5075.9868      70.0959     702.4911     733.4977     768.7508     804.8630      45.5381
 5075.8344    5075.8344      69.5962     703.9959     733.7493     768.3760     803.2544      45.5729
 5075.6820    5075.6820      69.1455     704.0000     735.2465     768.6244     803.1253      45.6075
 5075.5296    5075.5296      68.8872     704.0000     735.3748     771.7438     802.7507      45.6420
 5075.3772    5075.3772      68.7947     704.0000     735.3750     772.7484     806.6187      45.6764
 5075.2248    5075.2248      68.7327     704.0000     735.6247     772.8748     806.9995      45.7108
 5075.0724    5075.0724      68.5673     704.0000     735.6250     773.2497     807.1249      45.7451
 5074.9200    5074.9200      68.2095     705.6242     735.9998     773.2500     807.3749      45.7792
 5074.7676    5074.7676      67.6293     710.0000     739.2500     772.2500     807.2500      45.8130
 5074.6152    5074.6152      66.9816     707.3750     741.5000     776.0000     808.0000      45.8465
 5074.4628    5074.4628      66.5655     705.8752     739.5000     777.9988     808.1262      45.8798
 5074.3104    5074.3104      66.5900     706.2489     739.4987     775.9996     810.1230      45.9131
 5074.1580    5074.1580      66.9596     705.1268     738.1278     775.6247     808.0008      45.9466
 5074.0056    5074.0056      67.3438     706.4943     740.2424     775.3761     808.6254      45.9803
 5073.8532    5073.8532      67.5440     703.1395     735.7694     775.9973     808.8739      46.0138
 5073.7008    5073.7008      67.7517     696.1528     730.5208     768.0318     801.9028      46.0477
 5073.5484    5073.5484      68.3498     688.0293     722.4043     760.4025     795.8966      46.0819
 5073.3960    5073.3960      69.3858     687.8754     721.5028     760.0012     792.6355      46.1166
 5073.2436    5073.2436      70.4924     690.8664     724.3668     761.4957     796.7382      46.1519
 5073.0912    5073.0912      71.2505     689.3787     722.3800     760.1284     795.2537      46.1875
 5072.9388    5072.9388      71.5128     691.9944     725.8676     761.3723     797.4952      46.2233
 5072.7864    5072.7864      71.5052     689.1300     721.6325     760.0024     792.2592      46.2591
 5072.6340    5072.6340      71.4296     692.8698     724.8705     760.9986     795.7452      46.2948
 5072.4816    5072.4816      70.9897     695.2476     727.3725     762.8731     798.6221      46.3303
 5072.3292    5072.3292      69.7886     694.0008     725.7511     762.7501     795.8768      46.3652
 5072.1768    5072.1768      68.5628     695.0000     726.8750     765.0000     799.6250      46.3995
 5072.0244    5072.0244      69.1285     694.5000     723.2500     759.3750     792.0000      46.4341
 5071.8720    5071.8720      72.7434     687.9950     719.8574     750.4970     781.3759      46.4705
 5071.7196    5071.7196      78.5410     677.1310     411.2287     744.0066     783.2506      46.5097
 5071.5672    5071.5672      83.3634     684.3722     536.0223     752.0000     784.0000      46.5514
 5071.4148    5071.4148      84.1411     682.0000     554.8747     752.0037     784.0000      46.5935
 5071.2624    5071.2624      80.6732     682.0000     714.0385     754.3644     784.0000      46.6336
 5071.1100    5071.1100      75.5187     682.0000     714.6255     754.0015     789.2285      46.6714
 5070.9576    5070.9576      71.6501     682.0000     714.7495     754.0000     791.1180      46.7072
 5070.8052    5070.8052      70.2183     682.0000     714.8746     754.1246     791.1250      46.7423
 5070.6528    5070.6528      70.3590     682.0000     714.7504     753.8757     791.2496      46.7775
 5070.5004    5070.5004      70.5655     682.3740     714.9993     754.1243     791.1253      46.8128
 5070.3480    5070.3480      70.1854     682.1256     715.0000     754.0003     791.1250      46.8479
 5070.1956    5070.1956      69.4041     682.3745     715.1248     754.3743     791.1250      46.8826
 5070.0432    5070.0432      68.4734     682.4998     715.1250     754.4998     791.2498      46.9169
 5069.8908    5069.8908      67.6284     682.6249     715.1250     754.3751     791.1251      46.9507
 5069.7384    5069.7384      67.1573     682.9997     715.4997     754.4999     791.3748      46.9843
 5069.5860    5069.5860      67.3980     683.1249     715.7499     754.7499     791.6249      47.0180
 5069.4336    5069.4336      68.7109     683.2500     715.8750     754.8750     791.5000      47.0524
 5069.2812    5069.2813      71.1831     683.8750     716.3750     755.2500     791.7500      47.0880
 5069.1288    5069.1288      74.3112    1077.3654     716.9164     755.3753     791.7500      47.1252
 5068.9764    5068.9764      77.0379    1063.3018    1134.4893     756.2163     791.7503      47.1637
 5068.8240    5068.8240      78.2599     760.5229    1123.9228    1075.8750     792.2123      47.2028
 5068.6716    5068.6716      77.5200     689.4987     722.4996    1075.3093     939.0212      47.2416
 5068.5192    5068.5192      75.3940     688.7532     722.2511     761.8274     465.8784      47.2791
 5068.3668    5068.3668      72.9682     695.4739     722.0010     760.2510     531.9856      47.3156
