~VERSION INFORMATION
VERS.           2.0   :CWLS Log ASCII Standard - VERSION 2.0
WRAP.           YES   :Multiple lines per depth step
PROD.  Schlumberger   :LAS Producer
PROG.  DLIS to ASCII 2.3                               :LAS Program name and version
CREA.        2023/07/14 00:15                          :LAS Creation date {YYYY/MM/DD hh:mm}
DLIS_CREA.  2023-Jul-14 00:11                          :DLIS Creation date and time {YYYY-MMM-DD hh:mm}
SOURCE.     LIS_013.dlis                               :DLIS File Name
FILE-ID.     LIS   .002                                :File Identification Number
#--------------------------------------------------
~WELL INFORMATION
#MNEM.UNIT      DATA             DESCRIPTION
#---- ------ --------------   -----------------------------
STRT .M      5299.5576       :START DEPTH     
STOP .M      4241.4444       :STOP DEPTH     
STEP .M        -0.1524       :STEP     
NULL .          -999.25      :NULL VALUE
COMP .        PETROBRAS S.A.                           :COMPANY
WELL .        3-BRSA-293D-SPS                          :WELL
FLD  .        BS-400                                   :FIELD
LOC  .        BASE SAD 69:                             :LOCATION
CNTY .        SANTOS                                   :COUNTY
STAT .        BRASIL                                   :STATE
CTRY .        BRASIL                                   :COUNTRY
API  .                                                 :API NUMBER
UWI  .                                                 :UNIQUE WELL ID
DATE .        15/11/2004                               :LOG DATE
SRVC .        Schlumberger                             :SERVICE COMPANY
LATI .DEG                                              :LATITUDE
LONG .DEG                                              :LONGITUDE
GDAT .                                                 :GeoDetic Datum
#-----------------------------------------------------------------------------
~PARAMETER INFORMATION
#MNEM.UNIT    VALUE                      DESCRIPTION
#---- -----   --------------------       ------------------------
APD  .M               24                 :
BHT  .DEGF           260                 :
BLI  .M             5289                 :
BS   .IN         8.50000                 :
CN   .        PETROBRAS S.A.             :
COUN .        SANTOS                     :
CS   .IN         9.62500                 :
DATE .        15/11/2004                 :
DFD  .LB/G      12.30000                 :
DFL  .C3               2                 :
DFPH .        N/A                        :
DFT  .        SINTETICO                  :
DFV  .S               95                 :
DMF  .        MESA ROTATIVA              :
EDF  .M               24                 :
EGL  .M             -500                 :
EKB  .        N/A                        :
ENGI .        HERNANDEZ / LOCK           :
FL1  .        X   7292392.00 M LAT 24 28 47.189 S :
FL2  .        Y    584087.00 M LON 44 10 12.698 W :
FL3  .        MC  45 GRAUS               :
FN   .        BS-400                     :
LMF  .        MESA ROTATIVA              :
LUL  .        MACAE                      :
MCSS .        PRENSA                     :
MCST .DEGF            80                 :
MFSS .        PRENSA                     :
MFST .DEGF            80                 :
MSS  .        LINHA DE FLUXO             :
MST  .DEGF            80                 :
PDAT .        NIVEL DO MAR               :
R1   .        01. APRESENTAÇÃO DE ACORDO COM REQUERIMENTO DO CLIENTE :
R2   .        02. TEMPERATURA MÁXIMA DO POÇO T1=T2= 292 DEGF @  5277 M :
R3   .        03. INICIO DA CIRCULAÇÃO  12/11/2004 09 00 H :
R4   .        04. FINAL DA CIRCULAÇÃO   12/11/2004 18 00 H :
R5   .        05. TEMPO TOTAL DE CIRCULAÇÃO   09 00 H :
R6   .        06. FLUIDO DE PERFURAÇÃO  SINTETICO (BR-MUL  BR-MI)  60% TEOR DO OLEO :
R7   .        07. SALINIDADE DA LAMA  254762 PPM NACL NA FASE DE AGUA :
R8   .        08. INCLINAÇÃO MÁXIMA DO POÇO  37.37 GRAUS @ 5100 M :
R9   .        09. PRIMEIRAS E ULTIMAS LEITURAS  :
RMB  .OHMM    > 10                       :
RMCS .OHMM    > 10                       :
RMFS .OHMM    > 10                       :
RMS  .OHMM    >10                        :
RUN  .                 2                 :
STAT .        BRASIL                     :
TCS  .        18 00 H                    :
TDD  .M             5288                 :
TDL  .M             5293                 :
TLAB .        N/A                        :
TLI  .M             4277                 :
WITN .        ERNANI / ZE MARIA          :
WN   .        3-BRSA-293D-SPS            :
LUN  .              8808                 :
HIDE .        3-SPS-41D                  :
HID2 .        COMPENSATED Z-DENSILOG     :
HID3 .        COMPENSATED NEUTRON LOG    :
HID4 .        GAMMA RAY LOG              :
HID5 .        TTRM SUB                   :
CLAB .        BACIA                      :
SLAB .        PAIS                       :
CMT1 .        ESC  1 1000                :
CMT2 .        PROF. MEDIDA               :
CMT4 .        SONDA  SS-43               :
HDAT .        SAD 69                     :
FL   .        BASE SAD 69                :
OS1  .        RCI/GR                     :
OS2  .        CHECK SHOT                 :
OS3  .        GR/XMAC/HDIL               :
OS5  .        RCOR/GR                    :
LNAM .        ZDL/CN/XMAC/HDIL/EARTH IMAGER/RCI/RCOR/CHECK SHOT/GR :
TOOL .        ZDL/CN/XMAC/HDIL/EARTH IMAGER/RCI/RCOR/CHECK SHOT/GR :
LSOU .        PETROBRAS                  :
LSRV .        OH WIRELINE                :
LTYP .        RAW                        :
EPD  .M                0                 :
LDAT .        15/11/2004                 :
TRIP .                 4                 :
SON  .            786588                 :
CBDR .M             4277                 :
CBLO .        NR                         :
CBL1 .        NR                         :
STEM .DEGF    N/A                        :
BSAL .            254762                 :
BARI .        OFF                        :
DLAB .        12/11/2004                 :
MRT  .DEGF           292                 :
TSTR .        ZDL/CN/GR/TTRM             :
TSTG .        N/A                        :
STUS .        FINAL                      :
LCNM .        BAKER ATLAS                :
LCC  .               150                 :
NATI .        BRASIL                     :
OPMD .        OH.WIRELINE                :
PANA .        HERNANDEZ / LOCK           :
PCON .        BAKER ATLAS                :
R11  .        GR     5268.3 M / 4277.0 M :
R12  .        CN     5286.5 M / 5128.0 M (FERRAMENTA PERDEU LEITURA ACIMA DE 5128M) :
R13  .        ZDL    5292.0 M / 4277.0 M :
R15  .        10. PONTO FRACO UTILIZADO  10K :
R17  .        12. COORDENADAS BASE       :
R19  .        X   7292512.00 M           :
R21  .        MC  45 GRAUS               :
R23  .        13. CADASTRO ANP  86316021017 :
PVER .           4.10000                 :
WDFN .        /space/expusr/3-SPS-41D_RUN2/i77bf04_8spf.xtf :
OCT  .        i77bf                      :
OS4  .        EARTH IMAGER               :
R16  .        11. DECLINAÇÃO MAGNETICA  -20.9 GRAUS :
R20  .        Y    583936.00 M           :
#-----------------------------------------------------------------------------
~CURVE INFORMATION
#MNEM.UNIT   API CODE                                  DESCRIPTION
#---- -----  --------                                  -----------------------
DEPT .M                                                :DEPTH (BOREHOLE) {F10.4}
DEPT .M                                                : {F13.4}
BIT  .IN                                               : {F13.4}
DEPM .M                                                : {F13.4}
GR   .GAPI                                             : {F13.4}
SPD  .M/MN                                             : {F13.4}
TTEN .LBF                                              : {F13.4}
CAL  .IN                                               : {F13.4}
CALX .IN                                               : {F13.4}
HRD1 .HZ                                               : {F13.4}
HRD2 .HZ                                               : {F13.4}
PE   .B/E                                              : {F13.4}
SFT2 .HZ                                               : {F13.4}
SOFT .HZ                                               : {F13.4}
SSD  .HZ                                               : {F13.4}
ZCOR .G/C3                                             : {F13.4}
ZDEN .G/C3                                             : {F13.4}
CNC  .PU                                               : {F13.4}
CN   .PU                                               : {F13.4}
LSN  .HZ                                               : {F13.4}
SSN  .HZ                                               : {F13.4}
CNCF .PU                                               : {F13.4}
MMRK .MN                                               : {F13.4}
#-----------------------------------------------------------------------------
# DEPT       
#     DEPT         BIT          DEPM         GR           SPD          TTEN         
#     CAL          CALX         HRD1         HRD2         PE           SFT2         
#     SOFT         SSD          ZCOR         ZDEN         CNC          CN           
#     LSN          SSN          CNCF         MMRK         
~A  
# ...
4749.0888
   4749.0888       8.5000    4748.6835      90.2143       7.5615    6917.7789
      9.1166       9.1166     579.1813     742.8049       5.1495     489.9272
    326.4441    6571.1379      -0.0261       2.6156       0.0000      19.8659
   1264.8540    3202.1878      19.2102       0.0000
4748.9364
   4748.9364       8.5000    4748.5302      91.4086       7.5698    6934.2473
      9.1164       9.1164     587.4790     759.4894       5.2071     486.5873
    332.9688    6603.5882      -0.0266       2.6082       0.0000      20.0171
   1264.3396    3213.8858      19.3587       0.0000
4748.7840
   4748.7840       8.5000    4748.3777      92.1491       7.5861    6936.7329
      9.1165       9.1165     596.3113     773.0894       5.2997     472.2736
    332.5851    6628.4225      -0.0276       2.6016       0.0000      19.9102
   1272.1109    3224.3753      19.2537       0.0000
4748.6316
   4748.6316       8.5000    4748.2244      90.6699       7.5986    6928.4416
      9.1166       9.1166     599.8673     775.8919       5.3711     460.6275
    328.1708    6644.4068      -0.0267       2.5998       0.0000      19.4026
   1297.3448    3243.1684      18.7557       0.0000
4748.4792
   4748.4792       8.5000    4748.0720      87.8357       7.5976    6921.3275
      9.1168       9.1168     593.5228     764.7298       5.3269     460.6297
    327.6627    6645.9735      -0.0230       2.6047       0.0000      18.4914
   1344.3401    3275.5740      17.8621       0.0000
4748.3268
   4748.3268       8.5000    4747.9196      85.6836       7.5934    6920.9052
      9.1164       9.1164     579.8184     746.9924       5.1075     468.9408
    331.4731    6618.5588      -0.0205       2.6135       0.0000      17.6549
   1394.2741    3315.0590      17.0430       0.0000
4748.1744
   4748.1744       8.5000    4747.7662      85.2719       7.5899    6922.8404
      9.1144       9.1144     572.2475     732.8782       4.9511     477.5265
    331.6622    6598.2795      -0.0189       2.6193       0.0000      17.2911
   1420.5255    3340.6985      16.6882       0.0000
4748.0220
   4748.0220       8.5000    4747.6128      85.3643       7.5787    6924.6069
      9.1088       9.1088     581.5384     728.6325       4.8938     488.1543
    330.4410    6637.8750      -0.0144       2.6181       0.0000      17.5809
   1404.4096    3331.7131      16.9758       0.0000
4747.8696
   4747.8696       8.5000    4747.4604      86.2169       7.5655    6925.1502
      9.1015       9.1015     594.0288     736.5286       4.8238     493.3746
    336.7964    6683.1891      -0.0123       2.6127       0.0000      18.7325
   1340.2381    3287.7183      18.1094       0.0000
4747.7172
   4747.7172       8.5000    4747.3070      91.9274       7.5580    6927.8846
      9.0993       9.0993     591.3652     755.7757       4.7450     481.9557
    350.2720    6672.6774      -0.0171       2.6085       0.0000      20.3103
   1257.5046    3220.9536      19.6595       0.0000
4747.5648
   4747.5648       8.5000    4747.1537     101.4657       7.5577    6930.9311
      9.1053       9.1053     582.7096     769.0256       4.6965     461.3272
    360.5090    6651.5943      -0.0209       2.6070       0.0000      21.1304
   1201.4091    3143.5987      20.4607       0.0000
4747.4124
   4747.4124       8.5000    4747.0013     107.2547       7.5690    6923.9978
      9.1123       9.1123     583.9887     767.5454       4.6436     450.2060
    365.1203    6672.1072      -0.0180       2.6066       0.0000      21.0786
   1179.0399    3081.0471      20.4044       0.0000
4747.2600
   4747.2600       8.5000    4746.8479     106.1986       7.5910    6893.8984
      9.1126       9.1126     585.3975     767.6617       4.6003     452.8925
    365.8352    6703.6009      -0.0140       2.6057       0.0000      21.1161
   1171.8830    3065.2529      20.4410       0.0000
4747.1076
   4747.1076       8.5000    4746.6945     102.3694       7.6064    6846.1708
      9.1062       9.1062     576.0080     779.5360       4.7635     467.3127
    361.5543    6698.2337      -0.0152       2.6046       0.0000      21.1588
   1181.8048    3094.5293      20.4879       0.0000
4746.9552
   4746.9552       8.5000    4746.5411      98.7579       7.6055    6806.0133
      9.0989       9.0989     562.9920     796.1635       5.1468     481.5166
    350.1075    6670.4940      -0.0198       2.6038       0.0000      20.8540
   1205.5478    3132.2447      20.1939       0.0000
4746.8028
   4746.8028       8.5000    4746.3887      97.0099       7.5878    6798.1659
      9.0982       9.0982     557.9413     802.2577       5.4602     483.2880
    338.7501    6675.1302      -0.0193       2.6035       0.0000      20.3684
   1226.8147    3147.5872      19.7173       0.0000
4746.6504
   4746.6504       8.5000    4746.2363      97.8472       7.5616    6826.7461
      9.1057       9.1057     563.7858     797.4291       5.5513     481.3140
    335.2401    6711.0869      -0.0146       2.6031       0.0000      19.9454
   1238.3650    3141.8110      19.2963       0.0000
4746.4980
   4746.4980       8.5000    4746.0830      98.3709       7.5426    6860.7051
      9.1130       9.1130     570.6903     792.6270       5.6310     483.4389
    331.8785    6708.7539      -0.0153       2.6021       0.0000      19.7969
   1242.1138    3138.7832      19.1452       0.0000
4746.3456
   4746.3456       8.5000    4745.9296      96.8158       7.5380    6872.1294
      9.1097       9.1097     574.5866     794.1138       5.8098     477.8021
    321.0951    6651.7910      -0.0242       2.6007       0.0000      19.9279
   1246.3362    3160.5731      19.2761       0.0000
4746.1932
   4746.1932       8.5000    4745.7762      95.5816       7.5437    6870.4679
      9.0986       9.0986     579.8731     790.3381       5.8945     461.1217
    313.0590    6598.8382      -0.0319       2.6007       0.0000      19.7656
   1269.7681    3205.8549      19.1251       0.0000
4746.0408
   4746.0408       8.5000    4745.6238      95.9188       7.5630    6880.1709
      9.0908       9.0908     579.4084     774.2234       5.7633     447.3976
    316.2302    6576.0766      -0.0318       2.6060       0.0000      18.9967
   1315.4468    3251.4819      18.3761       0.0000
4745.8884
   4745.8884       8.5000    4745.4704      95.7573       7.5861    6902.3623
      9.0886       9.0886     561.8848     749.9183       5.4894     444.0253
    320.1695    6560.6479      -0.0255       2.6181       0.0000      18.1565
   1357.4616    3275.7633      17.5536       0.0000
4745.7360
   4745.7360       8.5000    4745.3180      94.4990       7.5953    6922.6489
      9.0870       9.0870     536.3331     728.3516       5.4503     443.0017
    314.0221    6549.7172      -0.0172       2.6319       0.0000      17.7098
   1378.4489    3282.9213      17.1169       0.0000
4745.5836
   4745.5836       8.5000    4745.1656      93.7899       7.5987    6910.3339
      9.0860       9.0860     523.7398     720.6459       5.5389     440.1353
    305.0632    6554.7400      -0.0121       2.6380       0.0000      17.5782
   1388.9843    3295.0188      16.9885       0.0000
4745.4312
   4745.4312       8.5000    4745.0123      93.9156       7.6026    6857.7141
      9.0862       9.0862     537.6170     723.4308       5.6279     436.1640
    300.9839    6574.3896      -0.0129       2.6329       0.0000      17.7270
   1391.1017    3314.7649      17.1342       0.0000
4745.2788
   4745.2788       8.5000    4744.8599      94.2135       7.5972    6809.9448
      9.0837       9.0837     563.1542     731.1511       5.6796     435.5723
    299.9733    6586.0474      -0.0183       2.6222       0.0000      18.2565
   1372.5329    3321.7852      17.6551       0.0000
4745.1264
   4745.1264       8.5000    4744.7065      94.7220       7.5798    6811.5845
      9.0790       9.0790     579.1016     741.6631       5.7535     436.6727
    300.0388    6582.0482      -0.0243       2.6128       0.0000      18.9429
   1340.5282    3308.6470      18.3318       0.0000
4744.9740
   4744.9740       8.5000    4744.5531      94.4281       7.5627    6847.7397
      9.0760       9.0760     587.1456     752.6292       5.7255     439.7827
    308.1483    6588.9163      -0.0272       2.6062       0.0000      19.1656
   1325.0570    3290.9745      18.5525       0.0000
