~VERSION INFORMATION
VERS.           2.0   :CWLS Log ASCII Standard - VERSION 2.0
WRAP.           NO    :One Line per depth step
PROD.  Schlumberger   :LAS Producer
PROG.  DLIS to ASCII 2.3                               :LAS Program name and version
CREA.        2023/07/14 00:15                          :LAS Creation date {YYYY/MM/DD hh:mm}
DLIS_CREA.  2023-Jul-14 00:11                          :DLIS Creation date and time {YYYY-MMM-DD hh:mm}
SOURCE.     LIS_011.dlis                               :DLIS File Name
FILE-ID.     LIS   .004                                :File Identification Number
#--------------------------------------------------
~WELL INFORMATION
#MNEM.UNIT      DATA             DESCRIPTION
#---- ------ --------------   -----------------------------
STRT .M      5300.3196       :START DEPTH     
STOP .M      4931.0544       :STOP DEPTH     
STEP .M        -0.1524       :STEP     
NULL .          -999.25      :NULL VALUE
COMP .        PETROBRAS S.A.                           :COMPANY
WELL .        3-BRSA-293D-SPS                          :WELL
FLD  .        BS-400                                   :FIELD
LOC  .        BASE SAD 69:                             :LOCATION
CNTY .        SANTOS                                   :COUNTY
STAT .        BRASIL                                   :STATE
CTRY .        BRASIL                                   :COUNTRY
API  .                                                 :API NUMBER
UWI  .                                                 :UNIQUE WELL ID
DATE .        15/11/2004                               :LOG DATE
SRVC .        Schlumberger                             :SERVICE COMPANY
LATI .DEG                                              :LATITUDE
LONG .DEG                                              :LONGITUDE
GDAT .                                                 :GeoDetic Datum
#-----------------------------------------------------------------------------
~PARAMETER INFORMATION
#MNEM.UNIT    VALUE                      DESCRIPTION
#---- -----   --------------------       ------------------------
APD  .M               24                 :
BHT  .DEGF           260                 :
BLI  .M             5289                 :
BS   .IN         8.50000                 :
CN   .        PETROBRAS S.A.             :
COUN .        SANTOS                     :
CS   .IN         9.62500                 :
DATE .        15/11/2004                 :
DFD  .LB/G      12.30000                 :
DFL  .C3               2                 :
DFPH .        N/A                        :
DFT  .        SINTETICO                  :
DFV  .S               95                 :
DMF  .        MESA ROTATIVA              :
EDF  .M               24                 :
EGL  .M             -500                 :
EKB  .        N/A                        :
ENGI .        HERNANDEZ / LOCK           :
FL1  .        X   7292392.00 M LAT 24 28 47.189 S :
FL2  .        Y    584087.00 M LON 44 10 12.698 W :
FL3  .        MC  45 GRAUS               :
FN   .        BS-400                     :
LMF  .        MESA ROTATIVA              :
LUL  .        MACAE                      :
MCSS .        PRENSA                     :
MCST .DEGF            80                 :
MFSS .        PRENSA                     :
MFST .DEGF            80                 :
MSS  .        LINHA DE FLUXO             :
MST  .DEGF            80                 :
PDAT .        NIVEL DO MAR               :
R1   .        01. APRESENTAÇÃO DE ACORDO COM REQUERIMENTO DO CLIENTE :
R2   .        02. TEMPERATURA MÁXIMA DO POÇO T1=T2= 290 DEGF @  5275 M :
R3   .        03. INICIO DA CIRCULAÇÃO  12/11/2004 09 00 H :
R4   .        04. FINAL DA CIRCULAÇÃO   12/11/2004 18 00 H :
R5   .        05. TEMPO TOTAL DE CIRCULAÇÃO   09 00 H :
R6   .        06. FLUIDO DE PERFURAÇÃO  SINTETICO (BR-MUL  BR-MI)  60% TEOR DO OLEO :
R7   .        07. SALINIDADE DA LAMA  254762 PPM NACL NA FASE DE AGUA :
R8   .        08. INCLINAÇÃO MÁXIMA DO POÇO  37.37 GRAUS @ 5100 M :
R9   .        09. PRIMEIRAS E ULTIMAS LEITURAS  :
RMB  .OHMM    > 10                       :
RMCS .OHMM    > 10                       :
RMFS .OHMM    > 10                       :
RMS  .OHMM    >10                        :
RUN  .                 2                 :
STAT .        BRASIL                     :
TCS  .        18 00 H                    :
TDD  .M             5288                 :
TDL  .M             5293                 :
TLAB .        N/A                        :
TLI  .M             5000                 :
WITN .        ERNANI / ZE MARIA          :
WN   .        3-BRSA-293D-SPS            :
LUN  .              8808                 :
HIDE .        3-SPS-41D                  :
HID2 .        HIGH DEFINITION INDUCTION LOG :
HID3 .        X-MULTIPOLE ARRAY ACOUSTILOG :
HID4 .        GAMMA RAY LOG              :
HID5 .        TTRM SUB                   :
CLAB .        BACIA                      :
SLAB .        PAIS                       :
CMT1 .        ESC  1 200                 :
CMT2 .        PROF. MEDIDA               :
CMT4 .        SONDA  SS-43               :
HDAT .        SAD 69                     :
FL   .        BASE SAD 69                :
OS1  .        RCI/GR                     :
OS2  .        CHECK SHOT                 :
OS3  .        GR/CN/ZDL                  :
OS5  .        RCOR/GR                    :
LNAM .        ZDL/CN/XMAC/HDIL/EARTH IMAGER/RCI/RCOR/CHECK SHOT/GR :
TOOL .        ZDL/CN/XMAC/HDIL/EARTH IMAGER/RCI/RCOR/CHECK SHOT/GR :
LSOU .        PETROBRAS                  :
LSRV .        OH WIRELINE                :
LTYP .        RAW                        :
EPD  .M                0                 :
LDAT .        15/11/2004                 :
TRIP .                 3                 :
SON  .            786588                 :
CBDR .M             4277                 :
CBLO .        NR                         :
CBL1 .        NR                         :
STEM .DEGF    N/A                        :
BSAL .            254762                 :
BARI .        OFF                        :
DLAB .        12/11/2004                 :
MRT  .DEGF           290                 :
TSTR .        HDIL/XMAC/GR/TTRM          :
TSTG .        N/A                        :
STUS .        FINAL                      :
LCNM .        BAKER ATLAS                :
LCC  .               150                 :
NATI .        BRASIL                     :
OPMD .        OH.WIRELINE                :
PANA .        HERNANDEZ / LOCK           :
PCON .        BAKER ATLAS                :
R11  .        SL     5268.3 M / 5000.0 M :
R12  .        GR     5268.3 M / 5000.0 M :
R13  .        XMAC   5279.5 M / 5000.0 M :
R14  .        HDIL   5289.0 M / 5000.0 M :
R17  .        11. DECLINAÇÃO MAGNETICA  -20.9 GRAUS :
R18  .        12. COORDENADAS BASE       :
R21  .        Y    583936.00 M           :
R22  .        MC  45 GRAUS               :
PVER .           4.10000                 :
WDFN .        /space/expusr/3-SPS-41D_RUN2/i77bf02_4spf.xtf :
OCT  .        i77bf                      :
OS4  .        EARTH IMAGER               :
R16  .        10. PONTO FRACO UTILIZADO  10K :
R20  .        X   7292512.00 M           :
R24  .        13. CADASTRO ANP  86316021017 :
#-----------------------------------------------------------------------------
~CURVE INFORMATION
#MNEM.UNIT   API CODE                                  DESCRIPTION
#---- -----  --------                                  -----------------------
DEPT .M                                                :DEPTH (BOREHOLE) {F10.4}
DEPT .M                                                : {F13.4}
BIT  .IN                                               : {F13.4}
GR   .GAPI                                             : {F13.4}
M2R1 .OHMM                                             : {F13.4}
M2R2 .OHMM                                             : {F13.4}
M2R3 .OHMM                                             : {F13.4}
M2R6 .OHMM                                             : {F13.4}
M2R9 .OHMM                                             : {F13.4}
M2RX .OHMM                                             : {F13.4}
SPD  .M/MN                                             : {F13.4}
TEN  .LBF                                              : {F13.4}
TTEN .LBF                                              : {F13.4}
#-----------------------------------------------------------------------------
# 
#     DEPT        DEPT         BIT          GR           M2R1         M2R2         M2R3         M2R6         M2R9         M2RX         SPD          TEN          TTEN
#
~A  
# ...
 5205.2220    5205.2220       8.5000      67.0729       2.5347       3.6464       4.4120       4.7892       4.8330       4.8903       4.8510      26.5169    7674.5949
 5205.0696    5205.0696       8.5000      66.8651       2.6513       3.7754       4.5683       4.9619       5.0050       5.0643       4.8281      -2.7073    7645.5989
 5204.9172    5204.9172       8.5000      67.4415       2.8358       3.9773       4.8081       5.2301       5.2754       5.3388       4.8066     -54.7400    7592.9416
 5204.7648    5204.7648       8.5000      67.8696       3.1203       4.3068       5.1980       5.6672       5.7190       5.7895       4.7917     -83.6471    7562.6348
 5204.6124    5204.6124       8.5000      67.3850       3.4730       4.7289       5.6940       6.2242       6.2868       6.3672       4.7918     -76.7825    7567.9658
 5204.4600    5204.4600       8.5000      66.3469       3.6687       4.9467       5.9387       6.5083       6.5826       6.6707       4.8099     -54.3637    7589.2109
 5204.3076    5204.3076       8.5000      66.1236       3.5196       4.7193       5.6495       6.2000       6.2812       6.3694       4.8364     -43.5976    7599.1367
 5204.1552    5204.1552       8.5000      67.0737       3.2022       4.2828       5.1033       5.6083       5.6919       5.7761       4.8494     -56.5993    7585.2162
 5204.0028    5204.0028       8.5000      67.9330       2.9850       3.9922       4.7306       5.2005       5.2873       5.3696       4.8426     -80.3917    7560.0653
 5203.8504    5203.8504       8.5000      68.1086       2.9212       3.9093       4.6059       5.0614       5.1544       5.2390       4.8320     -89.7835    7548.9213
 5203.6980    5203.6980       8.5000      68.1709       2.9222       3.9061       4.5776       5.0257       5.1259       5.2142       4.8305     -72.8835    7564.1505
 5203.5456    5203.5456       8.5000      67.9728       2.8867       3.8433       4.4847       4.9192       5.0245       5.1154       4.8492     -43.6968    7592.2052
 5203.3932    5203.3932       8.5000      67.9153       2.7990       3.7077       4.3146       4.7292       4.8374       4.9289       4.8964     -28.6470    7606.6059
 5203.2408    5203.2408       8.5000      68.4040       2.7178       3.5888       4.1726       4.5722       4.6839       4.7762       4.9498     -26.0645    7608.6925
 5203.0884    5203.0884       8.5000      68.7364       2.6914       3.5550       4.1350       4.5309       4.6491       4.7440       4.9740     -18.6718    7615.6829
 5202.9360    5202.9360       8.5000      68.0618       2.7161       3.5983       4.1893       4.5907       4.7183       4.8176       4.9662     -10.1749    7623.9512
 5202.7836    5202.7836       8.5000      66.7787       2.7629       3.6731       4.2787       4.6887       4.8270       4.9309       4.9513     -18.3608    7615.5608
 5202.6312    5202.6312       8.5000      65.5724       2.8012       3.7318       4.3466       4.7624       4.9103       5.0176       4.9508     -35.5188    7597.9296
 5202.4788    5202.4788       8.5000      64.9750       2.8118       3.7495       4.3664       4.7827       4.9369       5.0456       4.9564     -39.2203    7593.5037
 5202.3264    5202.3264       8.5000      65.0313       2.7966       3.7376       4.3553       4.7692       4.9261       5.0345       4.9519     -36.0175    7595.9875
 5202.1740    5202.1740       8.5000      65.1915       2.7746       3.7261       4.3492       4.7610       4.9177       5.0251       4.9640     -45.1374    7586.1555
 5202.0216    5202.0216       8.5000      65.1304       2.7645       3.7302       4.3626       4.7742       4.9278       5.0342       5.0294     -54.9742    7575.4297
 5201.8692    5201.8691       8.5000      65.1551       2.7746       3.7414       4.3794       4.7902       4.9370       5.0423       5.0703     -49.9396    7579.5127
 5201.7168    5201.7168       8.5000      65.0025       2.8077       3.7481       4.3830       4.7899       4.9261       5.0300       5.0256     -51.4289    7577.1680
 5201.5644    5201.5645       8.5000      64.4887       2.8914       3.7910       4.4217       4.8251       4.9489       5.0530       4.9653     -85.3475    7542.1172
 5201.4120    5201.4120       8.5000      64.2399       3.1176       4.0067       4.6572       5.0716       5.1864       5.2961       4.9611    -126.4224    7499.1706
 5201.2596    5201.2596       8.5000      63.4656       3.5914       4.5435       5.2621       5.7160       5.8286       5.9540       4.9760    -136.2683    7486.9338
 5201.1072    5201.1072       8.5000      61.7855       4.2868       5.3770       6.2057       6.7239       6.8393       6.9907       4.9756    -111.6562    7509.3267
 5200.9548    5200.9548       8.5000      61.0304       4.9050       6.1311       7.0497       7.6224       7.7392       7.9169       4.9693     -81.4996    7537.8463
 5200.8024    5200.8024       8.5000      62.5907       5.1096       6.3779       7.3072       7.8923       8.0057       8.1974       4.9614     -65.5834    7552.5348
 5200.6500    5200.6500       8.5000      64.7872       4.9523       6.1605       7.0345       7.5987       7.7074       7.9002       4.9727     -72.7026    7544.2251
 5200.4976    5200.4976       8.5000      65.4331       4.7401       5.8539       6.6616       7.2027       7.3107       7.5013       5.0118     -94.5890    7520.8964
 5200.3452    5200.3452       8.5000      63.7639       4.6707       5.7159       6.4828       7.0193       7.1331       7.3261       5.0462    -106.0588    7507.7092
 5200.1928    5200.1928       8.5000      60.5859       4.7879       5.8092       6.5659       7.1197       7.2461       7.4485       5.0456     -91.4186    7520.6338
 5200.0404    5200.0404       8.5000      57.7378       5.0119       6.0492       6.8134       7.3958       7.5383       7.7542       5.0248     -62.6704    7548.0899
 5199.8880    5199.8880       8.5000      56.6390       5.1295       6.1923       6.9539       7.5525       7.7080       7.9327       5.0051     -44.4178    7565.5236
 5199.7356    5199.7356       8.5000      56.8749       5.0050       6.0834       6.8192       7.4078       7.5679       7.7912       4.9861     -40.3759    7568.9228
 5199.5832    5199.5832       8.5000      57.0500       4.6950       5.7780       6.4746       7.0334       7.1906       7.4042       4.9728     -39.0509    7569.5926
 5199.4308    5199.4308       8.5000      57.2690       4.3054       5.3777       6.0318       6.5521       6.7019       6.9016       4.9752     -38.1682    7569.7953
 5199.2784    5199.2784       8.5000      58.4200       3.9349       4.9825       5.5990       6.0819       6.2234       6.4091       4.9886     -39.0679    7568.1774
 5199.1260    5199.1260       8.5000      60.3505       3.6625       4.6872       5.2791       5.7349       5.8707       6.0460       4.9950     -32.1893    7574.3926
 5198.9736    5198.9736       8.5000      61.5502       3.5223       4.5423       5.1278       5.5716       5.7062       5.8771       4.9898     -22.2037    7583.9307
 5198.8212    5198.8212       8.5000      61.4605       3.4933       4.5313       5.1287       5.5747       5.7127       5.8847       4.9810     -30.7390    7574.9745
 5198.6688    5198.6688       8.5000      61.1777       3.4958       4.5616       5.1815       5.6369       5.7809       5.9569       4.9725     -53.8395    7551.0886
 5198.5164    5198.5164       8.5000      61.4627       3.4551       4.5459       5.1919       5.6576       5.8080       5.9877       4.9660     -61.9348    7541.8583
 5198.3640    5198.3640       8.5000      62.3028       3.3778       4.5033       5.1863       5.6676       5.8255       6.0100       4.9621     -49.7006    7552.9978
 5198.2116    5198.2116       8.5000      63.6122       3.3142       4.5108       5.2576       5.7708       5.9409       6.1347       4.9617     -31.4735    7570.4256
 5198.0592    5198.0592       8.5000      64.7148       3.3017       4.6248       5.4755       6.0469       6.2366       6.4477       4.9721      -6.0190    7595.5359
