~VERSION INFORMATION
VERS.           2.0   :CWLS Log ASCII Standard - VERSION 2.0
WRAP.           YES   :Multiple lines per depth step
PROD.  Schlumberger   :LAS Producer
PROG.  DLIS to ASCII 2.3                               :LAS Program name and version
CREA.        2023/07/14 00:15                          :LAS Creation date {YYYY/MM/DD hh:mm}
DLIS_CREA.  2023-Jul-14 00:11                          :DLIS Creation date and time {YYYY-MMM-DD hh:mm}
SOURCE.     LIS_013.dlis                               :DLIS File Name
FILE-ID.     LIS   .002                                :File Identification Number
#--------------------------------------------------
~WELL INFORMATION
#MNEM.UNIT      DATA             DESCRIPTION
#---- ------ --------------   -----------------------------
STRT .M      5299.5576       :START DEPTH     
STOP .M      4241.4444       :STOP DEPTH     
STEP .M        -0.1524       :STEP     
NULL .          -999.25      :NULL VALUE
COMP .        PETROBRAS S.A.                           :COMPANY
WELL .        3-BRSA-293D-SPS                          :WELL
FLD  .        BS-400                                   :FIELD
LOC  .        BASE SAD 69:                             :LOCATION
CNTY .        SANTOS                                   :COUNTY
STAT .        BRASIL                                   :STATE
CTRY .        BRASIL                                   :COUNTRY
API  .                                                 :API NUMBER
UWI  .                                                 :UNIQUE WELL ID
DATE .        15/11/2004                               :LOG DATE
SRVC .        Schlumberger                             :SERVICE COMPANY
LATI .DEG                                              :LATITUDE
LONG .DEG                                              :LONGITUDE
GDAT .                                                 :GeoDetic Datum
#-----------------------------------------------------------------------------
~PARAMETER INFORMATION
#MNEM.UNIT    VALUE                      DESCRIPTION
#---- -----   --------------------       ------------------------
APD  .M               24                 :
BHT  .DEGF           260                 :
BLI  .M             5289                 :
BS   .IN         8.50000                 :
CN   .        PETROBRAS S.A.             :
COUN .        SANTOS                     :
CS   .IN         9.62500                 :
DATE .        15/11/2004                 :
DFD  .LB/G      12.30000                 :
DFL  .C3               2                 :
DFPH .        N/A                        :
DFT  .        SINTETICO                  :
DFV  .S               95                 :
DMF  .        MESA ROTATIVA              :
EDF  .M               24                 :
EGL  .M             -500                 :
EKB  .        N/A                        :
ENGI .        HERNANDEZ / LOCK           :
FL1  .        X   7292392.00 M LAT 24 28 47.189 S :
FL2  .        Y    584087.00 M LON 44 10 12.698 W :
FL3  .        MC  45 GRAUS               :
FN   .        BS-400                     :
LMF  .        MESA ROTATIVA              :
LUL  .        MACAE                      :
MCSS .        PRENSA                     :
MCST .DEGF            80                 :
MFSS .        PRENSA                     :
MFST .DEGF            80                 :
MSS  .        LINHA DE FLUXO             :
MST  .DEGF            80                 :
PDAT .        NIVEL DO MAR               :
R1   .        01. APRESENTAÇÃO DE ACORDO COM REQUERIMENTO DO CLIENTE :
R2   .        02. TEMPERATURA MÁXIMA DO POÇO T1=T2= 292 DEGF @  5277 M :
R3   .        03. INICIO DA CIRCULAÇÃO  12/11/2004 09 00 H :
R4   .        04. FINAL DA CIRCULAÇÃO   12/11/2004 18 00 H :
R5   .        05. TEMPO TOTAL DE CIRCULAÇÃO   09 00 H :
R6   .        06. FLUIDO DE PERFURAÇÃO  SINTETICO (BR-MUL  BR-MI)  60% TEOR DO OLEO :
R7   .        07. SALINIDADE DA LAMA  254762 PPM NACL NA FASE DE AGUA :
R8   .        08. INCLINAÇÃO MÁXIMA DO POÇO  37.37 GRAUS @ 5100 M :
R9   .        09. PRIMEIRAS E ULTIMAS LEITURAS  :
RMB  .OHMM    > 10                       :
RMCS .OHMM    > 10                       :
RMFS .OHMM    > 10                       :
RMS  .OHMM    >10                        :
RUN  .                 2                 :
STAT .        BRASIL                     :
TCS  .        18 00 H                    :
TDD  .M             5288                 :
TDL  .M             5293                 :
TLAB .        N/A                        :
TLI  .M             4277                 :
WITN .        ERNANI / ZE MARIA          :
WN   .        3-BRSA-293D-SPS            :
LUN  .              8808                 :
HIDE .        3-SPS-41D                  :
HID2 .        COMPENSATED Z-DENSILOG     :
HID3 .        COMPENSATED NEUTRON LOG    :
HID4 .        GAMMA RAY LOG              :
HID5 .        TTRM SUB                   :
CLAB .        BACIA                      :
SLAB .        PAIS                       :
CMT1 .        ESC  1 1000                :
CMT2 .        PROF. MEDIDA               :
CMT4 .        SONDA  SS-43               :
HDAT .        SAD 69                     :
FL   .        BASE SAD 69                :
OS1  .        RCI/GR                     :
OS2  .        CHECK SHOT                 :
OS3  .        GR/XMAC/HDIL               :
OS5  .        RCOR/GR                    :
LNAM .        ZDL/CN/XMAC/HDIL/EARTH IMAGER/RCI/RCOR/CHECK SHOT/GR :
TOOL .        ZDL/CN/XMAC/HDIL/EARTH IMAGER/RCI/RCOR/CHECK SHOT/GR :
LSOU .        PETROBRAS                  :
LSRV .        OH WIRELINE                :
LTYP .        RAW                        :
EPD  .M                0                 :
LDAT .        15/11/2004                 :
TRIP .                 4                 :
SON  .            786588                 :
CBDR .M             4277                 :
CBLO .        NR                         :
CBL1 .        NR                         :
STEM .DEGF    N/A                        :
BSAL .            254762                 :
BARI .        OFF                        :
DLAB .        12/11/2004                 :
MRT  .DEGF           292                 :
TSTR .        ZDL/CN/GR/TTRM             :
TSTG .        N/A                        :
STUS .        FINAL                      :
LCNM .        BAKER ATLAS                :
LCC  .               150                 :
NATI .        BRASIL                     :
OPMD .        OH.WIRELINE                :
PANA .        HERNANDEZ / LOCK           :
PCON .        BAKER ATLAS                :
R11  .        GR     5268.3 M / 4277.0 M :
R12  .        CN     5286.5 M / 5128.0 M (FERRAMENTA PERDEU LEITURA ACIMA DE 5128M) :
R13  .        ZDL    5292.0 M / 4277.0 M :
R15  .        10. PONTO FRACO UTILIZADO  10K :
R17  .        12. COORDENADAS BASE       :
R19  .        X   7292512.00 M           :
R21  .        MC  45 GRAUS               :
R23  .        13. CADASTRO ANP  86316021017 :
PVER .           4.10000                 :
WDFN .        /space/expusr/3-SPS-41D_RUN2/i77bf04_8spf.xtf :
OCT  .        i77bf                      :
OS4  .        EARTH IMAGER               :
R16  .        11. DECLINAÇÃO MAGNETICA  -20.9 GRAUS :
R20  .        Y    583936.00 M           :
#-----------------------------------------------------------------------------
~CURVE INFORMATION
#MNEM.UNIT   API CODE                                  DESCRIPTION
#---- -----  --------                                  -----------------------
DEPT .M                                                :DEPTH (BOREHOLE) {F10.4}
DEPT .M                                                : {F13.4}
BIT  .IN                                               : {F13.4}
DEPM .M                                                : {F13.4}
GR   .GAPI                                             : {F13.4}
SPD  .M/MN                                             : {F13.4}
TTEN .LBF                                              : {F13.4}
CAL  .IN                                               : {F13.4}
CALX .IN                                               : {F13.4}
HRD1 .HZ                                               : {F13.4}
HRD2 .HZ                                               : {F13.4}
PE   .B/E                                              : {F13.4}
SFT2 .HZ                                               : {F13.4}
SOFT .HZ                                               : {F13.4}
SSD  .HZ                                               : {F13.4}
ZCOR .G/C3                                             : {F13.4}
ZDEN .G/C3                                             : {F13.4}
CNC  .PU                                               : {F13.4}
CN   .PU                                               : {F13.4}
LSN  .HZ                                               : {F13.4}
SSN  .HZ                                               : {F13.4}
CNCF .PU                                               : {F13.4}
MMRK .MN                                               : {F13.4}
#-----------------------------------------------------------------------------
# DEPT       
#     DEPT         BIT          DEPM         GR           SPD          TTEN         
#     CAL          CALX         HRD1         HRD2         PE           SFT2         
#     SOFT         SSD          ZCOR         ZDEN         CNC          CN           
#     LSN          SSN          CNCF         MMRK         
~A  
# ...
5231.2824
   5231.2824       8.5000    5230.9777      74.1878       6.7690    7405.5851
      9.1086       9.1086     590.0299     742.8432       5.3351     444.0839
    322.6760    6577.8108      -0.0274       2.6038      15.4924      16.0651
   1628.5410    3685.1668      15.4924       0.0000
5231.1300
   5231.1300       8.5000    5230.8253      72.2430       6.7718    7414.8841
      9.0964       9.0964     569.0899     770.5747       6.1850     439.3307
    299.5920    6561.4178      -0.0311       2.6021      15.2168      15.7755
   1691.3627    3791.3174      15.2168       0.0000
5230.9776
   5230.9776       8.5000    5230.6719      72.7480       6.7699    7437.6016
      9.0825       9.0825     558.0394     786.7807       6.5600     445.3176
    294.7604    6573.0837      -0.0305       2.6010      15.6718      16.2314
   1729.8366    3935.4469      15.6718       0.0000
5230.8252
   5230.8252       8.5000    5230.5195      73.2151       6.7671    7454.8730
      9.0743       9.0743     561.8083     782.3762       6.5352     452.0734
    299.8918    6588.6797      -0.0282       2.6013      16.5527      17.1254
   1733.0935    4055.1602      16.5527       0.0000
5230.6728
   5230.6729       8.5000    5230.3672      76.4300       6.7646    7449.1543
      9.0740       9.0740     563.6195     775.2468       6.5305     447.6507
    294.4169    6586.2236      -0.0274       2.6029      17.3390      17.9273
   1708.3625    4095.0361      17.3390       0.0000
5230.5204
   5230.5204       8.5000    5230.2147      82.6829       6.7531    7439.4157
      9.0767       9.0767     566.9178     772.8678       6.5063     442.8511
    290.3057    6578.5099      -0.0287       2.6033      17.5409      18.1350
   1674.9773    4039.5847      17.5409       0.0000
5230.3680
   5230.3680       8.5000    5230.0623      86.7188       6.7420    7448.8806
      9.0776       9.0776     575.5158     770.5375       6.0876     449.4850
    305.7963    6587.1184      -0.0287       2.6016      17.0948      17.6808
   1656.7687    3942.3718      17.0948       0.0000
5230.2156
   5230.2156       8.5000    5229.9099      85.9497       6.7513    7456.0526
      9.0764       9.0764     580.5353     773.9356       5.6059     457.4801
    326.0394    6617.9124      -0.0261       2.5986      16.2366      16.8041
   1680.8283    3893.9302      16.2366       0.0000
5230.0632
   5230.0632       8.5000    5229.7585      83.9396       6.7751    7423.0558
      9.0723       9.0723     580.8286     777.2481       5.4962     452.3171
    330.6031    6639.2879      -0.0239       2.5969      15.2471      15.7909
   1752.2009    3929.6628      15.2471       0.0000
5229.9108
   5229.9108       8.5000    5229.6061      83.2279       6.7853    7360.2379
      9.0654       9.0654     578.9321     773.2182       5.6848     438.4416
    320.7678    6593.0031      -0.0291       2.5988      14.4855      15.0083
   1829.3728    3996.5522      14.4855       0.0000
5229.7584
   5229.7584       8.5000    5229.4537      82.6712       6.7660    7320.8038
      9.0591       9.0591     568.2755     757.3533       5.9621     425.2806
    304.0903    6511.0499      -0.0353       2.6070      14.2326      14.7460
   1856.4989    4019.3619      14.2326       0.0000
5229.6060
   5229.6060       8.5000    5229.3013      81.7667       6.7344    7331.4061
      9.0502       9.0502     549.0138     733.5470       6.1416     420.4273
    288.0411    6498.6764      -0.0282       2.6188      14.4744      14.9875
   1820.9936    3975.4264      14.4744       0.0000
5229.4536
   5229.4536       8.5000    5229.1489      81.0708       6.7103    7379.4145
      9.0330       9.0330     542.3842     716.9343       6.1049     425.7355
    282.8773    6565.4798      -0.0138       2.6244      14.9967      15.5100
   1759.9155    3910.4679      14.9967       0.0000
5229.3012
   5229.3012       8.5000    5228.9965      81.0508       6.6976    7447.6822
      9.0152       9.0152     559.8146     720.1901       5.8105     433.2273
    293.3474    6612.8182      -0.0116       2.6186      15.5612      16.0742
   1715.2234    3882.4648      15.5612       0.0000
5229.1488
   5229.1488       8.5000    5228.8441      81.9417       6.7031    7512.2073
      9.0070       9.0070     581.8113     734.3414       5.3269     442.6450
    317.0413    6598.3418      -0.0211       2.6091      15.9104      16.4248
   1701.8842    3895.8625      15.9104       0.0000
5228.9964
   5228.9964       8.5000    5228.6917      83.3048       6.7304    7532.3327
      9.0044       9.0044     587.3957     742.9667       4.9127     456.8245
    339.3713    6541.1085      -0.0320       2.6054      15.9666      16.4803
   1705.1351    3910.1980      15.9666       0.0000
5228.8440
   5228.8440       8.5000    5228.5393      82.6821       6.7685    7490.7976
      9.0004       9.0004     579.1309     745.3436       4.8249     462.2330
    343.9741    6486.9933      -0.0385       2.6074      15.9042      16.4141
   1707.5419    3907.4825      15.9042       0.0000
5228.6916
   5228.6916       8.5000    5228.3869      79.7208       6.7964    7416.0817
      8.9971       8.9971     570.1149     746.2685       4.8861     454.2448
    336.9075    6469.6840      -0.0393       2.6108      16.0619      16.5725
   1700.5015    3910.9668      16.0619       0.9957
5228.5392
   5228.5392       8.5000    5228.2335      77.6829       6.7971    7350.4363
      8.9955       8.9955     567.4081     739.7303       4.9149     446.8529
    333.8324    6464.5317      -0.0382       2.6148      16.5046      17.0224
   1686.8453    3934.4471      16.5046       0.0000
5228.3868
   5228.3868       8.5000    5228.0821      79.1051       6.6382    7317.5987
      8.9944       8.9944     565.4686     727.5201       4.9178     444.7486
    332.8973    6439.1605      -0.0388       2.6195      17.0094      17.5354
   1670.4956    3957.7436      17.0094       0.0000
5228.2344
   5228.2344       8.5000    5227.9297      83.0852       5.9346    7303.6641
      8.9945       8.9945     558.6039     725.1365       5.0398     440.9830
    325.0228    6435.4521      -0.0374       2.6216      17.4322      17.9658
   1649.2771    3957.8936      17.4322       0.0000
5228.0820
   5228.0820       8.5000    5227.7773      87.6467       4.8219    7274.6279
      8.9964       8.9964     555.1937     736.2194       5.3118     439.0368
    316.5388    6508.9277      -0.0286       2.6182      17.5757      18.1132
   1632.1501    3933.7900      17.5757       0.0000
5227.9296
   5227.9296       8.5000    5227.6249      90.8479       4.0059    7237.7641
      8.9990       8.9990     560.1938     744.2658       5.3430     445.8157
    317.7724    6599.0446      -0.0186       2.6138      17.2713      17.8052
   1631.4344    3896.5159      17.2713       0.0000
5227.7772
   5227.7772       8.5000    5227.4715      91.2216       3.7844    7223.9579
      9.0006       9.0006     565.9261     733.6090       5.0397     460.9409
    328.6469    6630.8914      -0.0132       2.6143      16.4856      17.0065
   1652.5508    3852.5690      16.4856       0.0000
5227.6248
   5227.6248       8.5000    5227.3191      88.6525       3.7927    7228.2825
      9.0016       9.0016     568.8831     718.3996       4.8005     470.5439
    337.1269    6621.1370      -0.0120       2.6177      15.4481      15.9500
   1690.6570    3811.4422      15.4481       0.0000
5227.4724
   5227.4724       8.5000    5227.1667      85.3086       3.8077    7219.0340
      9.0030       9.0030     569.8039     711.3202       4.7432     465.2524
    332.5308    6614.3191      -0.0116       2.6198      14.7256      15.2142
   1727.3433    3800.1761      14.7256       0.0000
5227.3200
   5227.3200       8.5000    5227.0153      83.0834       3.8214    7194.2204
      9.0004       9.0004     572.6832     718.4440       5.0338     455.0518
    320.7793    6598.8503      -0.0159       2.6178      14.7097      15.1963
   1747.6594    3842.5447      14.7097       0.0000
5227.1676
   5227.1676       8.5000    5226.8629      82.5725       3.8180    7187.4618
      8.9919       8.9919     575.4077     737.7675       5.3394     449.0977
    315.7257    6553.3160      -0.0268       2.6127      15.3025      15.7952
   1741.1107    3905.3588      15.3025       0.0000
