~VERSION INFORMATION
VERS.           2.0   :CWLS Log ASCII Standard - VERSION 2.0
WRAP.           NO    :One Line per depth step
PROD.  Schlumberger   :LAS Producer
PROG.  DLIS to ASCII 2.3                               :LAS Program name and version
CREA.        2023/07/14 00:15                          :LAS Creation date {YYYY/MM/DD hh:mm}
DLIS_CREA.  2023-Jul-14 00:11                          :DLIS Creation date and time {YYYY-MMM-DD hh:mm}
SOURCE.     LIS_003.dlis                               :DLIS File Name
FILE-ID.     LIS   .003                                :File Identification Number
#--------------------------------------------------
~WELL INFORMATION
#MNEM.UNIT      DATA             DESCRIPTION
#---- ------ --------------   -----------------------------
STRT .M      5239.8168       :START DEPTH     
STOP .M      3827.6784       :STOP DEPTH     
STEP .M        -0.1524       :STEP     
NULL .          -999.25      :NULL VALUE
COMP .        PETROBRAS S.A.                           :COMPANY
WELL .        3-BRSA-293D-SPS                          :WELL
FLD  .        BS-400                                   :FIELD
LOC  .        BASE SAD 69:                             :LOCATION
CNTY .        SANTOS                                   :COUNTY
STAT .        BRASIL                                   :STATE
CTRY .        BRASIL                                   :COUNTRY
API  .                                                 :API NUMBER
UWI  .                                                 :UNIQUE WELL ID
DATE .        22/10/2004                               :LOG DATE
SRVC .        Schlumberger                             :SERVICE COMPANY
LATI .DEG                                              :LATITUDE
LONG .DEG                                              :LONGITUDE
GDAT .                                                 :GeoDetic Datum
#-----------------------------------------------------------------------------
~PARAMETER INFORMATION
#MNEM.UNIT    VALUE                      DESCRIPTION
#---- -----   --------------------       ------------------------
APD  .M               24                 :
BHT  .DEGF           260                 :
BLI  .M       5227.50000                 :
BS   .IN         8.50000                 :
CN   .        PETROBRAS S.A.             :
COUN .        SANTOS                     :
CS   .IN         9.62500                 :
DATE .        22/10/2004                 :
DFD  .LB/G      12.30000                 :
DFL  .C3               2                 :
DFPH .        N/A                        :
DFT  .        SINTETICO                  :
DFV  .S               87                 :
DMF  .        MESA ROTATIVA              :
EDF  .M               24                 :
EGL  .M             -500                 :
EKB  .        N/A                        :
ENGI .        HERNANDEZ/LOCK             :
FL1  .        X   7292392.00 M LAT 24 28 47.189 S :
FL2  .        Y    584087.00 M LON 44 10 12.698 W :
FL3  .        MC  45 GRAUS               :
FN   .        BS-400                     :
LMF  .        MESA ROTATIVA              :
LUL  .        MACAE                      :
MCSS .        PRENSA                     :
MCST .DEGF            80                 :
MFSS .        PRENSA                     :
MFST .DEGF            80                 :
MSS  .        LINHA DE FLUXO             :
MST  .DEGF            80                 :
PDAT .        NIVEL DO MAR               :
R1   .        01. APRESENTAÇÃO DE ACORDO COM REQUERIMENTO DO CLIENTE :
R2   .        02. TEMPERATURA MÁXIMA DO POÇO T1=T2= 260 DEGF @  5180 M :
R3   .        03. INICIO DA CIRCULAÇÃO  13 45 H 21/10/2004 :
R4   .        04. FINAL DA CIRCULAÇÃO   16 00 H 21/10/2004 :
R5   .        05. TEMPO TOTAL DE CIRCULAÇÃO  02 15 H :
R6   .        06. FLUIDO DE PERFURAÇÃO  SINTETICO (BR-MUL  BR-MI)  65% TEOR DO OLEO :
R7   .        07. SALINIDADE DA LAMA  266377 PPM NACL NA FASE DE AGUA :
R8   .        08. INCLINAÇÃO MÁXIMA DO POÇO  37.37 GRAUS @ 5100 M :
R9   .        09. PRIMEIRAS E ULTIMAS LEITURAS  :
RMB  .OHMM    > 10                       :
RMCS .OHMM    > 10                       :
RMFS .OHMM    > 10                       :
RMS  .OHMM    > 10                       :
RUN  .                 1                 :
STAT .        BRASIL                     :
TCS  .        16 00 H                    :
TDD  .M             5230                 :
TDL  .M             5231                 :
TLAB .        N/A                        :
TLI  .M             3850                 :
WITN .        ALCIDIO/VLADIMIR           :
WN   .        3-BRSA-293D-SPS            :
LUN  .              8808                 :
HIDE .        3-SPS-41D                  :
HID2 .        HIGH DEFINITION INDUCTION LOG :
HID3 .        X-MULTIPOLE ARRAY ACOUSTILOG :
HID4 .        GAMMA RAY LOG              :
HID5 .        TTRM SUB                   :
CLAB .        BACIA                      :
SLAB .        PAIS                       :
CMT1 .        ESC  1 1000                :
CMT2 .        PROF. MEDIDA               :
CMT4 .        SONDA  SS-43               :
HDAT .        SAD 69                     :
FL   .        BASE SAD 69                :
OS1  .        GR/CN/ZDL                  :
OS2  .        MREX/GR                    :
OS3  .        RCI/GR                     :
0S4  .        3DEX/GR                    :
OS5  .        SL/GR                      :
LNAM .        MREX/ZDL/CN/XMAC/HDIL/RCI/3DEX/SL/GR :
TOOL .        MREX/ZDL/CN/XMAC/HDIL/RCI/3DEX/SL/GR :
LSOU .        PETROBRAS                  :
LSRV .        OH WIRELINE                :
LTYP .        RAW                        :
EPD  .M                0                 :
LDAT .        22/10/2004                 :
TRIP .                 1                 :
SON  .            772317                 :
CBDR .M             4277                 :
CBLO .M             4277                 :
CBL1 .M             4277                 :
STEM .DEGF    N/A                        :
BSAL .            266377                 :
BARI .        OFF                        :
DLAB .        21/10/2004                 :
MRT  .DEGF           260                 :
TSTR .        HDIL/XMAC/GR/TTRM          :
TSTG .        N/A                        :
STUS .        FINAL                      :
LCNM .        BAKER ATLAS                :
LCC  .               150                 :
NATI .        BRASIL                     :
OPMD .        OH.WIRELINE                :
PANA .        HERNANDEZ/LOCK             :
PCON .        BAKER ATLAS                :
R11  .        SL     5196.0 M/4960.0 M   :
R12  .        GR     4960.0 M/4277.0 M   :
R13  .        XMAC   5202.0 M/3850.0 M   :
R14  .        HDIL   5227.5 M/4277.0 M   :
R15  .        3DEX   5217.0 M/4960.0 M   :
R17  .        10. PONTO FRACO UTILIZADO  10K :
R18  .        11. DECLINAÇÃO MAGNETICA  -20.9 GRAUS :
R19  .        12. COORDENADAS ARATU      :
R21  .        X   7292512.00 M           :
R22  .        Y    583936.00 M           :
R23  .        MC  45 GRAUS               :
R25  .        13. CADASTRO ANP  86316021017 :
PVER .           4.10000                 :
WDFN .        /space/expusr/3-SPS-41D/i77bf03_2spf.xtf :
OCT  .        i77bf                      :
#-----------------------------------------------------------------------------
~CURVE INFORMATION
#MNEM.UNIT   API CODE                                  DESCRIPTION
#---- -----  --------                                  -----------------------
DEPT .M                                                :DEPTH (BOREHOLE) {F10.4}
DEPT .M                                                : {F13.4}
DT   .US/F                                             : {F13.4}
SFN1 .US                                               : {F13.4}
SFN2 .US                                               : {F13.4}
SFN3 .US                                               : {F13.4}
SFN4 .US                                               : {F13.4}
TT   .MS                                               : {F13.4}
#-----------------------------------------------------------------------------
# 
#     DEPT        DEPT         DT           SFN1         SFN2         SFN3         SFN4         TT
#
~A  
# ...
 4758.2328    4758.2328      68.1124     688.0006     721.8747     759.3672     790.7497     101.0303
 4758.0804    4758.0804      68.1482     688.0000     721.5008     759.9987     793.2447     101.0644
 4757.9280    4757.9280      68.0960     690.1213     722.2487     760.0000     792.7509     101.0984
 4757.7756    4757.7756      68.1597     689.8753     723.8728     759.6255     792.5003     101.1325
 4757.6232    4757.6232      68.3965     689.8750     723.9999     760.3742     792.3751     101.1667
 4757.4708    4757.4708      68.6618     690.6245     724.8744     319.1557     794.4986     101.2011
 4757.3184    4757.3184      68.6951     695.3750     726.1250     760.7500     794.6250     101.2354
 4757.1660    4757.1660      68.4096     696.0000     728.0000     761.7500     796.1250     101.2696
 4757.0136    4757.0136      68.0293     696.0014     729.1262     764.6265     795.5019     101.3037
 4756.8612    4756.8612      67.9126     698.8726     731.7475     767.8730     799.6239     101.3376
 4756.7088    4756.7088      68.2861     696.0011     728.7491     765.5015     798.3761     101.3718
 4756.5564    4756.5564      69.0528     696.8766     728.0053     766.7520     799.2512     101.4063
 4756.4040    4756.4040      69.8256     697.8886     731.3777     768.0022     800.0024     101.4412
 4756.2516    4756.2516      70.1500     704.8465     732.7444     769.1204     801.2449     101.4761
 4756.0992    4756.0992      69.8936     705.8713     740.2221     772.1138     805.8578     101.5111
 4755.9468    4755.9468      69.2901     708.9895     739.3779     775.9870     806.4979     101.5457
 4755.7944    4755.7944      68.7785     711.7418     743.9862     779.6142     813.8530     101.5801
 4755.6420    4755.6420      68.7477     711.8747     739.2624     776.0095     809.8855     101.6145
 4755.4896    4755.4896      69.1872     711.6256     739.3747     778.2449     808.8772     101.6491
 4755.3372    4755.3372      69.7533     711.9993     739.3750     778.2500     812.1189     101.6840
 4755.1848    4755.1848      70.0960     709.5038     739.0006     778.1252     812.1250     101.7190
 4755.0324    4755.0324      70.1180     711.9972     744.9932     778.2499     812.1250     101.7541
 4754.8800    4754.8800      69.9431     712.0000     744.0008     780.7481     812.7495     101.7891
 4754.7276    4754.7276      69.7575     712.0000     744.0000     783.4989     814.2494     101.8240
 4754.5752    4754.5752      69.6639     712.2500     744.0000     783.1250     817.3750     101.8588
 4754.4228    4754.4229      69.5970     717.1250     746.6250     784.0000     817.1250     101.8936
 4754.2704    4754.2704      69.5014     718.0012     749.7497     784.0017     816.0002     101.9284
 4754.1180    4754.1180      69.3656     719.7483     749.3778     786.3745     816.2542     101.9631
 4753.9656    4753.9656      69.1519     718.1194     751.9958     785.8768     820.1236     101.9977
 4753.8132    4753.8132      68.8429     714.2484     749.1218     787.1221     819.1291     102.0321
 4753.6608    4753.6608      68.4808     713.3758     747.3685     785.4967     821.3671     102.0664
 4753.5084    4753.5084      68.1621     713.7486     744.3865     784.0057     817.7639     102.1003
 4753.3560    4753.3560      68.0045     712.8781     744.4996     783.3772     816.0061     102.1343
 4753.2036    4753.2036      68.1005     714.6195     745.6215     783.2504     815.3769     102.1684
 4753.0512    4753.0512      68.3544     716.3702     747.2455     783.6240     815.1257     102.2025
 4752.8988    4752.8988      68.5093     712.0104     749.6193     784.4979     815.9979     102.2368
 4752.7464    4752.7464      68.3561     709.8793     744.0113     786.4960     818.8692     102.2710
 4752.5940    4752.5940      67.9111     708.2527     743.7504     784.0041     821.3709     102.3050
 4752.4416    4752.4416      67.4835     705.0041     738.5067     780.0051     816.0068     102.3387
 4752.2892    4752.2892      67.4396     704.6253     737.2511     776.0036     810.5050     102.3725
 4752.1368    4752.1368      67.8303     704.0003     736.6253     776.0000     808.0013     102.4064
 4751.9844    4751.9844      68.3591     704.0000     736.0000     776.0000     808.0000     102.4406
 4751.8320    4751.8320      68.7092     704.0000     737.2500     776.0000     808.0000     102.4749
 4751.6796    4751.6796      68.8301     704.0000     737.1251     775.9997     808.0000     102.5094
 4751.5272    4751.5272      68.9426     703.9967     737.2488     775.5000     808.0000     102.5439
 4751.3748    4751.3748      69.2780     700.5010     736.0000     775.4993     808.0000     102.5785
 4751.2224    4751.2224      69.8399     701.2527     736.0000     774.9931     807.9977     102.6134
 4751.0700    4751.0700      70.4138     702.8773     736.0000     770.8811     806.6278     102.6487
 4750.9176    4750.9176      70.7637     703.9955     736.0000     773.8631     807.9945     102.6838
 4750.7652    4750.7652      70.7761     704.0000     736.0000     774.2486     808.0000     102.7192
 4750.6128    4750.6128      70.4434     708.3608     741.3575     775.9943     808.4984     102.7545
 4750.4604    4750.4604      69.8815     707.5025     741.0011     776.0000     808.5000     102.7894
 4750.3080    4750.3080      69.2741     708.4975     741.8728     776.9975     810.2456     102.8241
 4750.1556    4750.1556      68.8078     709.4979     742.7481     777.1247     812.2457     102.8585
 4750.0032    4750.0032      68.6110     708.6266     741.7518     777.3746     811.1270     102.8928
 4749.8508    4749.8508      68.6808     710.8718     740.1273     776.6261     810.8754     102.9272
 4749.6984    4749.6984      68.9077     711.8740     743.2468     776.9996     811.7491     102.9616
 4749.5460    4749.5460      69.1542     711.9999     743.9995     777.6246     810.8756     102.9962
 4749.3936    4749.3936      69.3135     712.0000     747.2500     783.3750     812.6250     103.0309
 4749.2412    4749.2412      69.3299     712.0000     744.0000     784.0000     816.0000     103.0656
 4749.0888    4749.0888      69.1735     712.1267     744.2510     782.7504     817.2494     103.1002
 4748.9364    4748.9364      68.8016     715.8731     746.6271     783.7502     816.0001     103.1346
 4748.7840    4748.7840      68.2085     713.5001     749.2476     784.0007     816.1249     103.1687
 4748.6316    4748.6316      67.5246     713.6217     747.2459     784.6233     816.0002     103.2025
 4748.4792    4748.4792      67.0007     711.4874     744.6176     783.4914     816.1193     103.2360
 4748.3268    4748.3268      66.8819     704.9021     740.7659     779.0184     813.1373     103.2692
 4748.1744    4748.1744      67.2649     704.5014     738.2594     776.6339     812.0042     103.3029
 4748.0220    4748.0220      68.0172     704.0017     736.6305     776.0021     809.2593     103.3369
 4747.8696    4747.8696      68.8489     704.0000     736.6250     776.0000     809.2500     103.3713
 4747.7172    4747.7172      69.4723     705.9947     738.4950     776.0000     811.6187     103.4061
 4747.5648    4747.5648      69.6967     709.2426     741.9920     777.3719     812.6227     103.4409
 4747.4124    4747.4124      69.5239     711.6205     743.7467     780.7436     813.8726     103.4757
 4747.2600    4747.2600      69.1341     711.9994     743.9996     781.3740     815.1231     103.5103
 4747.1076    4747.1076      68.7493     711.5006     743.6254     781.7496     815.3747     103.5447
 4746.9552    4746.9552      68.5087     710.7506     743.9997     781.0006     815.3750     103.5790
 4746.8028    4746.8028      68.4015     711.6246     744.0000     782.8742     815.9997     103.6132
 4746.6504    4746.6504      68.3251     712.0000     744.0000     781.6250     816.0000     103.6473
 4746.4980    4746.4980      68.1981     712.0000     744.0000     781.2500     815.7500     103.6814
 4746.3456    4746.3456      68.0048     711.7500     744.0000     782.1253     815.1246     103.7155
