~VERSION INFORMATION
VERS.           2.0   :CWLS Log ASCII Standard - VERSION 2.0
WRAP.           NO    :One Line per depth step
PROD.  Schlumberger   :LAS Producer
PROG.  DLIS to ASCII 2.3                               :LAS Program name and version
CREA.        2023/07/14 00:15                          :LAS Creation date {YYYY/MM/DD hh:mm}
DLIS_CREA.  2023-Jul-14 00:11                          :DLIS Creation date and time {YYYY-MMM-DD hh:mm}
SOURCE.     LIS_010.dlis                               :DLIS File Name
FILE-ID.     LIS   .003                                :File Identification Number
#--------------------------------------------------
~WELL INFORMATION
#MNEM.UNIT      DATA             DESCRIPTION
#---- ------ --------------   -----------------------------
STRT .M      5284.9272       :START DEPTH     
STOP .M      4939.1316       :STOP DEPTH     
STEP .M        -0.1524       :STEP     
NULL .          -999.25      :NULL VALUE
COMP .        PETROBRAS S.A.                           :COMPANY
WELL .        3-BRSA-293D-SPS                          :WELL
FLD  .        BS-400                                   :FIELD
LOC  .        BASE SAD 69:                             :LOCATION
CNTY .        SANTOS                                   :COUNTY
STAT .        BRASIL                                   :STATE
CTRY .        BRASIL                                   :COUNTRY
API  .                                                 :API NUMBER
UWI  .                                                 :UNIQUE WELL ID
DATE .        15/11/2004                               :LOG DATE
SRVC .        Schlumberger                             :SERVICE COMPANY
LATI .DEG                                              :LATITUDE
LONG .DEG                                              :LONGITUDE
GDAT .                                                 :GeoDetic Datum
#-----------------------------------------------------------------------------
~PARAMETER INFORMATION
#MNEM.UNIT    VALUE                      DESCRIPTION
#---- -----   --------------------       ------------------------
APD  .M               24                 :
BHT  .DEGF           260                 :
BLI  .M             5289                 :
BS   .IN         8.50000                 :
CN   .        PETROBRAS S.A.             :
COUN .        SANTOS                     :
CS   .IN         9.62500                 :
DATE .        15/11/2004                 :
DFD  .LB/G      12.30000                 :
DFL  .C3               2                 :
DFPH .        N/A                        :
DFT  .        SINTETICO                  :
DFV  .S               95                 :
DMF  .        MESA ROTATIVA              :
EDF  .M               24                 :
EGL  .M             -500                 :
EKB  .        N/A                        :
ENGI .        HERNANDEZ / LOCK           :
FL1  .        X   7292392.00 M LAT 24 28 47.189 S :
FL2  .        Y    584087.00 M LON 44 10 12.698 W :
FL3  .        MC  45 GRAUS               :
FN   .        BS-400                     :
LMF  .        MESA ROTATIVA              :
LUL  .        MACAE                      :
MCSS .        PRENSA                     :
MCST .DEGF            80                 :
MFSS .        PRENSA                     :
MFST .DEGF            80                 :
MSS  .        LINHA DE FLUXO             :
MST  .DEGF            80                 :
PDAT .        NIVEL DO MAR               :
R1   .        01. APRESENTAÇÃO DE ACORDO COM REQUERIMENTO DO CLIENTE :
R2   .        02. TEMPERATURA MÁXIMA DO POÇO T1=T2= 290 DEGF @  5275 M :
R3   .        03. INICIO DA CIRCULAÇÃO  12/11/2004 09 00 H :
R4   .        04. FINAL DA CIRCULAÇÃO   12/11/2004 18 00 H :
R5   .        05. TEMPO TOTAL DE CIRCULAÇÃO   09 00 H :
R6   .        06. FLUIDO DE PERFURAÇÃO  SINTETICO (BR-MUL  BR-MI)  60% TEOR DO OLEO :
R7   .        07. SALINIDADE DA LAMA  254762 PPM NACL NA FASE DE AGUA :
R8   .        08. INCLINAÇÃO MÁXIMA DO POÇO  37.37 GRAUS @ 5100 M :
R9   .        09. PRIMEIRAS E ULTIMAS LEITURAS  :
RMB  .OHMM    > 10                       :
RMCS .OHMM    > 10                       :
RMFS .OHMM    > 10                       :
RMS  .OHMM    >10                        :
RUN  .                 2                 :
STAT .        BRASIL                     :
TCS  .        18 00 H                    :
TDD  .M             5288                 :
TDL  .M             5293                 :
TLAB .        N/A                        :
TLI  .M             5000                 :
WITN .        ERNANI / ZE MARIA          :
WN   .        3-BRSA-293D-SPS            :
LUN  .              8808                 :
HIDE .        3-SPS-41D                  :
HID2 .        HIGH DEFINITION INDUCTION LOG :
HID3 .        X-MULTIPOLE ARRAY ACOUSTILOG :
HID4 .        GAMMA RAY LOG              :
HID5 .        TTRM SUB                   :
CLAB .        BACIA                      :
SLAB .        PAIS                       :
CMT1 .        ESC  1 200                 :
CMT2 .        PROF. MEDIDA               :
CMT4 .        SONDA  SS-43               :
HDAT .        SAD 69                     :
FL   .        BASE SAD 69                :
OS1  .        RCI/GR                     :
OS2  .        CHECK SHOT                 :
OS3  .        GR/CN/ZDL                  :
OS5  .        RCOR/GR                    :
LNAM .        ZDL/CN/XMAC/HDIL/EARTH IMAGER/RCI/RCOR/CHECK SHOT/GR :
TOOL .        ZDL/CN/XMAC/HDIL/EARTH IMAGER/RCI/RCOR/CHECK SHOT/GR :
LSOU .        PETROBRAS                  :
LSRV .        OH WIRELINE                :
LTYP .        RAW                        :
EPD  .M                0                 :
LDAT .        15/11/2004                 :
TRIP .                 3                 :
SON  .            786588                 :
CBDR .M             4277                 :
CBLO .        NR                         :
CBL1 .        NR                         :
STEM .DEGF    N/A                        :
BSAL .            254762                 :
BARI .        OFF                        :
DLAB .        12/11/2004                 :
MRT  .DEGF           290                 :
TSTR .        HDIL/XMAC/GR/TTRM          :
TSTG .        N/A                        :
STUS .        FINAL                      :
LCNM .        BAKER ATLAS                :
LCC  .               150                 :
NATI .        BRASIL                     :
OPMD .        OH.WIRELINE                :
PANA .        HERNANDEZ / LOCK           :
PCON .        BAKER ATLAS                :
R11  .        SL     5268.3 M / 5000.0 M :
R12  .        GR     5268.3 M / 5000.0 M :
R13  .        XMAC   5279.5 M / 5000.0 M :
R14  .        HDIL   5289.0 M / 5000.0 M :
R17  .        11. DECLINAÇÃO MAGNETICA  -20.9 GRAUS :
R18  .        12. COORDENADAS BASE       :
R21  .        Y    583936.00 M           :
R22  .        MC  45 GRAUS               :
PVER .           4.10000                 :
WDFN .        /space/expusr/3-SPS-41D_RUN2/i77bf02_2spf.xtf :
OCT  .        i77bf                      :
OS4  .        EARTH IMAGER               :
R16  .        10. PONTO FRACO UTILIZADO  10K :
R20  .        X   7292512.00 M           :
R24  .        13. CADASTRO ANP  86316021017 :
#-----------------------------------------------------------------------------
~CURVE INFORMATION
#MNEM.UNIT   API CODE                                  DESCRIPTION
#---- -----  --------                                  -----------------------
DEPT .M                                                :DEPTH (BOREHOLE) {F10.4}
DEPT .M                                                : {F13.4}
DT   .US/F                                             : {F13.4}
SFN1 .US                                               : {F13.4}
SFN2 .US                                               : {F13.4}
SFN3 .US                                               : {F13.4}
SFN4 .US                                               : {F13.4}
TT   .MS                                               : {F13.4}
#-----------------------------------------------------------------------------
# 
#     DEPT        DEPT         DT           SFN1         SFN2         SFN3         SFN4         TT
#
~A  
# ...
 5032.0956    5032.0956      68.4999     704.0000     735.9997     776.0000     808.7499      55.4575
 5031.9432    5031.9432      68.4128     704.0012     735.6267     775.9983     808.6238      55.4918
 5031.7908    5031.7908      68.6699     705.1234     737.2507     774.3773     806.9717      55.5261
 5031.6384    5031.6384      69.0562     704.0053     737.7491     776.0000     434.9145      55.5606
 5031.4860    5031.4860      69.2667     706.9873     737.2521     776.0000     807.4151      55.5951
 5031.3336    5031.3336      69.2033     706.1284     739.4913     776.0000     808.2529      55.6297
 5031.1812    5031.1812      69.0779     706.8724     738.5035     776.0000     808.0009      55.6642
 5031.0288    5031.0288      69.1850     707.8719     736.6309     776.0000     808.4984      55.6988
 5030.8764    5030.8764      69.6005     706.8778     738.4948     776.0000     808.0014      55.7337
 5030.7240    5030.7240      70.1080     711.9876     743.7373     776.0000     808.0000      55.7687
 5030.5716    5030.5716      70.4036     712.0000     744.4985     783.2352     815.7342      55.8039
 5030.4192    5030.4192      70.3400     712.1248     744.7496     783.9987     815.9996      55.8391
 5030.2668    5030.2668      69.9964     713.8727     745.9984     784.0000     817.1235      55.8741
 5030.1144    5030.1144      69.5911     713.2506     746.1249     784.0000     817.0001      55.9089
 5029.9620    5029.9620      69.3263     713.8746     745.0006     784.0000     816.5003      55.9436
 5029.8096    5029.8096      69.2971     712.8750     745.2500     783.3750     816.0000      55.9783
 5029.6572    5029.6572      69.4565     712.5000     744.5000     784.0000     816.0000      56.0130
 5029.5048    5029.5048      69.6576     716.5010     748.3749     784.0001     819.8743      56.0479
 5029.3524    5029.3524      69.7635     718.2499     748.1266     784.2498     818.6243      56.0828
 5029.2000    5029.2000      69.7070     718.1248     749.8755     784.0019     817.8750      56.1176
 5029.0476    5029.0476      69.5101     717.9945     750.2504     785.4996     817.8775      56.1524
 5028.8952    5028.8952      69.2342     714.6397     750.4989     785.2511     819.3685      56.1868
 5028.7428    5028.7428      68.9117     713.6290     747.3876     785.4990     819.8730      56.2213
 5028.5904    5028.5904      68.5838     713.8741     745.5068     785.6245     819.8750      56.2556
 5028.4380    5028.4380      68.3184     713.9996     746.8705     784.0053     816.7603      56.2898
 5028.2856    5028.2856      68.1705     712.7536     747.2489     784.4985     817.1239      56.3238
 5028.1332    5028.1332      68.1676     712.0019     745.2551     784.3753     817.3744      56.3579
 5027.9808    5027.9808      68.3361     712.0000     744.0027     784.0008     818.6223      56.3921
 5027.8284    5027.8284      68.6672     712.7486     744.3743     784.0000     816.6286      56.4265
 5027.6760    5027.6760      69.0881     712.2507     744.6246     783.5007     816.0009      56.4610
 5027.5236    5027.5236      69.4782     712.0003     744.8747     784.2492     816.9989      56.4958
 5027.3712    5027.3712      69.7153     712.0000     744.0006     784.0002     817.7495      56.5307
 5027.2188    5027.2188      69.7993     712.0000     744.0000     784.0000     816.1250      56.5656
 5027.0664    5027.0664      69.8840     712.0000     744.0000     783.3750     816.3750      56.6005
 5026.9140    5026.9140      70.1118     712.4999     744.0009     783.3753     816.1249      56.6356
 5026.7616    5026.7616      70.4915     712.2511     746.1260     784.0013     816.0011      56.6708
 5026.6092    5026.6092      70.9137     713.6259     747.3749     785.6241     817.3796      56.7063
 5026.4568    5026.4568      71.2109     714.3737     747.2502     784.8754     821.3752      56.7419
 5026.3044    5026.3044      71.2715     713.5023     747.3788     785.1285     821.4998      56.7776
 5026.1520    5026.1520      71.0861     714.7448     749.3667     786.9923     821.3755      56.8129
 5025.9996    5025.9996      70.7164     716.8670     747.5071     785.5057     821.4995      56.8483
 5025.8472    5025.8472      70.2668     716.6259     749.2440     784.0051     818.6348      56.8834
 5025.6948    5025.6948      69.8224     717.1235     750.2470     784.2492     817.7527      56.9184
 5025.5424    5025.5424      69.4239     718.3717     747.0087     784.8733     817.8747      56.9531
 5025.3900    5025.3900      69.1183     718.3750     747.8730     784.0020     816.8773      56.9877
 5025.2376    5025.2376      69.0217     718.4998     747.9998     784.0000     818.2473      57.0222
 5025.0852    5025.0852      69.2436     716.2535     748.1248     784.0000     818.7492      57.0568
 5024.9328    5024.9328      69.7586     714.5021     747.5008     784.0000     818.9997      57.0917
 5024.7804    5024.7804      70.3487     714.6249     749.8730     783.7502     819.2498      57.1269
 5024.6280    5024.6280      70.7263     717.8735     749.1253     788.7477     822.6234      57.1623
 5024.4756    5024.4756      70.7415     718.5000     750.2500     786.1250     520.0000      57.1977
 5024.3232    5024.3232      70.4368     718.0000     749.5000     788.2500     822.7500      57.2329
 5024.1708    5024.1708      70.0113     717.2506     751.1250     788.2505     822.8752      57.2679
 5024.0184    5024.0184      69.6481     718.2478     751.1242     788.9978     823.2499      57.3027
 5023.8660    5023.8660      69.3828     716.1222     750.3700     786.8738     823.1217      57.3374
 5023.7136    5023.7136      69.1834     714.1261     746.7533     785.9983     820.7513      57.3720
 5023.5612    5023.5612      69.0611     714.7473     748.6170     785.0043     821.4968      57.4064
 5023.4088    5023.4088      69.1113     712.1353     747.5044     784.6265     819.0098      57.4409
 5023.2564    5023.2564      69.4338     712.0004     744.1370     784.0022     817.6299      57.4757
 5023.1040    5023.1040      69.9889     712.0000     744.4988     784.0000     820.1171      57.5107
 5022.9516    5022.9516      70.5002     712.0000     744.6246     784.0000     817.3827      57.5459
 5022.7992    5022.7992      70.6842     712.2494     745.9966     785.4963     821.1158      57.5813
 5022.6468    5022.6468      70.6205     712.1253     744.0041     783.6289     821.0003      57.6166
 5022.4944    5022.4944      70.6793     712.0002     744.0000     783.9994     821.3744      57.6520
 5022.3420    5022.3420      71.1887     714.2470     748.2443     784.1248     819.1280      57.6876
 5022.1896    5022.1896      72.0777     712.6266     746.5017     785.9982     818.3757      57.7236
 5022.0372    5022.0372      72.8778     713.7493     747.6243     784.5009     818.8747      57.7601
 5021.8848    5021.8848      73.1744     714.8750     747.3750     784.6250     819.6250      57.7967
 5021.7324    5021.7324      72.9973     713.7500     747.1250     784.8750     820.2500      57.8332
 5021.5800    5021.5800      72.7106     713.3746     745.8749     784.6247     819.7490      57.8696
 5021.4276    5021.4276      72.5367     712.4996     745.6243     784.0000     817.8733      57.9058
 5021.2752    5021.2752      72.3919     712.0011     744.8752     783.9997     816.0000      57.9421
 5021.1228    5021.1228      72.0528     712.8756     745.0032     783.7504     816.0012      57.9781
 5020.9704    5020.9704      71.4771     713.2484     746.9912     783.9989     816.7467      58.0136
 5020.8180    5020.8180      70.8890     713.1255     747.2490     784.0000     816.7500      58.0491
 5020.6656    5020.6656      70.4490     717.2348     746.2537     784.0000     819.9880      58.0843
 5020.5132    5020.5132      69.9748     719.6171     751.7318     786.2425     820.1246      58.1193
 5020.3608    5020.3608      69.0997     719.9989     751.9993     791.2353     822.4930      58.1539
 5020.2084    5020.2084      67.7144     719.2519     752.0000     791.9981     823.9961      58.1877
