~VERSION INFORMATION
VERS.           2.0   :CWLS Log ASCII Standard - VERSION 2.0
WRAP.           NO    :One Line per depth step
PROD.  Schlumberger   :LAS Producer
PROG.  DLIS to ASCII 2.3                               :LAS Program name and version
CREA.        2023/07/14 00:15                          :LAS Creation date {YYYY/MM/DD hh:mm}
DLIS_CREA.  2023-Jul-14 00:11                          :DLIS Creation date and time {YYYY-MMM-DD hh:mm}
SOURCE.     LIS_009.dlis                               :DLIS File Name
FILE-ID.     LIS   .002                                :File Identification Number
#--------------------------------------------------
~WELL INFORMATION
#MNEM.UNIT      DATA             DESCRIPTION
#---- ------ --------------   -----------------------------
STRT .M      5301.9960       :START DEPTH     
STOP .M      5058.6132       :STOP DEPTH     
STEP .M        -0.1524       :STEP     
NULL .          -999.25      :NULL VALUE
COMP .        PETROBRAS S.A.                           :COMPANY
WELL .        3-BRSA-293D-SPS                          :WELL
FLD  .        BS-400                                   :FIELD
LOC  .        BASE SAD 69:                             :LOCATION
CNTY .        SANTOS                                   :COUNTY
STAT .        BRASIL                                   :STATE
CTRY .        BRASIL                                   :COUNTRY
API  .                                                 :API NUMBER
UWI  .                                                 :UNIQUE WELL ID
DATE .        15/11/2004                               :LOG DATE
SRVC .        Schlumberger                             :SERVICE COMPANY
LATI .DEG                                              :LATITUDE
LONG .DEG                                              :LONGITUDE
GDAT .                                                 :GeoDetic Datum
#-----------------------------------------------------------------------------
~PARAMETER INFORMATION
#MNEM.UNIT    VALUE                      DESCRIPTION
#---- -----   --------------------       ------------------------
APD  .M               24                 :
BHT  .DEGF           260                 :
BLI  .M             5289                 :
BS   .IN         8.50000                 :
CN   .        PETROBRAS S.A.             :
COUN .        SANTOS                     :
CS   .IN         9.62500                 :
DATE .        15/11/2004                 :
DFD  .LB/G      12.30000                 :
DFL  .C3               2                 :
DFPH .        N/A                        :
DFT  .        SINTETICO                  :
DFV  .S               95                 :
DMF  .        MESA ROTATIVA              :
EDF  .M               24                 :
EGL  .M             -500                 :
EKB  .        N/A                        :
ENGI .        HERNANDEZ / LOCK           :
FL1  .        X   7292392.00 M LAT 24 28 47.189 S :
FL2  .        Y    584087.00 M LON 44 10 12.698 W :
FL3  .        MC  45 GRAUS               :
FN   .        BS-400                     :
LMF  .        MESA ROTATIVA              :
LUL  .        MACAE                      :
MCSS .        PRENSA                     :
MCST .DEGF            80                 :
MFSS .        PRENSA                     :
MFST .DEGF            80                 :
MSS  .        LINHA DE FLUXO             :
MST  .DEGF            80                 :
PDAT .        NIVEL DO MAR               :
R1   .        01. APRESENTAÇÃO DE ACORDO COM REQUERIMENTO DO CLIENTE :
R2   .        02. TEMPERATURA MÁXIMA DO POÇO T1=T2= 290 DEGF @  5275 M :
R3   .        03. INICIO DA CIRCULAÇÃO  12/11/2004 09 00 H :
R4   .        04. FINAL DA CIRCULAÇÃO   12/11/2004 18 00 H :
R5   .        05. TEMPO TOTAL DE CIRCULAÇÃO   09 00 H :
R6   .        06. FLUIDO DE PERFURAÇÃO  SINTETICO (BR-MUL  BR-MI)  60% TEOR DO OLEO :
R7   .        07. SALINIDADE DA LAMA  254762 PPM NACL NA FASE DE AGUA :
R8   .        08. INCLINAÇÃO MÁXIMA DO POÇO  37.37 GRAUS @ 5100 M :
R9   .        09. PRIMEIRAS E ULTIMAS LEITURAS  :
RMB  .OHMM    > 10                       :
RMCS .OHMM    > 10                       :
RMFS .OHMM    > 10                       :
RMS  .OHMM    >10                        :
RUN  .                 2                 :
STAT .        BRASIL                     :
TCS  .        18 00 H                    :
TDD  .M             5288                 :
TDL  .M             5293                 :
TLAB .        N/A                        :
TLI  .M             5000                 :
WITN .        ERNANI / ZE MARIA          :
WN   .        3-BRSA-293D-SPS            :
LUN  .              8808                 :
HIDE .        3-SPS-41D                  :
HID2 .        HIGH DEFINITION INDUCTION LOG :
HID3 .        X-MULTIPOLE ARRAY ACOUSTILOG :
HID4 .        GAMMA RAY LOG              :
HID5 .        TTRM SUB                   :
CLAB .        BACIA                      :
SLAB .        PAIS                       :
CMT1 .        ESC  1 200                 :
CMT2 .        PROF. MEDIDA               :
CMT4 .        SONDA  SS-43               :
HDAT .        SAD 69                     :
FL   .        BASE SAD 69                :
OS1  .        RCI/GR                     :
OS2  .        CHECK SHOT                 :
OS3  .        GR/CN/ZDL                  :
OS5  .        RCOR/GR                    :
LNAM .        ZDL/CN/XMAC/HDIL/EARTH IMAGER/RCI/RCOR/CHECK SHOT/GR :
TOOL .        ZDL/CN/XMAC/HDIL/EARTH IMAGER/RCI/RCOR/CHECK SHOT/GR :
LSOU .        PETROBRAS                  :
LSRV .        OH WIRELINE                :
LTYP .        RAW                        :
EPD  .M                0                 :
LDAT .        15/11/2004                 :
TRIP .                 3                 :
SON  .            786588                 :
CBDR .M             4277                 :
CBLO .        NR                         :
CBL1 .        NR                         :
STEM .DEGF    N/A                        :
BSAL .            254762                 :
BARI .        OFF                        :
DLAB .        12/11/2004                 :
MRT  .DEGF           290                 :
TSTR .        HDIL/XMAC/GR/TTRM          :
TSTG .        N/A                        :
STUS .        FINAL                      :
LCNM .        BAKER ATLAS                :
LCC  .               150                 :
NATI .        BRASIL                     :
OPMD .        OH.WIRELINE                :
PANA .        HERNANDEZ / LOCK           :
PCON .        BAKER ATLAS                :
R11  .        SL     5268.3 M / 5000.0 M :
R12  .        GR     5268.3 M / 5000.0 M :
R13  .        XMAC   5279.5 M / 5000.0 M :
R14  .        HDIL   5289.0 M / 5000.0 M :
R17  .        11. DECLINAÇÃO MAGNETICA  -20.9 GRAUS :
R18  .        12. COORDENADAS BASE       :
R21  .        Y    583936.00 M           :
R22  .        MC  45 GRAUS               :
PVER .           4.10000                 :
WDFN .        /space/expusr/3-SPS-41D_RUN2/i77bf01_4spf.xtf :
OCT  .        i77bf                      :
OS4  .        EARTH IMAGER               :
R16  .        10. PONTO FRACO UTILIZADO  10K :
R20  .        X   7292512.00 M           :
R24  .        13. CADASTRO ANP  86316021017 :
#-----------------------------------------------------------------------------
~CURVE INFORMATION
#MNEM.UNIT   API CODE                                  DESCRIPTION
#---- -----  --------                                  -----------------------
DEPT .M                                                :DEPTH (BOREHOLE) {F10.4}
DEPT .M                                                : {F13.4}
BIT  .IN                                               : {F13.4}
GR   .GAPI                                             : {F13.4}
M2R1 .OHMM                                             : {F13.4}
M2R2 .OHMM                                             : {F13.4}
M2R3 .OHMM                                             : {F13.4}
M2R6 .OHMM                                             : {F13.4}
M2R9 .OHMM                                             : {F13.4}
M2RX .OHMM                                             : {F13.4}
SPD  .M/MN                                             : {F13.4}
TEN  .LBF                                              : {F13.4}
TTEN .LBF                                              : {F13.4}
#-----------------------------------------------------------------------------
# 
#     DEPT        DEPT         BIT          GR           M2R1         M2R2         M2R3         M2R6         M2R9         M2RX         SPD          TEN          TTEN
#
~A  
# ...
 5170.3224    5170.3224       8.5000      76.9295      25.4820      28.5905      32.1176      33.8815      33.5297      35.3451       4.6719     -65.5057    7416.2549
 5170.1700    5170.1700       8.5000      79.6202      22.8007      25.7601      28.8833      30.7528      30.2874      32.2071       4.6632     -45.0151    7435.7267
 5170.0176    5170.0176       8.5000      81.1701      19.8418      22.1384      24.5576      26.3265      25.7930      27.6185       4.6571     -31.3473    7448.6758
 5169.8652    5169.8652       8.5000      80.3808      17.5577      19.1308      20.8566      22.4414      21.8809      23.5396       4.6586     -38.1312    7441.2090
 5169.7128    5169.7128       8.5000      80.2786      16.6753      17.7745      19.0497      20.5457      19.9712      21.5424       4.6616     -52.2034    7426.2497
 5169.5604    5169.5604       8.5000      81.8206      17.0889      18.0316      19.1071      20.6653      20.0677      21.6653       4.6631     -59.5182    7417.8551
 5169.4080    5169.4080       8.5000      81.4235      16.9856      17.9445      18.9455      20.5824      19.9978      21.5704       4.6678     -57.8563    7418.3768
 5169.2556    5169.2556       8.5000      78.2502      14.2153      15.1684      16.1110      17.6534      17.2031      18.5242       4.6752     -43.7526    7431.5062
 5169.1032    5169.1032       8.5000      76.0733      10.2354      11.0889      11.9426      13.2381      12.9655      13.9325       4.6802     -27.5722    7447.0259
 5168.9508    5168.9508       8.5000      77.4146       7.5017       8.3088       9.1215      10.2402      10.0937      10.8210       4.6805     -29.4235    7444.6123
 5168.7984    5168.7984       8.5000      80.6333       6.1688       7.1095       7.9954       9.0945       9.0311       9.6590       4.6771     -45.2236    7428.0158
 5168.6460    5168.6460       8.5000      84.0169       5.3586       6.5472       7.5685       8.7157       8.7215       9.3063       4.6719     -46.4992    7425.7827
 5168.4936    5168.4936       8.5000      86.7901       4.3980       5.7453       6.8334       7.9539       8.0164       8.5384       4.6686     -24.8665    7446.7484
 5168.3412    5168.3412       8.5000      87.6506       3.4430       4.7851       5.8418       6.8556       6.9559       7.3966       4.6700      -7.9105    7463.5185
 5168.1888    5168.1888       8.5000      87.5823       2.7743       4.0405       5.0331       5.9345       6.0552       6.4282       4.6791     -17.9607    7453.3938
 5168.0364    5168.0364       8.5000      87.8581       2.3249       3.4826       4.3936       5.1877       5.3157       5.6335       4.6907     -42.7842    7428.1168
 5167.8840    5167.8840       8.5000      87.7590       1.9563       2.9637       3.7627       4.4371       4.5593       4.8231       4.6976     -48.1028    7422.0197
 5167.7316    5167.7316       8.5000      87.1870       1.6568       2.5131       3.1979       3.7594       3.8687       4.0844       4.6945     -25.7187    7443.8299
 5167.5792    5167.5792       8.5000      87.1228       1.4696       2.2290       2.8388       3.3238       3.4217       3.6045       4.6864      -8.4401    7460.9766
 5167.4268    5167.4268       8.5000      87.3155       1.3856       2.1092       2.6884       3.1338       3.2245       3.3884       4.6800     -24.7201    7444.5488
 5167.2744    5167.2744       8.5000      87.9682       1.3528       2.0742       2.6474       3.0726       3.1582       3.3095       4.6731     -51.6417    7416.9463
 5167.1220    5167.1220       8.5000      88.2507       1.3225       2.0420       2.6104       3.0173       3.0971       3.2359       4.6653     -52.5038    7415.0455
 5166.9696    5166.9696       8.5000      86.6120       1.2848       1.9890       2.5451       2.9308       3.0040       3.1288       4.6656     -32.4171    7434.2026
 5166.8172    5166.8172       8.5000      84.5106       1.2548       1.9355       2.4763       2.8425       2.9092       3.0206       4.6751      -6.8230    7459.2387
 5166.6648    5166.6648       8.5000      84.3209       1.2395       1.8961       2.4242       2.7748       2.8363       2.9355       4.6841       8.8268    7474.7528
 5166.5124    5166.5124       8.5000      85.8195       1.2366       1.8744       2.3942       2.7342       2.7920       2.8810       4.6889      -0.9380    7464.9954
 5166.3600    5166.3600       8.5000      88.1518       1.2475       1.8773       2.3960       2.7321       2.7883       2.8690       4.6856     -36.2734    7429.2959
 5166.2076    5166.2076       8.5000      89.8195       1.2714       1.9028       2.4268       2.7651       2.8216       2.8957       4.6739     -71.4903    7393.0850
 5166.0552    5166.0552       8.5000      89.2194       1.2992       1.9330       2.4639       2.8071       2.8655       2.9340       4.6679     -81.6458    7381.5641
 5165.9028    5165.9028       8.5000      87.8692       1.3214       1.9535       2.4888       2.8365       2.8979       2.9619       4.6858     -55.5186    7406.4934
 5165.7504    5165.7504       8.5000      87.5796       1.3316       1.9604       2.4980       2.8478       2.9133       2.9762       4.7157      -7.9114    7453.6084
 5165.5980    5165.5980       8.5000      87.8791       1.3315       1.9608       2.4984       2.8484       2.9181       2.9799       4.7252      19.1052    7480.7943
 5165.4456    5165.4456       8.5000      86.8863       1.3257       1.9615       2.4986       2.8469       2.9206       2.9820       4.7101       3.8152    7465.6784
 5165.2932    5165.2932       8.5000      84.7236       1.2976       1.9324       2.4588       2.7971       2.8726       2.9325       4.6927     -29.6886    7431.8354
 5165.1408    5165.1408       8.5000      82.2673       1.2386       1.8534       2.3523       2.6693       2.7435       2.8004       4.6841     -45.4146    7415.3737
 5164.9884    5164.9884       8.5000      79.0825       1.1728       1.7555       2.2191       2.5090       2.5793       2.6325       4.6783     -39.6818    7420.3487
 5164.8360    5164.8360       8.5000      75.2915       1.1189       1.6666       2.0960       2.3595       2.4251       2.4750       4.6717     -26.8785    7432.5633
 5164.6836    5164.6836       8.5000      73.7381       1.0822       1.5977       1.9979       2.2385       2.2992       2.3461       4.6658     -20.1458    7438.9004
 5164.5312    5164.5313       8.5000      75.3085       1.0748       1.5703       1.9526       2.1776       2.2344       2.2798       4.6654     -27.3518    7431.3203
 5164.3788    5164.3788       8.5000      76.8372       1.1156       1.6119       1.9937       2.2141       2.2689       2.3148       4.6705     -40.4943    7417.5914
 5164.2264    5164.2264       8.5000      77.1749       1.2127       1.7318       2.1324       2.3595       2.4148       2.4635       4.6753     -41.4969    7415.8505
 5164.0740    5164.0740       8.5000      78.1966       1.3460       1.8980       2.3298       2.5710       2.6279       2.6809       4.6764     -30.9762    7425.7335
 5163.9216    5163.9216       8.5000      80.4337       1.4687       2.0491       2.5123       2.7674       2.8256       2.8828       4.6768     -22.6331    7433.5828
 5163.7692    5163.7692       8.5000      82.2484       1.5494       2.1545       2.6446       2.9102       2.9687       3.0292       4.6775     -15.6981    7440.1244
 5163.6168    5163.6168       8.5000      82.6223       1.5797       2.2121       2.7241       2.9964       3.0542       3.1170       4.6736      -8.9845    7446.6046
 5163.4644    5163.4644       8.5000      82.3489       1.5519       2.2028       2.7244       2.9960       3.0515       3.1147       4.6653      -6.9401    7448.5513
 5163.3120    5163.3120       8.5000      82.8308       1.4842       2.1349       2.6512       2.9143       2.9656       3.0273       4.6593     -10.4669    7444.9236
 5163.1596    5163.1596       8.5000      84.8048       1.4244       2.0666       2.5729       2.8258       2.8721       2.9317       4.6585     -17.1042    7438.0190
