~VERSION INFORMATION
VERS.           2.0   :CWLS Log ASCII Standard - VERSION 2.0
WRAP.           NO    :One Line per depth step
PROD.  Schlumberger   :LAS Producer
PROG.  DLIS to ASCII 2.3                               :LAS Program name and version
CREA.        2023/07/14 00:15                          :LAS Creation date {YYYY/MM/DD hh:mm}
DLIS_CREA.  2023-Jul-14 00:11                          :DLIS Creation date and time {YYYY-MMM-DD hh:mm}
SOURCE.     LIS_008.dlis                               :DLIS File Name
FILE-ID.     LIS   .001                                :File Identification Number
#--------------------------------------------------
~WELL INFORMATION
#MNEM.UNIT      DATA             DESCRIPTION
#---- ------ --------------   -----------------------------
STRT .M      5286.4512       :START DEPTH     
STOP .M      5066.6904       :STOP DEPTH     
STEP .M        -0.1524       :STEP     
NULL .          -999.25      :NULL VALUE
COMP .        PETROBRAS S.A.                           :COMPANY
WELL .        3-BRSA-293D-SPS                          :WELL
FLD  .        BS-400                                   :FIELD
LOC  .        BASE SAD 69:                             :LOCATION
CNTY .        SANTOS                                   :COUNTY
STAT .        BRASIL                                   :STATE
CTRY .        BRASIL                                   :COUNTRY
API  .                                                 :API NUMBER
UWI  .                                                 :UNIQUE WELL ID
DATE .        15/11/2004                               :LOG DATE
SRVC .        Schlumberger                             :SERVICE COMPANY
LATI .DEG                                              :LATITUDE
LONG .DEG                                              :LONGITUDE
GDAT .                                                 :GeoDetic Datum
#-----------------------------------------------------------------------------
~PARAMETER INFORMATION
#MNEM.UNIT    VALUE                      DESCRIPTION
#---- -----   --------------------       ------------------------
APD  .M               24                 :
BHT  .DEGF           260                 :
BLI  .M             5289                 :
BS   .IN         8.50000                 :
CN   .        PETROBRAS S.A.             :
COUN .        SANTOS                     :
CS   .IN         9.62500                 :
DATE .        15/11/2004                 :
DFD  .LB/G      12.30000                 :
DFL  .C3               2                 :
DFPH .        N/A                        :
DFT  .        SINTETICO                  :
DFV  .S               95                 :
DMF  .        MESA ROTATIVA              :
EDF  .M               24                 :
EGL  .M             -500                 :
EKB  .        N/A                        :
ENGI .        HERNANDEZ / LOCK           :
FL1  .        X   7292392.00 M LAT 24 28 47.189 S :
FL2  .        Y    584087.00 M LON 44 10 12.698 W :
FL3  .        MC  45 GRAUS               :
FN   .        BS-400                     :
LMF  .        MESA ROTATIVA              :
LUL  .        MACAE                      :
MCSS .        PRENSA                     :
MCST .DEGF            80                 :
MFSS .        PRENSA                     :
MFST .DEGF            80                 :
MSS  .        LINHA DE FLUXO             :
MST  .DEGF            80                 :
PDAT .        NIVEL DO MAR               :
R1   .        01. APRESENTAÇÃO DE ACORDO COM REQUERIMENTO DO CLIENTE :
R2   .        02. TEMPERATURA MÁXIMA DO POÇO T1=T2= 290 DEGF @  5275 M :
R3   .        03. INICIO DA CIRCULAÇÃO  12/11/2004 09 00 H :
R4   .        04. FINAL DA CIRCULAÇÃO   12/11/2004 18 00 H :
R5   .        05. TEMPO TOTAL DE CIRCULAÇÃO   09 00 H :
R6   .        06. FLUIDO DE PERFURAÇÃO  SINTETICO (BR-MUL  BR-MI)  60% TEOR DO OLEO :
R7   .        07. SALINIDADE DA LAMA  254762 PPM NACL NA FASE DE AGUA :
R8   .        08. INCLINAÇÃO MÁXIMA DO POÇO  37.37 GRAUS @ 5100 M :
R9   .        09. PRIMEIRAS E ULTIMAS LEITURAS  :
RMB  .OHMM    > 10                       :
RMCS .OHMM    > 10                       :
RMFS .OHMM    > 10                       :
RMS  .OHMM    >10                        :
RUN  .                 2                 :
STAT .        BRASIL                     :
TCS  .        18 00 H                    :
TDD  .M             5288                 :
TDL  .M             5293                 :
TLAB .        N/A                        :
TLI  .M             5000                 :
WITN .        ERNANI / ZE MARIA          :
WN   .        3-BRSA-293D-SPS            :
LUN  .              8808                 :
HIDE .        3-SPS-41D                  :
HID2 .        HIGH DEFINITION INDUCTION LOG :
HID3 .        X-MULTIPOLE ARRAY ACOUSTILOG :
HID4 .        GAMMA RAY LOG              :
HID5 .        TTRM SUB                   :
CLAB .        BACIA                      :
SLAB .        PAIS                       :
CMT1 .        ESC  1 200                 :
CMT2 .        PROF. MEDIDA               :
CMT4 .        SONDA  SS-43               :
HDAT .        SAD 69                     :
FL   .        BASE SAD 69                :
OS1  .        RCI/GR                     :
OS2  .        CHECK SHOT                 :
OS3  .        GR/CN/ZDL                  :
OS5  .        RCOR/GR                    :
LNAM .        ZDL/CN/XMAC/HDIL/EARTH IMAGER/RCI/RCOR/CHECK SHOT/GR :
TOOL .        ZDL/CN/XMAC/HDIL/EARTH IMAGER/RCI/RCOR/CHECK SHOT/GR :
LSOU .        PETROBRAS                  :
LSRV .        OH WIRELINE                :
LTYP .        RAW                        :
EPD  .M                0                 :
LDAT .        15/11/2004                 :
TRIP .                 3                 :
SON  .            786588                 :
CBDR .M             4277                 :
CBLO .        NR                         :
CBL1 .        NR                         :
STEM .DEGF    N/A                        :
BSAL .            254762                 :
BARI .        OFF                        :
DLAB .        12/11/2004                 :
MRT  .DEGF           290                 :
TSTR .        HDIL/XMAC/GR/TTRM          :
TSTG .        N/A                        :
STUS .        FINAL                      :
LCNM .        BAKER ATLAS                :
LCC  .               150                 :
NATI .        BRASIL                     :
OPMD .        OH.WIRELINE                :
PANA .        HERNANDEZ / LOCK           :
PCON .        BAKER ATLAS                :
R11  .        SL     5268.3 M / 5000.0 M :
R12  .        GR     5268.3 M / 5000.0 M :
R13  .        XMAC   5279.5 M / 5000.0 M :
R14  .        HDIL   5289.0 M / 5000.0 M :
R17  .        11. DECLINAÇÃO MAGNETICA  -20.9 GRAUS :
R18  .        12. COORDENADAS BASE       :
R21  .        Y    583936.00 M           :
R22  .        MC  45 GRAUS               :
PVER .           4.10000                 :
WDFN .        /space/expusr/3-SPS-41D_RUN2/i77bf01_2spf.xtf :
OCT  .        i77bf                      :
OS4  .        EARTH IMAGER               :
R16  .        10. PONTO FRACO UTILIZADO  10K :
R20  .        X   7292512.00 M           :
R24  .        13. CADASTRO ANP  86316021017 :
#-----------------------------------------------------------------------------
~CURVE INFORMATION
#MNEM.UNIT   API CODE                                  DESCRIPTION
#---- -----  --------                                  -----------------------
DEPT .M                                                :DEPTH (BOREHOLE) {F10.4}
DEPT .M                                                : {F13.4}
DT   .US/F                                             : {F13.4}
SFN1 .US                                               : {F13.4}
SFN2 .US                                               : {F13.4}
SFN3 .US                                               : {F13.4}
SFN4 .US                                               : {F13.4}
TT   .MS                                               : {F13.4}
#-----------------------------------------------------------------------------
# 
#     DEPT        DEPT         DT           SFN1         SFN2         SFN3         SFN4         TT
#
~A  
# ...
 5274.4116    5274.4116      66.9222     666.0184     699.2933     746.5050     783.7477       2.1946
 5274.2592    5274.2592      66.7992     665.7507     699.3747     738.3969     776.0209       2.2280
 5274.1068    5274.1068      67.2446     665.6253     699.7491     741.8669     776.0000       2.2616
 5273.9544    5273.9544      67.7131     666.4983     699.9995     741.9998     776.0000       2.2955
 5273.8020    5273.8020      67.6275     666.6248     703.9936     742.1248     776.0000       2.3293
 5273.6496    5273.6496      66.7305     671.8686     704.0000     743.9977     776.0000       2.3627
 5273.4972    5273.4972      65.3280     687.8614     708.3713     744.0000     776.0000       2.3954
 5273.3448    5273.3448      64.2669     685.6261     718.6201     744.1249     776.0000       2.4275
 5273.1924    5273.1924      64.4457     687.0000     714.3750     751.2500     776.5000       2.4598
 5273.0400    5273.0400      66.1399     680.0000     711.7500     744.2500     849.1250       2.4928
 5272.8876    5272.8876      68.5668     684.0022     711.0056     747.0027     779.5040       2.5271
 5272.7352    5272.7352      70.2401     687.5000     719.9993     751.3810     785.8750       2.5623
 5272.5828    5272.5828      70.0894     687.5002     719.2503     757.3684     785.8833       2.5973
 5272.4304    5272.4304      68.3073     687.6244     719.4988     752.5227     791.9715       2.6313
 5272.2780    5272.2780      65.9951     682.0242     719.5000     752.5000     784.0345       2.6643
 5272.1256    5272.1256      64.2526     680.0079     713.2746     752.7490     784.0000       2.6964
 5271.9732    5271.9732      63.4498     676.7616     707.5205     747.3942     784.0000       2.7282
 5271.8208    5271.8208      63.2255     679.7404     707.2508     743.7616     777.3962       2.7598
 5271.6684    5271.6684      63.0613     679.9993     709.9922     742.8775     775.3807       2.7913
 5271.5160    5271.5160      62.7212     678.7531     709.0025     743.9972     771.6342       2.8227
 5271.3636    5271.3636      62.2498     678.2510     707.5031     744.0000     774.2445       2.8538
 5271.2112    5271.2112      61.7987     678.2500     707.0009     743.1265     773.0022       2.8848
 5271.0588    5271.0588      61.4853     678.2500     706.8752     742.3760     769.8792       2.9155
 5270.9064    5270.9064      61.3547     678.1251     707.1248     742.3750     769.6252       2.9462
 5270.7540    5270.7540      61.3252     678.1250     706.7502     742.2501     769.2502       2.9769
 5270.6016    5270.6016      61.2940     678.1250     707.0000     742.1250     769.1250       3.0075
 5270.4492    5270.4492      61.3317     677.7500     706.5000     742.1250     769.2500       3.0382
 5270.2968    5270.2968      61.5565     807.5891     706.9340     741.8750     769.1249       3.0690
 5270.1444    5270.1444      62.0284     481.1623    1080.5113     741.8646     768.9999       3.1000
 5269.9920    5269.9920      62.6837     669.3752    1093.3106     729.7621     769.0418       3.1314
 5269.8396    5269.8396      63.3356     669.4994     837.7290     739.5778     904.5982       3.1629
 5269.6872    5269.6872      63.8557     669.7489     698.4906     733.2783     905.9967       3.1948
 5269.5348    5269.5348      64.0788     669.6255     698.1240     733.6235     764.3292       3.2268
 5269.3824    5269.3824      63.8395     669.5005     698.0005     733.5005     763.7500       3.2588
 5269.2300    5269.2300      63.1957     669.5000     697.6263     733.6246     763.7500       3.2904
 5269.0776    5269.0776      62.5744     733.6842     697.5004     733.5004     763.8746       3.3217
 5268.9252    5268.9252      62.5391     733.6256     832.6484     732.8766     763.3763       3.3530
 5268.7728    5268.7728      63.2485     677.1260     695.4319    1131.9847     763.2503       3.3846
 5268.6204    5268.6204      64.1809     683.2384     711.9687    1140.4858     757.2611       3.4167
 5268.4680    5268.4680      64.4634     684.9974     712.3744     881.3859     772.4773       3.4489
 5268.3156    5268.3156      63.6956     685.2497     712.8744     744.7775     775.9961       3.4808
 5268.1632    5268.1632      62.3310     684.8753     712.7501     744.7499     777.6238       3.5120
 5268.0108    5268.0107      61.2614     684.8750     712.5000     744.6250     777.7500       3.5426
 5267.8584    5267.8584      61.1934     685.1250     712.3750     744.6250     778.1250       3.5732
 5267.7060    5267.7061      62.1772     685.1250     712.3750     744.7500     778.1250       3.6043
 5267.5536    5267.5536      63.6547     685.2127     712.3749     744.3753     777.7501       3.6362
 5267.4012    5267.4012      64.8698     805.4618     712.3010     744.7500     777.8750       3.6686
 5267.2488    5267.2488      65.3732     656.7350     758.7704     744.7500     777.8750       3.7011
 5267.0964    5267.0964      65.3489     656.0000     679.6148     791.7839     777.9994       3.7338
 5266.9440    5266.9440      65.4536     653.6350     679.9968     715.1993     760.0757       3.7665
 5266.7916    5266.7916      66.3319     649.7649     680.0000     717.1164     749.7893       3.7997
 5266.6392    5266.6392      67.9399     649.8746     680.0000     715.8793     751.1202       3.8337
 5266.4868    5266.4868      69.4419     648.5043     680.0000     715.8750     751.2496       3.8684
 5266.3344    5266.3344      69.8541     662.7111     680.4986     716.4983     751.9980       3.9034
 5266.1820    5266.1820      68.7490     666.7406     697.3352     719.9917     752.0000       3.9378
 5266.0296    5266.0296      66.5438     660.6372     696.1275     922.9703     757.3643       3.9710
 5265.8772    5265.8772      64.2393     656.0075     690.3843     730.5630     757.3750       4.0032
 5265.7248    5265.7248      62.7683     652.7541     681.5111     723.1339     762.2439       4.0346
 5265.5724    5265.5724      62.5338     653.2496     680.0013     719.5032     751.0099       4.0658
 5265.4200    5265.4200      63.4423     652.6253     680.0000     715.0023     749.5008       4.0976
 5265.2676    5265.2676      65.0992     654.8750     685.3750     716.5000     745.2500       4.1301
 5265.1152    5265.1152      67.0039     667.2500     572.6250     718.0000     745.8750       4.1636
 5264.9628    5264.9628      68.7359     670.5008     709.5003     728.3842     755.6292       4.1980
 5264.8104    5264.8104      69.9550     671.8751     710.0008     743.8768     762.7628       4.2330
 5264.6580    5264.6580      70.3900     672.0000     710.8747     745.7510     776.0030       4.2682
 5264.5056    5264.5056      69.9066     672.0000     710.6262     746.4965     778.2395       4.3030
 5264.3532    5264.3532      68.5161     672.0000     710.7495     748.2424     778.6234       4.3372
 5264.2008    5264.2008      66.5523     691.4226     711.3725     748.1255     778.9985       4.3705
 5264.0484    5264.0484      64.7404     688.0126     719.9689     748.4986     778.7509       4.4029
 5263.8960    5263.8960      63.8967     673.5468     713.6456     756.7233     779.1238       4.4349
 5263.7436    5263.7436      64.4704     665.6475     702.4072     744.0365     784.8585       4.4671
 5263.5912    5263.5912      66.1366     666.6225     702.3750     738.7631     772.5308       4.5002
 5263.4388    5263.4388      67.9780     671.6144     702.8739     739.4984     773.8721       4.5342
 5263.2864    5263.2864      69.1762     676.8658     703.9980     740.6230     775.9963       4.5688
 5263.1340    5263.1340      69.4989     681.2439     711.4896     743.9953     776.0000       4.6036
 5262.9816    5262.9816      69.2199     688.9921     716.3700     747.7462     775.1259       4.6382
 5262.8292    5262.8292      68.6482     687.2511     719.4980     750.7481     783.4946       4.6725
 5262.6768    5262.6768      67.8454     688.7500     720.0000     756.7500     784.0000       4.7065
 5262.5244    5262.5244      66.7921     687.5000     717.8750     752.6250     784.1250       4.7399
