~VERSION INFORMATION
VERS.           2.0   :CWLS Log ASCII Standard - VERSION 2.0
WRAP.           NO    :One Line per depth step
PROD.  Schlumberger   :LAS Producer
PROG.  DLIS to ASCII 2.3                               :LAS Program name and version
CREA.        2023/07/14 00:15                          :LAS Creation date {YYYY/MM/DD hh:mm}
DLIS_CREA.  2023-Jul-14 00:11                          :DLIS Creation date and time {YYYY-MMM-DD hh:mm}
SOURCE.     LIS_010.dlis                               :DLIS File Name
FILE-ID.     LIS   .003                                :File Identification Number
#--------------------------------------------------
~WELL INFORMATION
#MNEM.UNIT      DATA             DESCRIPTION
#---- ------ --------------   -----------------------------
STRT .M      5284.9272       :START DEPTH     
STOP .M      4939.1316       :STOP DEPTH     
STEP .M        -0.1524       :STEP     
NULL .          -999.25      :NULL VALUE
COMP .        PETROBRAS S.A.                           :COMPANY
WELL .        3-BRSA-293D-SPS                          :WELL
FLD  .        BS-400                                   :FIELD
LOC  .        BASE SAD 69:                             :LOCATION
CNTY .        SANTOS                                   :COUNTY
STAT .        BRASIL                                   :STATE
CTRY .        BRASIL                                   :COUNTRY
API  .                                                 :API NUMBER
UWI  .                                                 :UNIQUE WELL ID
DATE .        15/11/2004                               :LOG DATE
SRVC .        Schlumberger                             :SERVICE COMPANY
LATI .DEG                                              :LATITUDE
LONG .DEG                                              :LONGITUDE
GDAT .                                                 :GeoDetic Datum
#-----------------------------------------------------------------------------
~PARAMETER INFORMATION
#MNEM.UNIT    VALUE                      DESCRIPTION
#---- -----   --------------------       ------------------------
APD  .M               24                 :
BHT  .DEGF           260                 :
BLI  .M             5289                 :
BS   .IN         8.50000                 :
CN   .        PETROBRAS S.A.             :
COUN .        SANTOS                     :
CS   .IN         9.62500                 :
DATE .        15/11/2004                 :
DFD  .LB/G      12.30000                 :
DFL  .C3               2                 :
DFPH .        N/A                        :
DFT  .        SINTETICO                  :
DFV  .S               95                 :
DMF  .        MESA ROTATIVA              :
EDF  .M               24                 :
EGL  .M             -500                 :
EKB  .        N/A                        :
ENGI .        HERNANDEZ / LOCK           :
FL1  .        X   7292392.00 M LAT 24 28 47.189 S :
FL2  .        Y    584087.00 M LON 44 10 12.698 W :
FL3  .        MC  45 GRAUS               :
FN   .        BS-400                     :
LMF  .        MESA ROTATIVA              :
LUL  .        MACAE                      :
MCSS .        PRENSA                     :
MCST .DEGF            80                 :
MFSS .        PRENSA                     :
MFST .DEGF            80                 :
MSS  .        LINHA DE FLUXO             :
MST  .DEGF            80                 :
PDAT .        NIVEL DO MAR               :
R1   .        01. APRESENTAÇÃO DE ACORDO COM REQUERIMENTO DO CLIENTE :
R2   .        02. TEMPERATURA MÁXIMA DO POÇO T1=T2= 290 DEGF @  5275 M :
R3   .        03. INICIO DA CIRCULAÇÃO  12/11/2004 09 00 H :
R4   .        04. FINAL DA CIRCULAÇÃO   12/11/2004 18 00 H :
R5   .        05. TEMPO TOTAL DE CIRCULAÇÃO   09 00 H :
R6   .        06. FLUIDO DE PERFURAÇÃO  SINTETICO (BR-MUL  BR-MI)  60% TEOR DO OLEO :
R7   .        07. SALINIDADE DA LAMA  254762 PPM NACL NA FASE DE AGUA :
R8   .        08. INCLINAÇÃO MÁXIMA DO POÇO  37.37 GRAUS @ 5100 M :
R9   .        09. PRIMEIRAS E ULTIMAS LEITURAS  :
RMB  .OHMM    > 10                       :
RMCS .OHMM    > 10                       :
RMFS .OHMM    > 10                       :
RMS  .OHMM    >10                        :
RUN  .                 2                 :
STAT .        BRASIL                     :
TCS  .        18 00 H                    :
TDD  .M             5288                 :
TDL  .M             5293                 :
TLAB .        N/A                        :
TLI  .M             5000                 :
WITN .        ERNANI / ZE MARIA          :
WN   .        3-BRSA-293D-SPS            :
LUN  .              8808                 :
HIDE .        3-SPS-41D                  :
HID2 .        HIGH DEFINITION INDUCTION LOG :
HID3 .        X-MULTIPOLE ARRAY ACOUSTILOG :
HID4 .        GAMMA RAY LOG              :
HID5 .        TTRM SUB                   :
CLAB .        BACIA                      :
SLAB .        PAIS                       :
CMT1 .        ESC  1 200                 :
CMT2 .        PROF. MEDIDA               :
CMT4 .        SONDA  SS-43               :
HDAT .        SAD 69                     :
FL   .        BASE SAD 69                :
OS1  .        RCI/GR                     :
OS2  .        CHECK SHOT                 :
OS3  .        GR/CN/ZDL                  :
OS5  .        RCOR/GR                    :
LNAM .        ZDL/CN/XMAC/HDIL/EARTH IMAGER/RCI/RCOR/CHECK SHOT/GR :
TOOL .        ZDL/CN/XMAC/HDIL/EARTH IMAGER/RCI/RCOR/CHECK SHOT/GR :
LSOU .        PETROBRAS                  :
LSRV .        OH WIRELINE                :
LTYP .        RAW                        :
EPD  .M                0                 :
LDAT .        15/11/2004                 :
TRIP .                 3                 :
SON  .            786588                 :
CBDR .M             4277                 :
CBLO .        NR                         :
CBL1 .        NR                         :
STEM .DEGF    N/A                        :
BSAL .            254762                 :
BARI .        OFF                        :
DLAB .        12/11/2004                 :
MRT  .DEGF           290                 :
TSTR .        HDIL/XMAC/GR/TTRM          :
TSTG .        N/A                        :
STUS .        FINAL                      :
LCNM .        BAKER ATLAS                :
LCC  .               150                 :
NATI .        BRASIL                     :
OPMD .        OH.WIRELINE                :
PANA .        HERNANDEZ / LOCK           :
PCON .        BAKER ATLAS                :
R11  .        SL     5268.3 M / 5000.0 M :
R12  .        GR     5268.3 M / 5000.0 M :
R13  .        XMAC   5279.5 M / 5000.0 M :
R14  .        HDIL   5289.0 M / 5000.0 M :
R17  .        11. DECLINAÇÃO MAGNETICA  -20.9 GRAUS :
R18  .        12. COORDENADAS BASE       :
R21  .        Y    583936.00 M           :
R22  .        MC  45 GRAUS               :
PVER .           4.10000                 :
WDFN .        /space/expusr/3-SPS-41D_RUN2/i77bf02_2spf.xtf :
OCT  .        i77bf                      :
OS4  .        EARTH IMAGER               :
R16  .        10. PONTO FRACO UTILIZADO  10K :
R20  .        X   7292512.00 M           :
R24  .        13. CADASTRO ANP  86316021017 :
#-----------------------------------------------------------------------------
~CURVE INFORMATION
#MNEM.UNIT   API CODE                                  DESCRIPTION
#---- -----  --------                                  -----------------------
DEPT .M                                                :DEPTH (BOREHOLE) {F10.4}
DEPT .M                                                : {F13.4}
DT   .US/F                                             : {F13.4}
SFN1 .US                                               : {F13.4}
SFN2 .US                                               : {F13.4}
SFN3 .US                                               : {F13.4}
SFN4 .US                                               : {F13.4}
TT   .MS                                               : {F13.4}
#-----------------------------------------------------------------------------
# 
#     DEPT        DEPT         DT           SFN1         SFN2         SFN3         SFN4         TT
#
~A  
# ...
 4971.8976    4971.8976      69.0928     704.0010     737.2495     775.9991     808.0000      68.9559
 4971.7452    4971.7452      69.0717     705.7490     736.2505     776.0000     808.1249      68.9904
 4971.5928    4971.5928      69.1062     704.0000     736.5000     773.7500     808.0000      69.0250
 4971.4404    4971.4404      69.1933     704.7500     736.7500     775.8750     808.0000      69.0596
 4971.2880    4971.2880      69.2627     704.0004     737.3744     775.9998     808.0000      69.0943
 4971.1356    4971.1356      69.2839     704.6258     736.3755     775.6253     808.0000      69.1289
 4970.9832    4970.9832      69.2648     705.5005     736.8761     776.0000     808.0000      69.1636
 4970.8308    4970.8308      69.1205     705.8771     737.7515     776.0000     808.0006      69.1981
 4970.6784    4970.6784      68.7431     707.1196     738.6212     776.0000     808.3734      69.2323
 4970.5260    4970.5260      68.1480     707.8720     739.7455     776.0000     808.8730      69.2664
 4970.3736    4970.3736      67.5654     710.1168     741.4936     776.0000     808.5014      69.3002
 4970.2212    4970.2212      67.3417     702.8986     736.0179     774.8787     808.9984      69.3339
 4970.0688    4970.0688      67.6062     703.9967     736.0000     773.6286     806.5072      69.3677
 4969.9164    4969.9164      68.1203     705.1222     737.3715     775.6200     807.9962      69.4018
 4969.7640    4969.7640      68.5067     706.3723     738.7470     775.9992     808.4989      69.4360
 4969.6116    4969.6116      68.5914     705.8759     737.6270     776.0000     808.5000      69.4703
 4969.4592    4969.4592      68.4610     704.5019     736.6264     775.5007     808.0007      69.5046
 4969.3068    4969.3068      68.3180     704.8746     736.9996     775.6249     808.0000      69.5387
 4969.1544    4969.1544      68.3080     704.1255     736.1256     774.3758     808.0000      69.5729
 4969.0020    4969.0020      68.3949     704.0000     736.0000     774.3750     806.6250      69.6071
 4968.8496    4968.8496      68.4505     704.0000     736.0000     774.3750     807.6250      69.6414
 4968.6972    4968.6972      68.3247     704.0000     736.0000     774.2500     807.9997      69.6755
 4968.5448    4968.5448      67.9256     703.9990     735.9998     774.2489     807.3755      69.7095
 4968.3924    4968.3924      67.3562     702.7463     735.7456     772.8711     807.9959      69.7432
 4968.2400    4968.2400      66.9016     699.6200     731.9973     769.4977     804.4946      69.7767
 4968.0876    4968.0876      66.8214     696.3757     730.2479     768.0000     801.0002      69.8101
 4967.9352    4967.9352      67.1170     696.7485     729.1296     768.0000     801.1245      69.8434
 4967.7828    4967.7828      67.5532     696.0028     728.3778     767.1283     800.0042      69.8772
 4967.6304    4967.6304      67.8322     701.8551     728.0013     767.9970     800.0000      69.9112
 4967.4780    4967.4780      67.8043     698.8841     732.2371     765.8814     800.0000      69.9451
 4967.3256    4967.3256      67.5018     698.0023     730.5046     769.1164     799.0027      69.9788
 4967.1732    4967.1732      66.9839     699.2471     731.4977     768.2520     802.3673      70.0123
 4967.0208    4967.0208      66.3191     697.6281     730.2524     768.0005     800.0046      70.0455
 4966.8684    4966.8684      65.6575     696.0025     728.0035     766.6271     799.5008      70.0784
 4966.7160    4966.7160      65.2093     695.6254     728.0000     764.8771     798.2515      70.1110
 4966.5636    4966.5636      65.1577     692.2527     725.8767     762.2521     794.6279      70.1436
 4966.4112    4966.4112      65.5132     690.5008     722.3765     760.3758     794.1252      70.1763
 4966.2588    4966.2588      66.0423     690.1250     722.5000     760.0000     792.8750      70.2094
 4966.1064    4966.1064      66.3942     691.1250     722.1250     760.0000     792.0000      70.2426
 4965.9540    4965.9540      66.3395     689.2502     722.3735     760.0000     791.9996      70.2758
 4965.8016    4965.8016      65.9482     689.6233     720.1249     759.9950     791.3736      70.3087
 4965.6492    4965.6492      65.5792     688.0004     720.0000     755.1266     789.9972      70.3416
 4965.4968    4965.4968      65.6267     688.2496     720.0000     756.2454     788.0015      70.3744
 4965.3444    4965.3444      66.1757     688.0011     720.0000     753.6361     788.8713      70.4073
 4965.1920    4965.1920      66.9579     688.2490     720.0000     756.1153     786.6338      70.4408
 4965.0396    4965.0396      67.5552     689.4956     720.4982     758.7407     790.7354      70.4745
 4964.8872    4964.8872      67.7249     689.2508     720.7492     758.7500     791.8714      70.5084
 4964.7348    4964.7348      67.5769     689.2500     720.0021     757.7528     791.0024      70.5422
 4964.5824    4964.5824      67.3573     690.3723     720.0000     757.8747     789.6283      70.5759
 4964.4300    4964.4300      67.2197     692.1214     722.2454     759.2472     791.3714      70.6095
 4964.2776    4964.2776      67.1496     692.6242     721.6261     758.1269     791.9989      70.6431
 4964.1252    4964.1252      66.9989     693.3740     724.1217     759.7479     792.0000      70.6766
 4963.9728    4963.9728      66.6954     695.1233     724.1250     759.9998     791.6254      70.7100
 4963.8204    4963.8204      66.3215     695.2499     727.3731     760.6246     791.9998      70.7432
 4963.6680    4963.6680      66.0394     696.0000     726.8750     762.3750     792.8750      70.7762
 4963.5156    4963.5156      66.0133     693.2500     722.7500     760.0000     792.6250      70.8092
 4963.3632    4963.3632      66.3068     692.3750     724.3743     760.0000     792.1249      70.8424
 4963.2108    4963.2108      66.7843     692.3758     723.1250     760.0000     792.0000      70.8758
 4963.0584    4963.0584      67.2321     693.2522     723.1261     760.0000     792.0010      70.9094
 4962.9060    4962.9060      67.5275     695.0016     723.7475     760.0000     792.7494      70.9432
 4962.7536    4962.7536      67.6061     695.9956     569.8021     760.0000     792.3766      70.9768
 4962.6012    4962.6012      67.4528     693.5101     562.2777     760.2490     792.7485      71.0105
 4962.4488    4962.4488      67.0850     695.8663     727.3931     763.9863     519.5042      71.0441
 4962.2964    4962.2964      66.5690     694.7537     726.6295     762.8787     676.6028      71.0774
 4962.1440    4962.1440      66.1041     693.7529     726.3757     760.7562     794.4062      71.1104
 4961.9916    4961.9916      65.8891     692.7526     726.8737     760.5006     793.7526      71.1434
 4961.8392    4961.8392      65.9225     693.8725     723.5074     760.1258     793.2511      71.1764
 4961.6868    4961.6868      66.0534     693.6255     724.8725     760.0002     792.6261      71.2094
 4961.5344    4961.5344      66.1596     692.2520     724.9998     760.4993     793.7484      71.2425
 4961.3820    4961.3820      66.2754     692.6246     721.1292     759.8757     791.1278      71.2756
 4961.2296    4961.2296      66.5372     689.6271     720.0008     757.3768     791.7496      71.3089
 4961.0772    4961.0771      66.9738     692.3750     723.3750     759.7500     791.1250      71.3424
 4960.9248    4960.9248      67.4086     689.3750     720.8750     758.6250     791.3750      71.3761
 4960.7724    4960.7724      67.6279     690.2500     721.3754     759.0004     790.7503      71.4100
 4960.6200    4960.6200      67.5820     690.1253     722.3750     760.0000     791.6253      71.4438
 4960.4676    4960.4676      67.4062     690.4986     722.3733     760.0000     792.0000      71.4775
 4960.3152    4960.3152      67.2768     689.2491     720.8748     759.9998     791.9989      71.5111
 4960.1628    4960.1628      67.2477     688.6294     720.7486     759.8720     791.2514      71.5448
 4960.0104    4960.0104      67.2276     690.9902     720.0031     758.2567     791.9969      71.5782
