~VERSION INFORMATION
VERS.           2.0   :CWLS Log ASCII Standard - VERSION 2.0
WRAP.           YES   :Multiple lines per depth step
PROD.  Schlumberger   :LAS Producer
PROG.  DLIS to ASCII 2.3                               :LAS Program name and version
CREA.        2023/07/14 00:15                          :LAS Creation date {YYYY/MM/DD hh:mm}
DLIS_CREA.  2023-Jul-14 00:11                          :DLIS Creation date and time {YYYY-MMM-DD hh:mm}
SOURCE.     LIS_007.dlis                               :DLIS File Name
FILE-ID.     LIS   .003                                :File Identification Number
#--------------------------------------------------
~WELL INFORMATION
#MNEM.UNIT      DATA             DESCRIPTION
#---- ------ --------------   -----------------------------
STRT .M      5238.7500       :START DEPTH     
STOP .M      4241.4444       :STOP DEPTH     
STEP .M        -0.1524       :STEP     
NULL .          -999.25      :NULL VALUE
COMP .        PETROBRAS S.A.                           :COMPANY
WELL .        3-BRSA-293D-SPS                          :WELL
FLD  .        BS-400                                   :FIELD
LOC  .        BASE SAD 69:                             :LOCATION
CNTY .        SANTOS                                   :COUNTY
STAT .        BRASIL                                   :STATE
CTRY .        SANTOS                                   :COUNTRY
API  .                                                 :API NUMBER
UWI  .                                                 :UNIQUE WELL ID
DATE .        23/10/2004                               :LOG DATE
SRVC .        Schlumberger                             :SERVICE COMPANY
LATI .DEG                                              :LATITUDE
LONG .DEG                                              :LONGITUDE
GDAT .                                                 :GeoDetic Datum
#-----------------------------------------------------------------------------
~PARAMETER INFORMATION
#MNEM.UNIT    VALUE                      DESCRIPTION
#---- -----   --------------------       ------------------------
APD  .M               24                 :
BHT  .DEGF           280                 :
BLI  .M             5230                 :
BS   .IN         8.50000                 :
CN   .        PETROBRAS S.A.             :
COUN .        SANTOS                     :
CS   .IN         9.62500                 :
DATE .        23/10/2004                 :
DFD  .LB/G      12.30000                 :
DFL  .C3               2                 :
DFPH .        N/A                        :
DFT  .        SINTETICO                  :
DFV  .S               87                 :
DMF  .        MESA ROTATIVA              :
EDF  .M               24                 :
EGL  .M             -500                 :
EKB  .        N/A                        :
ENGI .        HERNANDEZ/LOCK             :
FL1  .        X   7292392.00 M LAT 24 28 47.189 S :
FL2  .        Y    584087.00 M LON 44 10 12.698 W :
FL3  .        MC  45 GRAUS               :
FN   .        BS-400                     :
LMF  .        MESA ROTATIVA              :
LUL  .        MACAE                      :
MCSS .        PRENSA                     :
MCST .DEGF            80                 :
MFSS .        PRENSA                     :
MFST .DEGF            80                 :
MSS  .        LINHA DE FLUXO             :
MST  .DEGF            80                 :
PDAT .        NIVEL DO MAR               :
R1   .        01. APRESENTAÇÃO DE ACORDO COM REQUERIMENTO DO CLIENTE :
R2   .        02. TEMPERATURA MÁXIMA DO POÇO T1=T2= 260 DEGF @  5180 M :
R3   .        03. INICIO DA CIRCULAÇÃO  13 45 H 21/10/2004 :
R4   .        04. FINAL DA CIRCULAÇÃO   16 00 H 21/10/2004 :
R5   .        05. TEMPO TOTAL DE CIRCULAÇÃO  02 15 H :
R6   .        06. FLUIDO DE PERFURAÇÃO  SINTETICO (BR-MUL  BR-MI)  65% TEOR DO OLEO :
R7   .        07. SALINIDADE DA LAMA  266377 PPM NACL NA FASE DE AGUA :
R8   .        08. INCLINAÇÃO MÁXIMA DO POÇO  37.37 GRAUS @ 5100 M :
R9   .        09. PRIMEIRAS E ULTIMAS LEITURAS  :
RMB  .OHMM    > 10                       :
RMCS .OHMM    > 10                       :
RMFS .OHMM    > 10                       :
RMS  .OHMM    > 10                       :
RUN  .                 1                 :
STAT .        BRASIL                     :
TCS  .        16 00 H                    :
TDD  .M             5230                 :
TDL  .M             5231                 :
TLAB .        N/A                        :
TLI  .M             4277                 :
WITN .        ALCIDIO/VLADIMIR           :
WN   .        3-BRSA-293D-SPS            :
LUN  .              8808                 :
HIDE .        3-SPS-41D                  :
HID2 .        COMPENSATED Z-DENSILOG     :
HID3 .        COMPENSATED NEUTRON LOG    :
HID4 .        GAMMA RAY LOG              :
HID5 .        TTRM SUB                   :
CLAB .        BACIA                      :
SLAB .        PAIS                       :
CMT1 .        ESC  1 1000                :
CMT2 .        PROF. MEDIDA               :
CMT4 .        SONDA  SS-43               :
HDAT .        SAD 69                     :
FL   .        BASE SAD 69                :
OS1  .        HDIL/XMAC/SL/GR            :
OS3  .        MREX/GR                    :
OS5  .        SL/GR                      :
LNAM .        MREX/ZDL/CN/XMAC/HDIL/3DEX/RCI/SL/GR :
TOOL .        MREX/ZDL/CN/XMAC/HDIL/3DEX/RCI/SL/GR :
LSOU .        PETROBRAS                  :
LSRV .        OH WIRELINE                :
LTYP .        RAW                        :
EPD  .M                0                 :
LDAT .        23/10/2004                 :
TRIP .                 1                 :
SON  .            772317                 :
CBDR .M             4277                 :
CBLO .M             4277                 :
CBL1 .M             4277                 :
STEM .DEGF    N/A                        :
BSAL .            266377                 :
BARI .        OFF                        :
DLAB .        21/10/2004                 :
MRT  .DEGF           280                 :
TSTR .        ZDL/CN/GR/TTRM             :
TSTG .        N/A                        :
STUS .        FINAL                      :
LCNM .        BAKER ATLAS                :
LCC  .               150                 :
NATI .        SANTOS                     :
OPMD .        OH.WIRELINE                :
PANA .        HERNANDEZ/LOCK             :
PCON .        BAKER ATLAS                :
R11  .        GR     5222.5 M/4277.0 M   :
R12  .        ZDL    5230.0 M/4277.0 M   :
R13  .        CN     5224.0 M/4277.0 M   :
R15  .        10. PONTO FRACO UTILIZADO  10K :
R17  .        12. DECLINAÇÃO MAGNETICA  -20.9 GRAUS :
R18  .        13. COORDENADAS BASE       :
R21  .        Y    583936.00 M           :
R22  .        MC  45 GRAUS               :
PVER .           4.10000                 :
WDFN .        /space/expusr/3-SPS-41D/i77bf07_4spf.xtf :
OCT  .        i77bf                      :
0S2  .        3DEX/GR                    :
OS4  .        RCI/GR                     :
R16  .        11. CNC CORREGIDO PELO CALIPER E SALINIDADE  PRESENTADO MATRIZ CARBONATO :
R20  .        X   7292512.00 M           :
R24  .        14. CADASTRO ANP  86316021017 :
#-----------------------------------------------------------------------------
~CURVE INFORMATION
#MNEM.UNIT   API CODE                                  DESCRIPTION
#---- -----  --------                                  -----------------------
DEPT .M                                                :DEPTH (BOREHOLE) {F10.4}
DEPT .M                                                : {F13.4}
BIT  .IN                                               : {F13.4}
DEPM .M                                                : {F13.4}
GR   .GAPI                                             : {F13.4}
SPD  .M/MN                                             : {F13.4}
TEN  .LBF                                              : {F13.4}
TTEN .LBF                                              : {F13.4}
CAL  .IN                                               : {F13.4}
CALX .IN                                               : {F13.4}
HRD1 .HZ                                               : {F13.4}
HRD2 .HZ                                               : {F13.4}
PE   .B/E                                              : {F13.4}
SFT2 .HZ                                               : {F13.4}
SOFT .HZ                                               : {F13.4}
SSD  .HZ                                               : {F13.4}
ZCOR .G/C3                                             : {F13.4}
ZDEN .G/C3                                             : {F13.4}
CNC  .PU                                               : {F13.4}
CN   .PU                                               : {F13.4}
LSN  .HZ                                               : {F13.4}
SSN  .HZ                                               : {F13.4}
CNCF .PU                                               : {F13.4}
#-----------------------------------------------------------------------------
# DEPT       
#     DEPT         BIT          DEPM         GR           SPD          TEN          
#     TTEN         CAL          CALX         HRD1         HRD2         PE           
#     SFT2         SOFT         SSD          ZCOR         ZDEN         CNC          
#     CN           LSN          SSN          CNCF         
~A  
# ...
5174.7420
   5174.7420       8.5000    5174.2078      97.6835       4.9866     -35.9929
   6353.2930       8.6600       8.6600     639.2992     868.3680       5.3893
    506.3045     364.0895    6224.2684      -0.0483       2.5468      18.8265
     19.1098    1187.8887    2933.3595      18.8265
5174.5896
   5174.5896       8.5000    5174.0564      94.0488       4.9983     -40.7731
   6347.8035       8.6604       8.6604     642.7034     856.8510       4.9547
    507.1017     383.1331    6208.4971      -0.0492       2.5490      18.8722
     19.1561    1256.6701    3107.2053      18.8722
5174.4372
   5174.4372       8.5000    5173.9040      89.9242       5.0124     -52.7584
   6334.9696       8.6619       8.6619     644.5516     839.7741       4.6701
    503.9719     391.5354    6193.1408      -0.0486       2.5529      16.8231
     17.0943    1466.6267    3413.8995      16.8231
5174.2848
   5174.2848       8.5000    5173.7516      87.6844       5.0051     -67.7529
   6318.8838       8.6615       8.6615     653.3944     840.9774       4.7838
    507.7384     382.8828    6191.4621      -0.0507       2.5499      13.4745
     13.7159    1838.3195    3820.3660      13.4745
5174.1324
   5174.1324       8.5000    5173.5992      84.4196       4.9843     -74.1267
   6311.2548       8.6578       8.6578     681.6930     875.0673       4.9449
    536.8554     386.3764    6255.3329      -0.0525       2.5322      10.5534
     10.7614    2306.0765    4262.6777      10.5534
5173.9800
   5173.9800       8.5000    5173.4468      75.5047       4.9742     -77.4242
   6306.6333       8.6544       8.6544     742.2871     957.5231       4.7613
    600.1174     434.2794    6444.8382      -0.0493       2.4967       8.7783
      8.9639    2728.0421    4648.2474       8.7783
5173.8276
   5173.8276       8.5000    5173.2944      63.2343       4.9765     -83.6257
   6298.9999       8.6526       8.6526     821.3783    1068.0660       4.3602
    677.6273     512.7530    6693.4696      -0.0437       2.4544       8.0874
      8.2639    2967.5832    4886.5982       8.0874
5173.6752
   5173.6752       8.5000    5173.1420      55.1013       4.9772     -87.8965
   6293.1886       8.6504       8.6504     889.0051    1154.6303       4.0008
    744.7388     581.8102    6882.6881      -0.0398       2.4200       8.2418
      8.4190    2956.7377    4906.3963       8.2418
5173.5228
   5173.5228       8.5000    5172.9896      53.1178       4.9738     -89.2693
   6290.2459       8.6462       8.6462     950.3928    1224.1091       3.7653
    801.3858     639.1816    7047.3864      -0.0352       2.3908       8.9334
      9.1168    2730.4703    4686.4240       8.9334
5173.3704
   5173.3704       8.5000    5172.8372      54.4743       4.9755     -90.4889
   6287.4327       8.6380       8.6380    1027.4542    1335.2271       3.7147
    868.4983     702.0721    7242.9350      -0.0330       2.3565       9.9858
     10.1770    2396.3132    4317.8952       9.9858
5173.2180
   5173.2180       8.5000    5172.6848      56.6723       4.9902     -86.0749
   6290.2986       8.6262       8.6262    1111.7228    1467.2882       3.7658
    941.9412     759.7622    7412.3224      -0.0358       2.3219      11.2700
     11.4685    2091.5472    3983.2480      11.2700
5173.0656
   5173.0656       8.5000    5172.5324      58.6660       5.0013     -76.8023
   6298.2039       8.6169       8.6169    1175.1283    1544.3324       3.7738
    993.3361     789.7644    7495.9645      -0.0400       2.3000      12.6188
     12.8248    1893.8152    3806.7598      12.6188
5172.9132
   5172.9132       8.5000    5172.3800      59.6709       4.9882     -73.0517
   6300.7236       8.6130       8.6130    1206.1788    1552.2524       3.7699
   1009.7674     795.9589    7512.7959      -0.0418       2.2935      13.7650
     13.9785    1795.2481    3766.8521      13.7650
5172.7608
   5172.7607       8.5000    5172.2275      60.4115       4.9673     -74.0360
   6298.4756       8.6087       8.6087    1203.4971    1525.5623       3.7081
   1011.4846     796.1740    7504.5996      -0.0399       2.2967      14.3207
     14.5360    1766.9490    3781.6694      14.3207
5172.6084
   5172.6084       8.5000    5172.0742      61.2585       4.9626     -67.8478
   6303.4092       8.6008       8.6008    1191.8945    1503.2112       3.6226
   1016.3707     796.6367    7491.5820      -0.0381       2.3009      14.0760
     14.2842    1795.8511    3809.5542      14.0760
5172.4560
   5172.4561       8.5000    5171.9219      60.9955       4.9709     -58.4138
   6311.7148       8.5921       8.5921    1189.1204    1501.9749       3.5794
   1021.3147     799.0079    7482.7822      -0.0387       2.3016      13.4799
     13.6779    1850.2095    3839.9829      13.4799
5172.3036
   5172.3036       8.5000    5171.7694      60.2716       4.9833     -56.1424
   6312.9331       8.5838       8.5838    1188.9517    1503.2926       3.5152
   1018.1665     804.8862    7477.3014      -0.0395       2.3016      12.9653
     13.1541    1897.0752    3861.3493      12.9653
5172.1512
   5172.1512       8.5000    5171.6170      61.3687       5.0024     -57.5596
   6310.4508       8.5750       8.5750    1179.3523    1481.8125       3.3453
   1006.2183     817.0391    7463.6598      -0.0380       2.3046      12.5511
     12.7313    1933.8726    3873.3447      12.5511
5171.9988
   5171.9988       8.5000    5171.4656      64.2221       5.0151     -51.8908
   6315.1227       8.5687       8.5687    1168.7640    1452.7678       3.1562
    992.9504     829.7073    7456.6533      -0.0348       2.3089      12.3865
     12.5616    1951.9421    3883.9313      12.3865
5171.8464
   5171.8464       8.5000    5171.3132      67.9587       5.0064     -39.0534
   6327.1447       8.5668       8.5668    1161.3812    1438.1206       3.0929
    985.1246     832.6850    7434.5818      -0.0352       2.3129      12.6942
     12.8705    1926.9072    3880.0747      12.6942
5171.6940
   5171.6940       8.5000    5171.1608      72.6357       4.9971     -26.3666
   6339.2530       8.5677       8.5677    1136.7680    1407.7003       3.1253
    969.2326     811.2801    7319.3999      -0.0435       2.3230      13.3693
     13.5512    1857.9154    3838.0437      13.3693
5171.5416
   5171.5416       8.5000    5171.0084      75.9351       5.0202     -24.4936
   6340.6821       8.5684       8.5684    1078.0576    1335.1996       3.1430
    928.6413     761.7283    7121.2318      -0.0539       2.3440      13.8535
     14.0392    1804.0568    3793.6149      13.8535
5171.3892
   5171.3892       8.5000    5170.8560      74.7074       5.0660     -37.8132
   6326.8095       8.5673       8.5673    1026.3638    1256.9200       3.1509
    887.4430     711.8679    7008.4549      -0.0534       2.3638      13.1802
     13.3605    1882.4257    3861.2585      13.1802
5171.2368
   5171.2368       8.5000    5170.7036      70.0124       5.0973     -56.1446
   6307.6397       8.5682       8.5682    1035.6868    1246.9487       3.1588
    887.7220     707.9714    7038.9834      -0.0494       2.3639      11.1296
     11.2944    2183.3204    4127.9900      11.1296
5171.0844
   5171.0844       8.5000    5170.5512      65.9294       5.1023     -67.3050
   6295.3905       8.5725       8.5725    1080.2984    1299.0927       3.1310
    921.9422     747.3845    7084.1911      -0.0548       2.3484       8.8308
      8.9774    2663.1692    4540.5911       8.8308
5170.9320
   5170.9320       8.5000    5170.3988      63.9869       5.1021     -68.1687
   6293.3470       8.5743       8.5743    1095.1907    1351.7164       3.1767
    945.3256     772.3489    7105.9786      -0.0596       2.3372       7.0348
      7.1649    3177.2313    4943.0664       7.0348
5170.7796
   5170.7796       8.5000    5170.2464      63.1768       5.1114     -60.7252
   6299.6684       8.5715       8.5715    1055.2806    1353.7977       3.4184
    921.2106     740.6857    7102.1379      -0.0559       2.3425       5.6983
      5.8141    3617.7222    5218.6960       5.6983
5170.6272
   5170.6272       8.5000    5170.0940      62.5982       5.1181     -49.9746
   6309.4633       8.5684       8.5684     988.0421    1301.2109       3.7202
    857.0880     678.1963    7012.1353      -0.0536       2.3601       4.6534
      4.7576    3966.3404    5365.7807       4.6534
