~VERSION INFORMATION
VERS.           2.0   :CWLS Log ASCII Standard - VERSION 2.0
WRAP.           NO    :One Line per depth step
PROD.  Schlumberger   :LAS Producer
PROG.  DLIS to ASCII 2.3                               :LAS Program name and version
CREA.        2023/07/14 00:15                          :LAS Creation date {YYYY/MM/DD hh:mm}
DLIS_CREA.  2023-Jul-14 00:11                          :DLIS Creation date and time {YYYY-MMM-DD hh:mm}
SOURCE.     LIS_010.dlis                               :DLIS File Name
FILE-ID.     LIS   .003                                :File Identification Number
#--------------------------------------------------
~WELL INFORMATION
#MNEM.UNIT      DATA             DESCRIPTION
#---- ------ --------------   -----------------------------
STRT .M      5284.9272       :START DEPTH     
STOP .M      4939.1316       :STOP DEPTH     
STEP .M        -0.1524       :STEP     
NULL .          -999.25      :NULL VALUE
COMP .        PETROBRAS S.A.                           :COMPANY
WELL .        3-BRSA-293D-SPS                          :WELL
FLD  .        BS-400                                   :FIELD
LOC  .        BASE SAD 69:                             :LOCATION
CNTY .        SANTOS                                   :COUNTY
STAT .        BRASIL                                   :STATE
CTRY .        BRASIL                                   :COUNTRY
API  .                                                 :API NUMBER
UWI  .                                                 :UNIQUE WELL ID
DATE .        15/11/2004                               :LOG DATE
SRVC .        Schlumberger                             :SERVICE COMPANY
LATI .DEG                                              :LATITUDE
LONG .DEG                                              :LONGITUDE
GDAT .                                                 :GeoDetic Datum
#-----------------------------------------------------------------------------
~PARAMETER INFORMATION
#MNEM.UNIT    VALUE                      DESCRIPTION
#---- -----   --------------------       ------------------------
APD  .M               24                 :
BHT  .DEGF           260                 :
BLI  .M             5289                 :
BS   .IN         8.50000                 :
CN   .        PETROBRAS S.A.             :
COUN .        SANTOS                     :
CS   .IN         9.62500                 :
DATE .        15/11/2004                 :
DFD  .LB/G      12.30000                 :
DFL  .C3               2                 :
DFPH .        N/A                        :
DFT  .        SINTETICO                  :
DFV  .S               95                 :
DMF  .        MESA ROTATIVA              :
EDF  .M               24                 :
EGL  .M             -500                 :
EKB  .        N/A                        :
ENGI .        HERNANDEZ / LOCK           :
FL1  .        X   7292392.00 M LAT 24 28 47.189 S :
FL2  .        Y    584087.00 M LON 44 10 12.698 W :
FL3  .        MC  45 GRAUS               :
FN   .        BS-400                     :
LMF  .        MESA ROTATIVA              :
LUL  .        MACAE                      :
MCSS .        PRENSA                     :
MCST .DEGF            80                 :
MFSS .        PRENSA                     :
MFST .DEGF            80                 :
MSS  .        LINHA DE FLUXO             :
MST  .DEGF            80                 :
PDAT .        NIVEL DO MAR               :
R1   .        01. APRESENTAÇÃO DE ACORDO COM REQUERIMENTO DO CLIENTE :
R2   .        02. TEMPERATURA MÁXIMA DO POÇO T1=T2= 290 DEGF @  5275 M :
R3   .        03. INICIO DA CIRCULAÇÃO  12/11/2004 09 00 H :
R4   .        04. FINAL DA CIRCULAÇÃO   12/11/2004 18 00 H :
R5   .        05. TEMPO TOTAL DE CIRCULAÇÃO   09 00 H :
R6   .        06. FLUIDO DE PERFURAÇÃO  SINTETICO (BR-MUL  BR-MI)  60% TEOR DO OLEO :
R7   .        07. SALINIDADE DA LAMA  254762 PPM NACL NA FASE DE AGUA :
R8   .        08. INCLINAÇÃO MÁXIMA DO POÇO  37.37 GRAUS @ 5100 M :
R9   .        09. PRIMEIRAS E ULTIMAS LEITURAS  :
RMB  .OHMM    > 10                       :
RMCS .OHMM    > 10                       :
RMFS .OHMM    > 10                       :
RMS  .OHMM    >10                        :
RUN  .                 2                 :
STAT .        BRASIL                     :
TCS  .        18 00 H                    :
TDD  .M             5288                 :
TDL  .M             5293                 :
TLAB .        N/A                        :
TLI  .M             5000                 :
WITN .        ERNANI / ZE MARIA          :
WN   .        3-BRSA-293D-SPS            :
LUN  .              8808                 :
HIDE .        3-SPS-41D                  :
HID2 .        HIGH DEFINITION INDUCTION LOG :
HID3 .        X-MULTIPOLE ARRAY ACOUSTILOG :
HID4 .        GAMMA RAY LOG              :
HID5 .        TTRM SUB                   :
CLAB .        BACIA                      :
SLAB .        PAIS                       :
CMT1 .        ESC  1 200                 :
CMT2 .        PROF. MEDIDA               :
CMT4 .        SONDA  SS-43               :
HDAT .        SAD 69                     :
FL   .        BASE SAD 69                :
OS1  .        RCI/GR                     :
OS2  .        CHECK SHOT                 :
OS3  .        GR/CN/ZDL                  :
OS5  .        RCOR/GR                    :
LNAM .        ZDL/CN/XMAC/HDIL/EARTH IMAGER/RCI/RCOR/CHECK SHOT/GR :
TOOL .        ZDL/CN/XMAC/HDIL/EARTH IMAGER/RCI/RCOR/CHECK SHOT/GR :
LSOU .        PETROBRAS                  :
LSRV .        OH WIRELINE                :
LTYP .        RAW                        :
EPD  .M                0                 :
LDAT .        15/11/2004                 :
TRIP .                 3                 :
SON  .            786588                 :
CBDR .M             4277                 :
CBLO .        NR                         :
CBL1 .        NR                         :
STEM .DEGF    N/A                        :
BSAL .            254762                 :
BARI .        OFF                        :
DLAB .        12/11/2004                 :
MRT  .DEGF           290                 :
TSTR .        HDIL/XMAC/GR/TTRM          :
TSTG .        N/A                        :
STUS .        FINAL                      :
LCNM .        BAKER ATLAS                :
LCC  .               150                 :
NATI .        BRASIL                     :
OPMD .        OH.WIRELINE                :
PANA .        HERNANDEZ / LOCK           :
PCON .        BAKER ATLAS                :
R11  .        SL     5268.3 M / 5000.0 M :
R12  .        GR     5268.3 M / 5000.0 M :
R13  .        XMAC   5279.5 M / 5000.0 M :
R14  .        HDIL   5289.0 M / 5000.0 M :
R17  .        11. DECLINAÇÃO MAGNETICA  -20.9 GRAUS :
R18  .        12. COORDENADAS BASE       :
R21  .        Y    583936.00 M           :
R22  .        MC  45 GRAUS               :
PVER .           4.10000                 :
WDFN .        /space/expusr/3-SPS-41D_RUN2/i77bf02_2spf.xtf :
OCT  .        i77bf                      :
OS4  .        EARTH IMAGER               :
R16  .        10. PONTO FRACO UTILIZADO  10K :
R20  .        X   7292512.00 M           :
R24  .        13. CADASTRO ANP  86316021017 :
#-----------------------------------------------------------------------------
~CURVE INFORMATION
#MNEM.UNIT   API CODE                                  DESCRIPTION
#---- -----  --------                                  -----------------------
DEPT .M                                                :DEPTH (BOREHOLE) {F10.4}
DEPT .M                                                : {F13.4}
DT   .US/F                                             : {F13.4}
SFN1 .US                                               : {F13.4}
SFN2 .US                                               : {F13.4}
SFN3 .US                                               : {F13.4}
SFN4 .US                                               : {F13.4}
TT   .MS                                               : {F13.4}
#-----------------------------------------------------------------------------
# 
#     DEPT        DEPT         DT           SFN1         SFN2         SFN3         SFN4         TT
#
~A  
# ...
 4947.8184    4947.8184      67.3867     698.0000     728.0000     767.5000     799.3750      74.2598
 4947.6660    4947.6660      67.3257     698.0000     730.0000     766.6250     800.0000      74.2935
 4947.5136    4947.5136      67.2417     697.3754     729.9991     767.9994     800.0000      74.3271
 4947.3612    4947.3612      67.3049     698.1253     728.0004     766.7504     800.0000      74.3608
 4947.2088    4947.2088      67.5582     698.4977     728.4998     767.2502     799.9998      74.3946
 4947.0564    4947.0564      67.9176     696.6240     728.3752     767.3756     799.8752      74.4285
 4946.9040    4946.9040      68.1631     696.0000     728.4990     767.7469     800.0000      74.4626
 4946.7516    4946.7516      68.0682     696.0000     728.0020     766.1316     800.0000      74.4965
 4946.5992    4946.5992      67.5650     695.2528     727.3773     764.2570     798.6301      74.5303
 4946.4468    4946.4468      67.5631     695.9975     727.9979     766.4925     799.8708      74.5304
 4946.2944    4946.2944    -999.2500     696.0000     723.8873     760.0194     794.1422    -999.2500
 4946.1420    4946.1420    -999.2500     696.0000     721.1322     760.0000     795.2471    -999.2500
 4945.9896    4945.9896    -999.2500     695.0022     721.2497     762.6191     795.9983    -999.2500
 4945.8372    4945.8372    -999.2500     696.3724     727.9873     763.9974     798.7448    -999.2500
 4945.6848    4945.6848    -999.2500     697.7479     728.9985     766.1218     798.6252    -999.2500
 4945.5324    4945.5324    -999.2500     697.2506     728.6254     767.8730     798.8747    -999.2500
 4945.3800    4945.3800    -999.2500     697.0002     729.3744     767.9999     799.9991    -999.2500
 4945.2276    4945.2276    -999.2500     699.7489     729.6249     768.0000     800.0000    -999.2500
 4945.0752    4945.0752    -999.2500     702.3750     733.0000     768.0000     800.3750    -999.2500
 4944.9228    4944.9229    -999.2500     704.0000     734.1250     769.2500     800.8750    -999.2500
 4944.7704    4944.7704    -999.2500     704.0000     736.0000     770.3758     802.7512    -999.2500
 4944.6180    4944.6180    -999.2500     704.0001     736.0000     771.5003     804.5004    -999.2500
 4944.4656    4944.4656    -999.2500     704.1255     736.0013     771.7520     804.8775    -999.2500
 4944.3132    4944.3132    -999.2500     704.4991     736.8739     773.1259     806.6255    -999.2500
 4944.1608    4944.1608    -999.2500     704.0021     736.2526     773.6229     806.8740    -999.2500
 4944.0084    4944.0084    -999.2500     704.0000     736.2500     774.3721     806.6260    -999.2500
 4943.8560    4943.8560    -999.2500     704.0000     736.0009     775.3715     807.6215    -999.2500
 4943.7036    4943.7036    -999.2500     707.8629     736.0000     773.8797     807.9988    -999.2500
 4943.5512    4943.5512    -999.2500     706.1298     740.2383     773.9997     807.1274    -999.2500
 4943.3988    4943.3988    -999.2500     706.0003     738.3795     775.9952     805.6286    -999.2500
 4943.2464    4943.2464    -999.2500     705.5010     738.4997     775.8753     808.6190    -999.2500
 4943.0940    4943.0940    -999.2500     705.3752     738.3752     775.9998     808.0010    -999.2500
 4942.9416    4942.9416    -999.2500     704.6260     736.7521     775.8752     808.0000    -999.2500
 4942.7892    4942.7892    -999.2500     705.6241     737.4993     775.6252     808.0000    -999.2500
 4942.6368    4942.6368    -999.2500     704.0009     737.2501     775.8749     808.0000    -999.2500
 4942.4844    4942.4844    -999.2500     704.0000     736.3750     776.0000     808.0000    -999.2500
 4942.3320    4942.3320    -999.2500     704.0000     736.0000     775.1250     808.0000    -999.2500
 4942.1796    4942.1796    -999.2500     704.0000     736.0001     773.9999     807.8749    -999.2500
 4942.0272    4942.0272    -999.2500     704.0007     736.1256     773.8761     807.6254    -999.2500
 4941.8748    4941.8748    -999.2500     704.7490     736.7490     774.9979     807.9977    -999.2500
 4941.7224    4941.7224    -999.2500     704.0000     735.9996     773.3737     806.2485    -999.2500
 4941.5700    4941.5700    -999.2500     704.0000     735.7511     772.6282     805.3788    -999.2500
 4941.4176    4941.4176    -999.2500     704.0000     735.9990     771.3800     805.6240    -999.2500
 4941.2652    4941.2652    -999.2500     704.2491     736.0000     772.2468     806.2477    -999.2500
 4941.1128    4941.1128    -999.2500     704.0008     736.0000     773.4959     806.0008    -999.2500
 4940.9604    4940.9604    -999.2500     704.0000     736.0000     774.2478     807.1218    -999.2500
 4940.8080    4940.8080    -999.2500     704.0000     736.3741     774.7487     807.6237    -999.2500
 4940.6556    4940.6556    -999.2500     704.2495     736.2503     775.3737     807.9992    -999.2500
 4940.5032    4940.5032    -999.2500     706.9951     737.1234     775.9989     808.0000    -999.2500
 4940.3508    4940.3508    -999.2500     709.2468     739.6215     776.7489     809.9972    -999.2500
 4940.1984    4940.1984    -999.2500     710.2490     741.9975     777.3744     811.2487    -999.2500
 4940.0460    4940.0460    -999.2500     710.0002     743.2492     778.6242     811.6247    -999.2500
 4939.8936    4939.8936    -999.2500     711.2500     743.3750     779.7500     814.2500    -999.2500
 4939.7412    4939.7412    -999.2500     712.0000     743.5000     779.7500     814.5000    -999.2500
 4939.5888    4939.5888    -999.2500     712.0001     744.0000     781.0006     814.3755    -999.2500
 4939.4364    4939.4364    -999.2500     712.1250     744.0010     782.2508     815.5004    -999.2500
 4939.2840    4939.2840    -999.2500    -999.2500     745.2500     783.2507     816.0003    -999.2500
 4939.1316    4939.1316    -999.2500    -999.2500    -999.2500     783.8750     816.2533    -999.2500
