~VERSION INFORMATION
VERS.           2.0   :CWLS Log ASCII Standard - VERSION 2.0
WRAP.           NO    :One Line per depth step
PROD.  Schlumberger   :LAS Producer
PROG.  DLIS to ASCII 2.3                               :LAS Program name and version
CREA.        2023/07/14 00:15                          :LAS Creation date {YYYY/MM/DD hh:mm}
DLIS_CREA.  2023-Jul-14 00:11                          :DLIS Creation date and time {YYYY-MMM-DD hh:mm}
SOURCE.     LIS_008.dlis                               :DLIS File Name
FILE-ID.     LIS   .001                                :File Identification Number
#--------------------------------------------------
~WELL INFORMATION
#MNEM.UNIT      DATA             DESCRIPTION
#---- ------ --------------   -----------------------------
STRT .M      5286.4512       :START DEPTH     
STOP .M      5066.6904       :STOP DEPTH     
STEP .M        -0.1524       :STEP     
NULL .          -999.25      :NULL VALUE
COMP .        PETROBRAS S.A.                           :COMPANY
WELL .        3-BRSA-293D-SPS                          :WELL
FLD  .        BS-400                                   :FIELD
LOC  .        BASE SAD 69:                             :LOCATION
CNTY .        SANTOS                                   :COUNTY
STAT .        BRASIL                                   :STATE
CTRY .        BRASIL                                   :COUNTRY
API  .                                                 :API NUMBER
UWI  .                                                 :UNIQUE WELL ID
DATE .        15/11/2004                               :LOG DATE
SRVC .        Schlumberger                             :SERVICE COMPANY
LATI .DEG                                              :LATITUDE
LONG .DEG                                              :LONGITUDE
GDAT .                                                 :GeoDetic Datum
#-----------------------------------------------------------------------------
~PARAMETER INFORMATION
#MNEM.UNIT    VALUE                      DESCRIPTION
#---- -----   --------------------       ------------------------
APD  .M               24                 :
BHT  .DEGF           260                 :
BLI  .M             5289                 :
BS   .IN         8.50000                 :
CN   .        PETROBRAS S.A.             :
COUN .        SANTOS                     :
CS   .IN         9.62500                 :
DATE .        15/11/2004                 :
DFD  .LB/G      12.30000                 :
DFL  .C3               2                 :
DFPH .        N/A                        :
DFT  .        SINTETICO                  :
DFV  .S               95                 :
DMF  .        MESA ROTATIVA              :
EDF  .M               24                 :
EGL  .M             -500                 :
EKB  .        N/A                        :
ENGI .        HERNANDEZ / LOCK           :
FL1  .        X   7292392.00 M LAT 24 28 47.189 S :
FL2  .        Y    584087.00 M LON 44 10 12.698 W :
FL3  .        MC  45 GRAUS               :
FN   .        BS-400                     :
LMF  .        MESA ROTATIVA              :
LUL  .        MACAE                      :
MCSS .        PRENSA                     :
MCST .DEGF            80                 :
MFSS .        PRENSA                     :
MFST .DEGF            80                 :
MSS  .        LINHA DE FLUXO             :
MST  .DEGF            80                 :
PDAT .        NIVEL DO MAR               :
R1   .        01. APRESENTAÇÃO DE ACORDO COM REQUERIMENTO DO CLIENTE :
R2   .        02. TEMPERATURA MÁXIMA DO POÇO T1=T2= 290 DEGF @  5275 M :
R3   .        03. INICIO DA CIRCULAÇÃO  12/11/2004 09 00 H :
R4   .        04. FINAL DA CIRCULAÇÃO   12/11/2004 18 00 H :
R5   .        05. TEMPO TOTAL DE CIRCULAÇÃO   09 00 H :
R6   .        06. FLUIDO DE PERFURAÇÃO  SINTETICO (BR-MUL  BR-MI)  60% TEOR DO OLEO :
R7   .        07. SALINIDADE DA LAMA  254762 PPM NACL NA FASE DE AGUA :
R8   .        08. INCLINAÇÃO MÁXIMA DO POÇO  37.37 GRAUS @ 5100 M :
R9   .        09. PRIMEIRAS E ULTIMAS LEITURAS  :
RMB  .OHMM    > 10                       :
RMCS .OHMM    > 10                       :
RMFS .OHMM    > 10                       :
RMS  .OHMM    >10                        :
RUN  .                 2                 :
STAT .        BRASIL                     :
TCS  .        18 00 H                    :
TDD  .M             5288                 :
TDL  .M             5293                 :
TLAB .        N/A                        :
TLI  .M             5000                 :
WITN .        ERNANI / ZE MARIA          :
WN   .        3-BRSA-293D-SPS            :
LUN  .              8808                 :
HIDE .        3-SPS-41D                  :
HID2 .        HIGH DEFINITION INDUCTION LOG :
HID3 .        X-MULTIPOLE ARRAY ACOUSTILOG :
HID4 .        GAMMA RAY LOG              :
HID5 .        TTRM SUB                   :
CLAB .        BACIA                      :
SLAB .        PAIS                       :
CMT1 .        ESC  1 200                 :
CMT2 .        PROF. MEDIDA               :
CMT4 .        SONDA  SS-43               :
HDAT .        SAD 69                     :
FL   .        BASE SAD 69                :
OS1  .        RCI/GR                     :
OS2  .        CHECK SHOT                 :
OS3  .        GR/CN/ZDL                  :
OS5  .        RCOR/GR                    :
LNAM .        ZDL/CN/XMAC/HDIL/EARTH IMAGER/RCI/RCOR/CHECK SHOT/GR :
TOOL .        ZDL/CN/XMAC/HDIL/EARTH IMAGER/RCI/RCOR/CHECK SHOT/GR :
LSOU .        PETROBRAS                  :
LSRV .        OH WIRELINE                :
LTYP .        RAW                        :
EPD  .M                0                 :
LDAT .        15/11/2004                 :
TRIP .                 3                 :
SON  .            786588                 :
CBDR .M             4277                 :
CBLO .        NR                         :
CBL1 .        NR                         :
STEM .DEGF    N/A                        :
BSAL .            254762                 :
BARI .        OFF                        :
DLAB .        12/11/2004                 :
MRT  .DEGF           290                 :
TSTR .        HDIL/XMAC/GR/TTRM          :
TSTG .        N/A                        :
STUS .        FINAL                      :
LCNM .        BAKER ATLAS                :
LCC  .               150                 :
NATI .        BRASIL                     :
OPMD .        OH.WIRELINE                :
PANA .        HERNANDEZ / LOCK           :
PCON .        BAKER ATLAS                :
R11  .        SL     5268.3 M / 5000.0 M :
R12  .        GR     5268.3 M / 5000.0 M :
R13  .        XMAC   5279.5 M / 5000.0 M :
R14  .        HDIL   5289.0 M / 5000.0 M :
R17  .        11. DECLINAÇÃO MAGNETICA  -20.9 GRAUS :
R18  .        12. COORDENADAS BASE       :
R21  .        Y    583936.00 M           :
R22  .        MC  45 GRAUS               :
PVER .           4.10000                 :
WDFN .        /space/expusr/3-SPS-41D_RUN2/i77bf01_2spf.xtf :
OCT  .        i77bf                      :
OS4  .        EARTH IMAGER               :
R16  .        10. PONTO FRACO UTILIZADO  10K :
R20  .        X   7292512.00 M           :
R24  .        13. CADASTRO ANP  86316021017 :
#-----------------------------------------------------------------------------
~CURVE INFORMATION
#MNEM.UNIT   API CODE                                  DESCRIPTION
#---- -----  --------                                  -----------------------
DEPT .M                                                :DEPTH (BOREHOLE) {F10.4}
DEPT .M                                                : {F13.4}
DT   .US/F                                             : {F13.4}
SFN1 .US                                               : {F13.4}
SFN2 .US                                               : {F13.4}
SFN3 .US                                               : {F13.4}
SFN4 .US                                               : {F13.4}
TT   .MS                                               : {F13.4}
#-----------------------------------------------------------------------------
# 
#     DEPT        DEPT         DT           SFN1         SFN2         SFN3         SFN4         TT
#
~A  
# ...
 5202.1740    5202.1740      64.5100     662.9993     691.5047     728.9989     760.0008      17.3627
 5202.0216    5202.0216      65.1310     666.7472     694.8724     728.0008     760.4996      17.3953
 5201.8692    5201.8691      65.6088     664.3750     698.0000     729.3750     760.0000      17.4281
 5201.7168    5201.7168      65.6410     672.2500     696.1250     734.3750     762.1250      17.4609
 5201.5644    5201.5645      65.1547     671.7500     703.0000     730.7500     766.1250      17.4935
 5201.4120    5201.4120      64.4198     672.8740     703.1231     735.9993     760.0055      17.5258
 5201.2596    5201.2596      63.8337     671.5000     700.4978     734.9985     767.6208      17.5577
 5201.1072    5201.1072      63.6698     671.5000     698.5098     733.6318     763.7691      17.5893
 5200.9548    5200.9548      63.8651     671.1267     699.9931     735.6158     767.9805      17.6213
 5200.8024    5200.8024      64.1950     670.5026     700.9958     735.9984     766.8797      17.6534
 5200.6500    5200.6500      64.5184     670.0019     700.0038     735.0038     766.5014      17.6857
 5200.4976    5200.4976      64.7243     668.2561     698.5052     735.9965     766.8737      17.7180
 5200.3452    5200.3452      64.7091     666.0070     697.6277     735.2523     766.7504      17.7504
 5200.1928    5200.1928      64.4549     670.8616     697.8743     735.2500     766.5007      17.7826
 5200.0404    5200.0404      64.0858     670.5009     702.8632     735.9982     767.9964      17.8147
 5199.8880    5199.8880      63.8496     666.2585     696.0138     732.5070     761.2635      17.8466
 5199.7356    5199.7356      63.9550     665.1268     697.1232     732.9992     764.3699      17.8786
 5199.5832    5199.5832      64.3582     666.9976     697.3747     734.3733     764.0005      17.9108
 5199.4308    5199.4308      64.8049     670.3720     697.2501     732.3768     764.8742      17.9432
 5199.2784    5199.2784      65.0213     668.1262     699.4988     734.3740     764.3753      17.9757
 5199.1260    5199.1260      64.8060     664.7500     697.1250     733.7500     764.3750      18.0082
 5198.9736    5198.9736      64.2686     664.0000     696.0000     734.7500     765.3750      18.0403
 5198.8212    5198.8212      63.8347     665.9988     695.9982     730.6235     766.7462      18.0722
 5198.6688    5198.6688      63.9134     664.0000     693.0025     728.0001     760.2498      18.1042
 5198.5164    5198.5164      64.6508     664.0028     695.6271     728.1309     760.0077      18.1365
 5198.3640    5198.3640      65.7594     666.1150     697.2424     732.6039     765.8475      18.1692
 5198.2116    5198.2116      66.7143     670.8543     697.6234     735.9853     766.8707      18.2026
 5198.0592    5198.0592      67.2039     671.7465     699.1190     735.1285     766.1280      18.2362
 5197.9068    5197.9068      67.3569     669.3836     703.2351     736.4950     767.9932      18.2699
 5197.7544    5197.7544      67.4390     671.9915     699.8859     739.1165     768.7476      18.3036
 5197.6020    5197.6020      67.5876     672.0000     702.7417     736.0090     772.4892      18.3374
 5197.4496    5197.4496      67.6485     672.0000     702.9994     736.0000     696.1914      18.3713
 5197.2972    5197.2972      67.1595     679.9829     711.3571     744.2324     775.8293      18.4049
 5197.1448    5197.1448      65.8615     673.7610     705.2608     739.8827     772.8805      18.4378
 5196.9924    5196.9924      64.1573     678.7430     704.7507     743.6198     773.3743      18.4699
 5196.8400    5196.8400      62.8545     672.0069     704.0008     743.3753     768.0055      18.5013
 5196.6876    5196.6876      62.6220     665.5043     696.0053     735.5052     766.2511      18.5327
 5196.5352    5196.5352      63.4607     664.8750     697.0000     734.7500     760.0000      18.5644
 5196.3828    5196.3828      64.5355     672.0000     704.0000     741.0000     773.1250      18.5967
 5196.2304    5196.2304      65.0136     676.6241     704.2498     740.2486     769.9991      18.6292
 5196.0780    5196.0780      64.8941     674.6294     703.7502     737.1260     768.0010      18.6617
 5195.9256    5195.9256      64.7629     679.9905     704.0010     738.3729     769.2485      18.6941
 5195.7732    5195.7732      65.0888     672.0386     704.8708     736.6334     768.0060      18.7264
 5195.6208    5195.6208      65.8614     672.7466     704.0039     743.9669     769.8666      18.7593
 5195.4684    5195.4684      66.5726     677.4805     707.6101     744.0000     777.3442      18.7926
 5195.3160    5195.3160      66.7364     676.2547     706.7533     744.0000     776.0051      18.8260
 5195.1636    5195.1636      66.4548     672.1389     706.0025     743.3771     775.8754      18.8593
 5195.0112    5195.0112      66.0249     672.0004     704.0060     742.6273     775.0026      18.8923
 5194.8588    5194.8588      65.5293     670.7533     704.0000     738.8849     774.0026      18.9251
 5194.7064    5194.7064      64.9212     669.3781     700.5079     736.3807     768.8866      18.9575
 5194.5540    5194.5540      64.0932     665.1331     698.7533     736.0007     768.1264      18.9896
 5194.4016    5194.4016      63.1234     727.9039     695.8794     735.0015     765.2544      19.0212
 5194.2492    5194.2492      62.4149     664.0742     695.9999     728.0081     764.0014      19.0524
 5194.0968    5194.0968      62.3687     664.7494     694.8759     728.0000     759.8783      19.0836
 5193.9444    5193.9444      62.9852     670.8724     695.9995     728.0000     759.9999      19.1151
 5193.7920    5193.7920      63.9461     664.0000     698.8750     729.6250     759.5000      19.1471
 5193.6396    5193.6396      64.8859     666.3750     697.7500     735.7500     760.0000      19.1795
 5193.4872    5193.4872      65.5738     669.5014     703.8753     737.3735     773.7426      19.2123
 5193.3348    5193.3348      66.0478     671.5001     704.3750     735.2484     763.0055      19.2454
 5193.1824    5193.1824      66.4441     671.6255     704.3752     733.7521     768.2528      19.2786
 5193.0300    5193.0300      66.7355     671.9983     704.4994     735.2431     770.2408      19.3118
 5192.8776    5192.8776      66.8086     672.0000     704.6245     735.3745     771.2458      19.3452
 5192.7252    5192.7252      66.6324     672.0000     704.6250     735.8731     771.3745      19.3785
 5192.5728    5192.5728      66.2744     672.0000     704.9987     735.8750     771.9978      19.4117
 5192.4204    5192.4204      65.9055     672.0000     705.1246     735.9996     772.0000      19.4446
 5192.2680    5192.2680      65.7425     672.0000     705.2497     736.0000     772.1247      19.4775
 5192.1156    5192.1156      65.9367     672.0000     705.3747     736.0000     772.9979      19.5105
 5191.9632    5191.9632      66.4542     672.3742     709.2421     736.0000     773.0000      19.5437
 5191.8108    5191.8108      66.9911     672.4998     704.0087     746.9817     773.1248      19.5772
 5191.6584    5191.6584      67.2327     685.1087     708.6190     735.5149     777.1198      19.6109
 5191.5060    5191.5060      67.0936     687.9973     717.8665     746.4898     560.4502      19.6444
 5191.3536    5191.3536      66.7539     688.0000     717.1254     751.3723     549.6309      19.6778
 5191.2012    5191.2012      66.4971     684.3750     712.2500     746.8750     549.6250      19.7111
 5191.0488    5191.0488      66.4702     685.7500     716.8750     752.0000     614.3750      19.7443
 5190.8964    5190.8964      66.5772     691.8749     720.3756     754.6235     784.9988      19.7776
 5190.7440    5190.7440      66.5103     691.6188     721.4953     752.0022     782.7512      19.8109
 5190.5916    5190.5916      66.0432     684.8792     716.3805     754.3782     784.0090      19.8439
 5190.4392    5190.4392      65.1824     688.1097     720.6049     756.8632     790.9670      19.8763
 5190.2868    5190.2868      64.2446     689.6184     723.7363     758.7418     790.3777      19.9085
