~VERSION INFORMATION
VERS.           2.0   :CWLS Log ASCII Standard - VERSION 2.0
WRAP.           YES   :Multiple lines per depth step
PROD.  Schlumberger   :LAS Producer
PROG.  DLIS to ASCII 2.3                               :LAS Program name and version
CREA.        2023/07/14 00:15                          :LAS Creation date {YYYY/MM/DD hh:mm}
DLIS_CREA.  2023-Jul-14 00:11                          :DLIS Creation date and time {YYYY-MMM-DD hh:mm}
SOURCE.     LIS_012.dlis                               :DLIS File Name
FILE-ID.     LIS   .001                                :File Identification Number
#--------------------------------------------------
~WELL INFORMATION
#MNEM.UNIT      DATA             DESCRIPTION
#---- ------ --------------   -----------------------------
STRT .M      5265.1152       :START DEPTH     
STOP .M      5185.4100       :STOP DEPTH     
STEP .M        -0.1524       :STEP     
NULL .          -999.25      :NULL VALUE
COMP .        PETROBRAS S.A.                           :COMPANY
WELL .        3-BRSA-293D-SPS                          :WELL
FLD  .        BS-400                                   :FIELD
LOC  .        BASE SAD 69:                             :LOCATION
CNTY .        SANTOS                                   :COUNTY
STAT .        BRASIL                                   :STATE
CTRY .        BRASIL                                   :COUNTRY
API  .                                                 :API NUMBER
UWI  .                                                 :UNIQUE WELL ID
DATE .        15/11/2004                               :LOG DATE
SRVC .        Schlumberger                             :SERVICE COMPANY
LATI .DEG                                              :LATITUDE
LONG .DEG                                              :LONGITUDE
GDAT .                                                 :GeoDetic Datum
#-----------------------------------------------------------------------------
~PARAMETER INFORMATION
#MNEM.UNIT    VALUE                      DESCRIPTION
#---- -----   --------------------       ------------------------
APD  .M               24                 :
BHT  .DEGF           260                 :
BLI  .M             5289                 :
BS   .IN         8.50000                 :
CN   .        PETROBRAS S.A.             :
COUN .        SANTOS                     :
CS   .IN         9.62500                 :
DATE .        15/11/2004                 :
DFD  .LB/G      12.30000                 :
DFL  .C3               2                 :
DFPH .        N/A                        :
DFT  .        SINTETICO                  :
DFV  .S               95                 :
DMF  .        MESA ROTATIVA              :
EDF  .M               24                 :
EGL  .M             -500                 :
EKB  .        N/A                        :
ENGI .        HERNANDEZ / LOCK           :
FL1  .        X   7292392.00 M LAT 24 28 47.189 S :
FL2  .        Y    584087.00 M LON 44 10 12.698 W :
FL3  .        MC  45 GRAUS               :
FN   .        BS-400                     :
LMF  .        MESA ROTATIVA              :
LUL  .        MACAE                      :
MCSS .        PRENSA                     :
MCST .DEGF            80                 :
MFSS .        PRENSA                     :
MFST .DEGF            80                 :
MSS  .        LINHA DE FLUXO             :
MST  .DEGF            80                 :
PDAT .        NIVEL DO MAR               :
R1   .        01. APRESENTAÇÃO DE ACORDO COM REQUERIMENTO DO CLIENTE :
R2   .        02. TEMPERATURA MÁXIMA DO POÇO T1=T2= 292 DEGF @  5277 M :
R3   .        03. INICIO DA CIRCULAÇÃO  12/11/2004 09 00 H :
R4   .        04. FINAL DA CIRCULAÇÃO   12/11/2004 18 00 H :
R5   .        05. TEMPO TOTAL DE CIRCULAÇÃO   09 00 H :
R6   .        06. FLUIDO DE PERFURAÇÃO  SINTETICO (BR-MUL  BR-MI)  60% TEOR DO OLEO :
R7   .        07. SALINIDADE DA LAMA  254762 PPM NACL NA FASE DE AGUA :
R8   .        08. INCLINAÇÃO MÁXIMA DO POÇO  37.37 GRAUS @ 5100 M :
R9   .        09. PRIMEIRAS E ULTIMAS LEITURAS  :
RMB  .OHMM    > 10                       :
RMCS .OHMM    > 10                       :
RMFS .OHMM    > 10                       :
RMS  .OHMM    >10                        :
RUN  .                 2                 :
STAT .        BRASIL                     :
TCS  .        18 00 H                    :
TDD  .M             5288                 :
TDL  .M             5293                 :
TLAB .        N/A                        :
TLI  .M             4277                 :
WITN .        ERNANI / ZE MARIA          :
WN   .        3-BRSA-293D-SPS            :
LUN  .              8808                 :
HIDE .        3-SPS-41D                  :
HID2 .        COMPENSATED Z-DENSILOG     :
HID3 .        COMPENSATED NEUTRON LOG    :
HID4 .        GAMMA RAY LOG              :
HID5 .        TTRM SUB                   :
CLAB .        BACIA                      :
SLAB .        PAIS                       :
CMT1 .        ESC  1 1000                :
CMT2 .        PROF. MEDIDA               :
CMT4 .        SONDA  SS-43               :
HDAT .        SAD 69                     :
FL   .        BASE SAD 69                :
OS1  .        RCI/GR                     :
OS2  .        CHECK SHOT                 :
OS3  .        GR/XMAC/HDIL               :
OS5  .        RCOR/GR                    :
LNAM .        ZDL/CN/XMAC/HDIL/EARTH IMAGER/RCI/RCOR/CHECK SHOT/GR :
TOOL .        ZDL/CN/XMAC/HDIL/EARTH IMAGER/RCI/RCOR/CHECK SHOT/GR :
LSOU .        PETROBRAS                  :
LSRV .        OH WIRELINE                :
LTYP .        RAW                        :
EPD  .M                0                 :
LDAT .        15/11/2004                 :
TRIP .                 4                 :
SON  .            786588                 :
CBDR .M             4277                 :
CBLO .        NR                         :
CBL1 .        NR                         :
STEM .DEGF    N/A                        :
BSAL .            254762                 :
BARI .        OFF                        :
DLAB .        12/11/2004                 :
MRT  .DEGF           292                 :
TSTR .        ZDL/CN/GR/TTRM             :
TSTG .        N/A                        :
STUS .        FINAL                      :
LCNM .        BAKER ATLAS                :
LCC  .               150                 :
NATI .        BRASIL                     :
OPMD .        OH.WIRELINE                :
PANA .        HERNANDEZ / LOCK           :
PCON .        BAKER ATLAS                :
R11  .        GR     5268.3 M / 4277.0 M :
R12  .        CN     5286.5 M / 5128.0 M (FERRAMENTA PERDEU LEITURA ACIMA DE 5128M) :
R13  .        ZDL    5292.0 M / 4277.0 M :
R15  .        10. PONTO FRACO UTILIZADO  10K :
R17  .        12. COORDENADAS BASE       :
R19  .        X   7292512.00 M           :
R21  .        MC  45 GRAUS               :
R23  .        13. CADASTRO ANP  86316021017 :
PVER .           4.10000                 :
WDFN .        /space/expusr/3-SPS-41D_RUN2/i77bf03_8spf.xtf :
OCT  .        i77bf                      :
OS4  .        EARTH IMAGER               :
R16  .        11. DECLINAÇÃO MAGNETICA  -20.9 GRAUS :
R20  .        Y    583936.00 M           :
#-----------------------------------------------------------------------------
~CURVE INFORMATION
#MNEM.UNIT   API CODE                                  DESCRIPTION
#---- -----  --------                                  -----------------------
DEPT .M                                                :DEPTH (BOREHOLE) {F10.4}
DEPT .M                                                : {F13.4}
BIT  .IN                                               : {F13.4}
DEPM .M                                                : {F13.4}
GR   .GAPI                                             : {F13.4}
SPD  .M/MN                                             : {F13.4}
TTEN .LBF                                              : {F13.4}
CAL  .IN                                               : {F13.4}
CALX .IN                                               : {F13.4}
HRD1 .HZ                                               : {F13.4}
HRD2 .HZ                                               : {F13.4}
PE   .B/E                                              : {F13.4}
SFT2 .HZ                                               : {F13.4}
SOFT .HZ                                               : {F13.4}
SSD  .HZ                                               : {F13.4}
ZCOR .G/C3                                             : {F13.4}
ZDEN .G/C3                                             : {F13.4}
CNC  .PU                                               : {F13.4}
CN   .PU                                               : {F13.4}
LSN  .HZ                                               : {F13.4}
SSN  .HZ                                               : {F13.4}
CNCF .PU                                               : {F13.4}
MMRK .MN                                               : {F13.4}
#-----------------------------------------------------------------------------
# DEPT       
#     DEPT         BIT          DEPM         GR           SPD          TTEN         
#     CAL          CALX         HRD1         HRD2         PE           SFT2         
#     SOFT         SSD          ZCOR         ZDEN         CNC          CN           
#     LSN          SSN          CNCF         MMRK         
~A  
# ...
5260.8480
   5260.8480       8.5000    5260.5550    -999.2500       6.2891    7391.6356
      8.4242       8.4230     549.4654     757.1513       9.9091     393.0998
    221.9115    6540.4909      -0.0272       2.6171    -999.2500    -999.2500
   -999.2500    -999.2500    -999.2500       0.0000
5260.6956
   5260.6956       8.5000    5260.4026    -999.2500       6.2799    7415.1225
      8.4300       8.4259     526.7534     767.9260      10.3330     389.3731
    215.8164    6551.6327      -0.0228       2.6189    -999.2500    -999.2500
   -999.2500    -999.2500    -999.2500       0.3453
5260.5432
   5260.5432       8.5000    5260.2502    -999.2500       6.2862    7428.6217
      8.4546       8.4389     546.6044     772.1720      10.5204     392.6947
    213.1997    6549.0202      -0.0296       2.6133    -999.2500    -999.2500
   -999.2500    -999.2500    -999.2500       0.0009
5260.3908
   5260.3908       8.5000    5260.0978    -999.2500       6.2532    7453.5706
      8.4967       8.4764     541.3965     745.0495       9.1562     388.1501
    227.1557    6564.5035      -0.0193       2.6207    -999.2500    -999.2500
   -999.2500    -999.2500    -999.2500       0.0000
5260.2384
   5260.2384       8.5000    5259.9445    -999.2500       6.2352    7503.6767
      8.5415       8.5154     539.7949     771.8003       7.8185     380.6403
    261.5032    6567.7574      -0.0256       2.6144    -999.2500    -999.2500
   -999.2500    -999.2500    -999.2500       0.0000
5260.0860
   5260.0860       8.5000    5259.7921    -999.2500       6.2612    7557.5984
      8.6128       8.5770     550.0582     779.6548       6.9413     418.9955
    284.0087    6572.5037      -0.0261       2.6101    -999.2500    -999.2500
   -999.2500    -999.2500    -999.2500       0.0000
5259.9336
   5259.9336       8.5000    5259.6396    -999.2500       6.3100    7600.6182
      8.6628       8.6415     564.4839     743.9888       5.9344     464.1168
    301.4154    6541.0479      -0.0280       2.6157    -999.2500    -999.2500
   -999.2500    -999.2500    -999.2500       0.0000
5259.7812
   5259.7813       8.5000    5259.4883    -999.2500       6.3785    7621.7227
      8.6875       8.6783     592.2773     742.4445       5.6353     466.1848
    313.2659    6648.0625      -0.0229       2.6081    -999.2500    -999.2500
   -999.2500    -999.2500    -999.2500       0.0000
5259.6288
   5259.6288       8.5000    5259.3358    -999.2500       6.4871    7615.5380
      8.6896       8.6889     590.6389     766.7351       5.7635     467.3110
    312.5074    6686.1878      -0.0155       2.5996    -999.2500    -999.2500
   -999.2500    -999.2500    -999.2500       0.0000
5259.4764
   5259.4764       8.5000    5259.1825    -999.2500       6.4449    7573.7738
      8.6990       8.6935     571.6839     766.6611       5.8617     464.7035
    316.9144    6638.3772      -0.0195       2.6034    -999.2500    -999.2500
   -999.2500    -999.2500    -999.2500       0.0000
5259.3240
   5259.3240       8.5000    5259.0301    -999.2500       6.4835    7503.8217
      8.7050       8.7030     560.0339     791.1977       6.2453     447.3727
    305.7045    6624.6131      -0.0246       2.6006    -999.2500    -999.2500
   -999.2500    -999.2500    -999.2500       0.0000
5259.1716
   5259.1716       8.5000    5258.8777    -999.2500       6.4552    7445.1783
      8.7023       8.7044     593.3574     767.8953       6.1632     437.7055
    302.9841    6609.0630      -0.0263       2.5971    -999.2500    -999.2500
   -999.2500    -999.2500    -999.2500       0.0000
5259.0192
   5259.0192       8.5000    5258.7262    -999.2500       6.4265    7437.9522
      8.7064       8.7029     597.8089     800.0937       6.0398     468.6209
    318.5322    6596.5790      -0.0410       2.5885    -999.2500    -999.2500
   -999.2500    -999.2500    -999.2500       0.0000
5258.8668
   5258.8668       8.5000    5258.5738    -999.2500       6.4033    7459.8942
      8.7079       8.7088     584.2049     798.1778       5.7514     500.1102
    328.4610    6649.1732      -0.0251       2.5931    -999.2500    -999.2500
   -999.2500    -999.2500    -999.2500       0.0000
5258.7144
   5258.7144       8.5000    5258.4214    -999.2500       6.4250    7475.7780
      8.7042       8.7055     593.5322     762.5208       5.4083     491.3549
    324.5927    6637.8730      -0.0265       2.6000    -999.2500    -999.2500
   -999.2500    -999.2500    -999.2500       0.0000
5258.5620
   5258.5620       8.5000    5258.2690    -999.2500       6.4511    7477.1501
      8.7102       8.7053     607.5732     766.2478       4.6717     500.4835
    358.4433    6702.9975      -0.0192       2.5982    -999.2500    -999.2500
   -999.2500    -999.2500    -999.2500       0.0000
5258.4096
   5258.4096       8.5000    5258.1166    -999.2500       6.4673    7462.3924
      8.7292       8.7194     540.8175     692.6547       4.4036     460.6802
    338.1641    6605.6648       0.0045       2.6372 -963328.7518    -999.2500
   2086.5975    -999.2500 -963328.7518       0.0000
5258.2572
   5258.2572       8.5000    5257.9642    -999.2500       6.4883    7433.9676
      8.7349       8.7346     567.6451     721.2508       4.5883     454.2933
    331.3915    6543.6752      -0.0270       2.6233      13.3433      13.7450
   2112.1732    4393.5128      13.3433       0.0000
5258.1048
   5258.1048       8.5000    5257.8118    -999.2500       6.4676    7405.0084
      8.7331       8.7335     611.5374     760.1635       4.4274     490.0318
    368.4957    6674.9395      -0.0229       2.5940      12.6469      12.9851
   2160.9425    4373.8798      12.6469       0.0000
5257.9524
   5257.9524       8.5000    5257.6594    -999.2500       6.4351    7381.8760
      8.7357       8.7342     624.7179     780.7680       4.3350     479.8026
    379.6886    6620.9825      -0.0337       2.5826      12.7017      12.9286
   2154.8196    4382.5189      12.7017       0.0000
5257.8000
   5257.8000       8.5000    5257.5070    -999.2500       6.4256    7367.4866
      8.7329       8.7355     621.1666     759.8907       4.3477     487.5807
    373.3052    6610.1573      -0.0327       2.5851      12.8138      13.1522
   2154.9071    4390.5835      12.8138       0.0000
5257.6476
   5257.6476       8.5000    5257.3546    -999.2500       6.4312    7368.7345
      8.7317       8.7306     605.7364     802.0740       5.0867     462.3594
    353.5866    6577.8057      -0.0392       2.5777      12.6369      12.9072
   2166.3241    4391.9443      12.6369       0.0000
5257.4952
   5257.4952       8.5000    5257.2022    -999.2500       6.4566    7382.0173
      8.7308       8.7327     579.3929     769.1648       5.2799     472.2714
    333.6643    6517.2720      -0.0397       2.5928      12.7481      13.0433
   2144.7872    4371.3154      12.7481       0.0000
5257.3428
   5257.3428       8.5000    5257.0498    -999.2500       6.4695    7394.5869
      8.7399       8.7319     604.6354     783.3179       5.3237     459.0725
    337.0345    6653.2686      -0.0327       2.5831      12.1335      12.5012
   2181.0947    4330.2939      12.1335       0.0000
5257.1904
   5257.1904       8.5000    5256.8975    -999.2500       6.4518    7397.7822
      8.7498       8.7477     598.7675     806.9133       5.3688     463.5373
    343.5806    6643.2061      -0.0305       2.5788      12.6256      12.7748
   2119.3555    4310.0791      12.6256       0.0000
5257.0380
   5257.0380       8.5000    5256.7441    -999.2500       6.4706    7384.7530
      8.7482       8.7487     581.2567     776.2111       4.9144     462.0046
    355.2286    6610.1708      -0.0263       2.5930      13.1755      13.5104
   2093.2075    4323.8208      13.1755       0.0000
5256.8856
   5256.8856       8.5000    5256.5917    -999.2500       6.4862    7367.1900
      8.7510       8.7492     582.4073     743.6426       4.9752     452.8225
    329.9656    6600.3514      -0.0251       2.6039      12.5529      12.9617
   2152.7603    4336.3905      12.5529       0.0000
5256.7332
   5256.7332       8.5000    5256.4393    -999.2500       6.4679    7374.8871
      8.7526       8.7524     610.3352     746.3319       4.8528     469.4022
    342.7913    6691.7267      -0.0172       2.5981      11.7783      12.0646
   2219.8987    4346.8641      11.7783       0.0000
