~VERSION INFORMATION
VERS.           2.0   :CWLS Log ASCII Standard - VERSION 2.0
WRAP.           NO    :One Line per depth step
PROD.  Schlumberger   :LAS Producer
PROG.  DLIS to ASCII 2.3                               :LAS Program name and version
CREA.        2023/07/14 00:15                          :LAS Creation date {YYYY/MM/DD hh:mm}
DLIS_CREA.  2023-Jul-14 00:11                          :DLIS Creation date and time {YYYY-MMM-DD hh:mm}
SOURCE.     LIS_011.dlis                               :DLIS File Name
FILE-ID.     LIS   .004                                :File Identification Number
#--------------------------------------------------
~WELL INFORMATION
#MNEM.UNIT      DATA             DESCRIPTION
#---- ------ --------------   -----------------------------
STRT .M      5300.3196       :START DEPTH     
STOP .M      4931.0544       :STOP DEPTH     
STEP .M        -0.1524       :STEP     
NULL .          -999.25      :NULL VALUE
COMP .        PETROBRAS S.A.                           :COMPANY
WELL .        3-BRSA-293D-SPS                          :WELL
FLD  .        BS-400                                   :FIELD
LOC  .        BASE SAD 69:                             :LOCATION
CNTY .        SANTOS                                   :COUNTY
STAT .        BRASIL                                   :STATE
CTRY .        BRASIL                                   :COUNTRY
API  .                                                 :API NUMBER
UWI  .                                                 :UNIQUE WELL ID
DATE .        15/11/2004                               :LOG DATE
SRVC .        Schlumberger                             :SERVICE COMPANY
LATI .DEG                                              :LATITUDE
LONG .DEG                                              :LONGITUDE
GDAT .                                                 :GeoDetic Datum
#-----------------------------------------------------------------------------
~PARAMETER INFORMATION
#MNEM.UNIT    VALUE                      DESCRIPTION
#---- -----   --------------------       ------------------------
APD  .M               24                 :
BHT  .DEGF           260                 :
BLI  .M             5289                 :
BS   .IN         8.50000                 :
CN   .        PETROBRAS S.A.             :
COUN .        SANTOS                     :
CS   .IN         9.62500                 :
DATE .        15/11/2004                 :
DFD  .LB/G      12.30000                 :
DFL  .C3               2                 :
DFPH .        N/A                        :
DFT  .        SINTETICO                  :
DFV  .S               95                 :
DMF  .        MESA ROTATIVA              :
EDF  .M               24                 :
EGL  .M             -500                 :
EKB  .        N/A                        :
ENGI .        HERNANDEZ / LOCK           :
FL1  .        X   7292392.00 M LAT 24 28 47.189 S :
FL2  .        Y    584087.00 M LON 44 10 12.698 W :
FL3  .        MC  45 GRAUS               :
FN   .        BS-400                     :
LMF  .        MESA ROTATIVA              :
LUL  .        MACAE                      :
MCSS .        PRENSA                     :
MCST .DEGF            80                 :
MFSS .        PRENSA                     :
MFST .DEGF            80                 :
MSS  .        LINHA DE FLUXO             :
MST  .DEGF            80                 :
PDAT .        NIVEL DO MAR               :
R1   .        01. APRESENTAÇÃO DE ACORDO COM REQUERIMENTO DO CLIENTE :
R2   .        02. TEMPERATURA MÁXIMA DO POÇO T1=T2= 290 DEGF @  5275 M :
R3   .        03. INICIO DA CIRCULAÇÃO  12/11/2004 09 00 H :
R4   .        04. FINAL DA CIRCULAÇÃO   12/11/2004 18 00 H :
R5   .        05. TEMPO TOTAL DE CIRCULAÇÃO   09 00 H :
R6   .        06. FLUIDO DE PERFURAÇÃO  SINTETICO (BR-MUL  BR-MI)  60% TEOR DO OLEO :
R7   .        07. SALINIDADE DA LAMA  254762 PPM NACL NA FASE DE AGUA :
R8   .        08. INCLINAÇÃO MÁXIMA DO POÇO  37.37 GRAUS @ 5100 M :
R9   .        09. PRIMEIRAS E ULTIMAS LEITURAS  :
RMB  .OHMM    > 10                       :
RMCS .OHMM    > 10                       :
RMFS .OHMM    > 10                       :
RMS  .OHMM    >10                        :
RUN  .                 2                 :
STAT .        BRASIL                     :
TCS  .        18 00 H                    :
TDD  .M             5288                 :
TDL  .M             5293                 :
TLAB .        N/A                        :
TLI  .M             5000                 :
WITN .        ERNANI / ZE MARIA          :
WN   .        3-BRSA-293D-SPS            :
LUN  .              8808                 :
HIDE .        3-SPS-41D                  :
HID2 .        HIGH DEFINITION INDUCTION LOG :
HID3 .        X-MULTIPOLE ARRAY ACOUSTILOG :
HID4 .        GAMMA RAY LOG              :
HID5 .        TTRM SUB                   :
CLAB .        BACIA                      :
SLAB .        PAIS                       :
CMT1 .        ESC  1 200                 :
CMT2 .        PROF. MEDIDA               :
CMT4 .        SONDA  SS-43               :
HDAT .        SAD 69                     :
FL   .        BASE SAD 69                :
OS1  .        RCI/GR                     :
OS2  .        CHECK SHOT                 :
OS3  .        GR/CN/ZDL                  :
OS5  .        RCOR/GR                    :
LNAM .        ZDL/CN/XMAC/HDIL/EARTH IMAGER/RCI/RCOR/CHECK SHOT/GR :
TOOL .        ZDL/CN/XMAC/HDIL/EARTH IMAGER/RCI/RCOR/CHECK SHOT/GR :
LSOU .        PETROBRAS                  :
LSRV .        OH WIRELINE                :
LTYP .        RAW                        :
EPD  .M                0                 :
LDAT .        15/11/2004                 :
TRIP .                 3                 :
SON  .            786588                 :
CBDR .M             4277                 :
CBLO .        NR                         :
CBL1 .        NR                         :
STEM .DEGF    N/A                        :
BSAL .            254762                 :
BARI .        OFF                        :
DLAB .        12/11/2004                 :
MRT  .DEGF           290                 :
TSTR .        HDIL/XMAC/GR/TTRM          :
TSTG .        N/A                        :
STUS .        FINAL                      :
LCNM .        BAKER ATLAS                :
LCC  .               150                 :
NATI .        BRASIL                     :
OPMD .        OH.WIRELINE                :
PANA .        HERNANDEZ / LOCK           :
PCON .        BAKER ATLAS                :
R11  .        SL     5268.3 M / 5000.0 M :
R12  .        GR     5268.3 M / 5000.0 M :
R13  .        XMAC   5279.5 M / 5000.0 M :
R14  .        HDIL   5289.0 M / 5000.0 M :
R17  .        11. DECLINAÇÃO MAGNETICA  -20.9 GRAUS :
R18  .        12. COORDENADAS BASE       :
R21  .        Y    583936.00 M           :
R22  .        MC  45 GRAUS               :
PVER .           4.10000                 :
WDFN .        /space/expusr/3-SPS-41D_RUN2/i77bf02_4spf.xtf :
OCT  .        i77bf                      :
OS4  .        EARTH IMAGER               :
R16  .        10. PONTO FRACO UTILIZADO  10K :
R20  .        X   7292512.00 M           :
R24  .        13. CADASTRO ANP  86316021017 :
#-----------------------------------------------------------------------------
~CURVE INFORMATION
#MNEM.UNIT   API CODE                                  DESCRIPTION
#---- -----  --------                                  -----------------------
DEPT .M                                                :DEPTH (BOREHOLE) {F10.4}
DEPT .M                                                : {F13.4}
BIT  .IN                                               : {F13.4}
GR   .GAPI                                             : {F13.4}
M2R1 .OHMM                                             : {F13.4}
M2R2 .OHMM                                             : {F13.4}
M2R3 .OHMM                                             : {F13.4}
M2R6 .OHMM                                             : {F13.4}
M2R9 .OHMM                                             : {F13.4}
M2RX .OHMM                                             : {F13.4}
SPD  .M/MN                                             : {F13.4}
TEN  .LBF                                              : {F13.4}
TTEN .LBF                                              : {F13.4}
#-----------------------------------------------------------------------------
# 
#     DEPT        DEPT         BIT          GR           M2R1         M2R2         M2R3         M2R6         M2R9         M2RX         SPD          TEN          TTEN
#
~A  
# ...
 4985.7660    4985.7660       8.5000      79.1460       4.3808       5.8639       6.9149       7.4949       7.6580       7.7260       4.9778      -6.6230    7505.7675
 4985.6136    4985.6136       8.5000      73.5451       5.1926       6.7112       7.9183       8.5852       8.7683       8.8539       4.9703     -11.8522    7500.2946
 4985.4612    4985.4612       8.5000      68.7433       6.3554       7.9916       9.4500      10.2746      10.4940      10.6091       4.9688     -26.4190    7485.3242
 4985.3088    4985.3088       8.5000      64.2073       7.7003       9.5536      11.3465      12.3782      12.6469      12.8040       4.9656     -38.5939    7472.5407
 4985.1564    4985.1564       8.5000      57.6339       8.7620      10.9017      13.0085      14.2393      14.5566      14.7602       4.9611     -42.7924    7467.6345
 4985.0040    4985.0040       8.5000      52.5911       8.9065      11.2520      13.4678      14.7876      15.1268      15.3624       4.9537     -44.1841    7465.5028
 4984.8516    4984.8516       8.5000      54.5614       8.2254      10.6041      12.6903      13.9664      14.2948      14.5391       4.9505     -34.7221    7474.2832
 4984.6992    4984.6992       8.5000      60.3258       7.3985       9.7301      11.6032      12.7823      13.0869      13.3286       4.9655      -5.1660    7503.5059
 4984.5468    4984.5468       8.5000      64.3461       6.7361       9.0183      10.6981      11.7812      12.0620      12.2992       4.9865      28.5044    7537.3975
 4984.3944    4984.3944       8.5000      67.1770       6.2523       8.4894      10.0209      11.0240      11.2846      11.5183       4.9899      39.5146    7548.9509
 4984.2420    4984.2420       8.5000      70.6019       5.9194       8.1074       9.5327      10.4739      10.7182      10.9499       4.9798      18.7587    7528.5417
 4984.0896    4984.0896       8.5000      73.4148       5.7024       7.8335       9.1851      10.0810      10.3128      10.5436       4.9697     -11.2388    7498.4238
 4983.9372    4983.9372       8.5000      74.9227       5.5759       7.6505       8.9544       9.8206      10.0442      10.2755       4.9593     -23.2030    7486.0441
 4983.7848    4983.7848       8.5000      75.1519       5.5468       7.5910       8.8768       9.7326       9.9537      10.1881       4.9540     -19.4369    7489.4105
 4983.6324    4983.6324       8.5000      73.2991       5.6373       7.7049       9.0101       9.8789      10.1054      10.3477       4.9626     -17.6753    7490.8843
 4983.4800    4983.4800       8.5000      69.4810       5.8322       7.9788       9.3383      10.2413      10.4808      10.7354       4.9777     -16.5646    7491.8003
 4983.3276    4983.3276       8.5000      65.7915       6.0487       8.2895       9.7153      10.6586      10.9152      11.1825       4.9870     -16.8361    7491.3623
 4983.1752    4983.1752       8.5000      63.5422       6.1780       8.4678       9.9379      10.9066      11.1780      11.4531       4.9916     -26.7355    7481.1359
 4983.0228    4983.0228       8.5000      63.1105       6.1713       8.4402       9.9159      10.8849      11.1649      11.4400       4.9923     -34.8665    7472.4375
 4982.8704    4982.8704       8.5000      63.7083       6.0898       8.3100       9.7693      10.7247      11.0088      11.2800       4.9829     -23.0703    7483.6859
 4982.7180    4982.7180       8.5000      64.1354       6.0071       8.2027       9.6479      10.5901      10.8774      11.1453       4.9688      -0.2856    7506.2753
 4982.5656    4982.5656       8.5000      64.1532       5.9243       8.1257       9.5628      10.4945      10.7840      11.0501       4.9620      13.8980    7520.6662
 4982.4132    4982.4132       8.5000      64.9042       5.8408       8.0611       9.4939      10.4169      10.7074      10.9726       4.9649      13.5165    7520.6749
 4982.2608    4982.2607       8.5000      66.8309       5.7940       8.0361       9.4719      10.3917      10.6833      10.9497       4.9746      -1.4290    7505.9082
 4982.1084    4982.1084       8.5000      69.2681       5.8012       8.0575       9.5032      10.4261      10.7194      10.9890       4.9871     -22.2329    7484.8193
 4981.9560    4981.9561       8.5000      71.4718       5.8470       8.1013       9.5572      10.4866      10.7820      11.0557       4.9924     -31.3878    7475.0645
 4981.8036    4981.8036       8.5000      73.0860       5.9233       8.1637       9.6289      10.5677      10.8657      11.1438       4.9874     -22.4306    7483.5005
 4981.6512    4981.6512       8.5000      73.0612       6.0204       8.2414       9.7157      10.6664      10.9674      11.2499       4.9857      -4.5979    7501.1276
 4981.4988    4981.4988       8.5000      71.2350       6.1199       8.3187       9.8018      10.7657      11.0696      11.3556       4.9896       9.3701    7515.1747
 4981.3464    4981.3464       8.5000      69.1945       6.2559       8.4550       9.9611      10.9464      11.2551      11.5457       4.9847      10.4163    7516.3793
 4981.1940    4981.1940       8.5000      68.4110       6.4744       8.7295      10.2886      11.3128      11.6305      11.9295       4.9704       1.7586    7507.7685
 4981.0416    4981.0416       8.5000      69.1372       6.6959       9.0457      10.6694      11.7385      12.0654      12.3736       4.9633      -7.9607    7497.9297
 4980.8892    4980.8892       8.5000      71.4761       6.7558       9.1765      10.8326      11.9260      12.2538      12.5646       4.9687     -11.6744    7494.0021
 4980.7368    4980.7368       8.5000      74.7925       6.6268       9.0585      10.7001      11.7892      12.1074      12.4128       4.9815      -5.8520    7499.6600
 4980.5844    4980.5844       8.5000      77.9499       6.4177       8.8117      10.4135      11.4836      11.7868      12.0836       4.9904       9.0242    7514.5846
 4980.4320    4980.4320       8.5000      80.7740       6.2177       8.5488      10.1087      11.1587      11.4468      11.7360       4.9872      22.2084    7528.1002
 4980.2796    4980.2796       8.5000      82.6336       6.0770       8.3503       9.8837      10.9229      11.1996      11.4853       4.9773      20.2974    7526.6166
 4980.1272    4980.1272       8.5000      82.1450       6.0212       8.2679       9.7981      10.8422      11.1136      11.4015       4.9725       6.8771    7513.4535
 4979.9748    4979.9748       8.5000      79.6951       6.0246       8.2754       9.8165      10.8764      11.1480      11.4430       4.9716      -5.5699    7501.0042
 4979.8224    4979.8224       8.5000      77.9580       6.0380       8.3009       9.8473      10.9226      11.1976      11.5013       4.9667      -4.4413    7502.0152
 4979.6700    4979.6700       8.5000      77.3332       6.0203       8.2722       9.8011      10.8801      11.1587      11.4695       4.9578       5.3606    7511.7860
 4979.5176    4979.5176       8.5000      76.4530       5.9385       8.1330       9.6145      10.6770      10.9569      11.2703       4.9548       8.4328    7514.9229
 4979.3652    4979.3652       8.5000      76.2551       5.8099       7.9186       9.3374      10.3685      10.6479      10.9602       4.9671       2.8887    7509.4072
 4979.2128    4979.2128       8.5000      78.7293       5.6868       7.7283       9.0944      10.0940      10.3742      10.6853       4.9855       4.9831    7511.5098
 4979.0604    4979.0604       8.5000      81.9519       5.5687       7.5780       8.9073       9.8801      10.1625      10.4729       4.9923      19.7614    7526.5108
 4978.9080    4978.9080       8.5000      82.7958       5.4236       7.4140       8.7114       9.6574       9.9414      10.2492       4.9897      33.6414    7540.9294
 4978.7556    4978.7556       8.5000      81.9490       5.2565       7.2153       8.4796       9.3983       9.6819       9.9842       4.9890      37.9542    7545.9511
 4978.6032    4978.6032       8.5000      81.6401       5.1132       7.0252       8.2618       9.1589       9.4416       9.7375       4.9858      28.7405    7537.3771
