~VERSION INFORMATION
VERS.           2.0   :CWLS Log ASCII Standard - VERSION 2.0
WRAP.           YES   :Multiple lines per depth step
PROD.  Schlumberger   :LAS Producer
PROG.  DLIS to ASCII 2.3                               :LAS Program name and version
CREA.        2023/07/14 00:15                          :LAS Creation date {YYYY/MM/DD hh:mm}
DLIS_CREA.  2023-Jul-14 00:11                          :DLIS Creation date and time {YYYY-MMM-DD hh:mm}
SOURCE.     LIS_013.dlis                               :DLIS File Name
FILE-ID.     LIS   .002                                :File Identification Number
#--------------------------------------------------
~WELL INFORMATION
#MNEM.UNIT      DATA             DESCRIPTION
#---- ------ --------------   -----------------------------
STRT .M      5299.5576       :START DEPTH     
STOP .M      4241.4444       :STOP DEPTH     
STEP .M        -0.1524       :STEP     
NULL .          -999.25      :NULL VALUE
COMP .        PETROBRAS S.A.                           :COMPANY
WELL .        3-BRSA-293D-SPS                          :WELL
FLD  .        BS-400                                   :FIELD
LOC  .        BASE SAD 69:                             :LOCATION
CNTY .        SANTOS                                   :COUNTY
STAT .        BRASIL                                   :STATE
CTRY .        BRASIL                                   :COUNTRY
API  .                                                 :API NUMBER
UWI  .                                                 :UNIQUE WELL ID
DATE .        15/11/2004                               :LOG DATE
SRVC .        Schlumberger                             :SERVICE COMPANY
LATI .DEG                                              :LATITUDE
LONG .DEG                                              :LONGITUDE
GDAT .                                                 :GeoDetic Datum
#-----------------------------------------------------------------------------
~PARAMETER INFORMATION
#MNEM.UNIT    VALUE                      DESCRIPTION
#---- -----   --------------------       ------------------------
APD  .M               24                 :
BHT  .DEGF           260                 :
BLI  .M             5289                 :
BS   .IN         8.50000                 :
CN   .        PETROBRAS S.A.             :
COUN .        SANTOS                     :
CS   .IN         9.62500                 :
DATE .        15/11/2004                 :
DFD  .LB/G      12.30000                 :
DFL  .C3               2                 :
DFPH .        N/A                        :
DFT  .        SINTETICO                  :
DFV  .S               95                 :
DMF  .        MESA ROTATIVA              :
EDF  .M               24                 :
EGL  .M             -500                 :
EKB  .        N/A                        :
ENGI .        HERNANDEZ / LOCK           :
FL1  .        X   7292392.00 M LAT 24 28 47.189 S :
FL2  .        Y    584087.00 M LON 44 10 12.698 W :
FL3  .        MC  45 GRAUS               :
FN   .        BS-400                     :
LMF  .        MESA ROTATIVA              :
LUL  .        MACAE                      :
MCSS .        PRENSA                     :
MCST .DEGF            80                 :
MFSS .        PRENSA                     :
MFST .DEGF            80                 :
MSS  .        LINHA DE FLUXO             :
MST  .DEGF            80                 :
PDAT .        NIVEL DO MAR               :
R1   .        01. APRESENTAÇÃO DE ACORDO COM REQUERIMENTO DO CLIENTE :
R2   .        02. TEMPERATURA MÁXIMA DO POÇO T1=T2= 292 DEGF @  5277 M :
R3   .        03. INICIO DA CIRCULAÇÃO  12/11/2004 09 00 H :
R4   .        04. FINAL DA CIRCULAÇÃO   12/11/2004 18 00 H :
R5   .        05. TEMPO TOTAL DE CIRCULAÇÃO   09 00 H :
R6   .        06. FLUIDO DE PERFURAÇÃO  SINTETICO (BR-MUL  BR-MI)  60% TEOR DO OLEO :
R7   .        07. SALINIDADE DA LAMA  254762 PPM NACL NA FASE DE AGUA :
R8   .        08. INCLINAÇÃO MÁXIMA DO POÇO  37.37 GRAUS @ 5100 M :
R9   .        09. PRIMEIRAS E ULTIMAS LEITURAS  :
RMB  .OHMM    > 10                       :
RMCS .OHMM    > 10                       :
RMFS .OHMM    > 10                       :
RMS  .OHMM    >10                        :
RUN  .                 2                 :
STAT .        BRASIL                     :
TCS  .        18 00 H                    :
TDD  .M             5288                 :
TDL  .M             5293                 :
TLAB .        N/A                        :
TLI  .M             4277                 :
WITN .        ERNANI / ZE MARIA          :
WN   .        3-BRSA-293D-SPS            :
LUN  .              8808                 :
HIDE .        3-SPS-41D                  :
HID2 .        COMPENSATED Z-DENSILOG     :
HID3 .        COMPENSATED NEUTRON LOG    :
HID4 .        GAMMA RAY LOG              :
HID5 .        TTRM SUB                   :
CLAB .        BACIA                      :
SLAB .        PAIS                       :
CMT1 .        ESC  1 1000                :
CMT2 .        PROF. MEDIDA               :
CMT4 .        SONDA  SS-43               :
HDAT .        SAD 69                     :
FL   .        BASE SAD 69                :
OS1  .        RCI/GR                     :
OS2  .        CHECK SHOT                 :
OS3  .        GR/XMAC/HDIL               :
OS5  .        RCOR/GR                    :
LNAM .        ZDL/CN/XMAC/HDIL/EARTH IMAGER/RCI/RCOR/CHECK SHOT/GR :
TOOL .        ZDL/CN/XMAC/HDIL/EARTH IMAGER/RCI/RCOR/CHECK SHOT/GR :
LSOU .        PETROBRAS                  :
LSRV .        OH WIRELINE                :
LTYP .        RAW                        :
EPD  .M                0                 :
LDAT .        15/11/2004                 :
TRIP .                 4                 :
SON  .            786588                 :
CBDR .M             4277                 :
CBLO .        NR                         :
CBL1 .        NR                         :
STEM .DEGF    N/A                        :
BSAL .            254762                 :
BARI .        OFF                        :
DLAB .        12/11/2004                 :
MRT  .DEGF           292                 :
TSTR .        ZDL/CN/GR/TTRM             :
TSTG .        N/A                        :
STUS .        FINAL                      :
LCNM .        BAKER ATLAS                :
LCC  .               150                 :
NATI .        BRASIL                     :
OPMD .        OH.WIRELINE                :
PANA .        HERNANDEZ / LOCK           :
PCON .        BAKER ATLAS                :
R11  .        GR     5268.3 M / 4277.0 M :
R12  .        CN     5286.5 M / 5128.0 M (FERRAMENTA PERDEU LEITURA ACIMA DE 5128M) :
R13  .        ZDL    5292.0 M / 4277.0 M :
R15  .        10. PONTO FRACO UTILIZADO  10K :
R17  .        12. COORDENADAS BASE       :
R19  .        X   7292512.00 M           :
R21  .        MC  45 GRAUS               :
R23  .        13. CADASTRO ANP  86316021017 :
PVER .           4.10000                 :
WDFN .        /space/expusr/3-SPS-41D_RUN2/i77bf04_8spf.xtf :
OCT  .        i77bf                      :
OS4  .        EARTH IMAGER               :
R16  .        11. DECLINAÇÃO MAGNETICA  -20.9 GRAUS :
R20  .        Y    583936.00 M           :
#-----------------------------------------------------------------------------
~CURVE INFORMATION
#MNEM.UNIT   API CODE                                  DESCRIPTION
#---- -----  --------                                  -----------------------
DEPT .M                                                :DEPTH (BOREHOLE) {F10.4}
DEPT .M                                                : {F13.4}
BIT  .IN                                               : {F13.4}
DEPM .M                                                : {F13.4}
GR   .GAPI                                             : {F13.4}
SPD  .M/MN                                             : {F13.4}
TTEN .LBF                                              : {F13.4}
CAL  .IN                                               : {F13.4}
CALX .IN                                               : {F13.4}
HRD1 .HZ                                               : {F13.4}
HRD2 .HZ                                               : {F13.4}
PE   .B/E                                              : {F13.4}
SFT2 .HZ                                               : {F13.4}
SOFT .HZ                                               : {F13.4}
SSD  .HZ                                               : {F13.4}
ZCOR .G/C3                                             : {F13.4}
ZDEN .G/C3                                             : {F13.4}
CNC  .PU                                               : {F13.4}
CN   .PU                                               : {F13.4}
LSN  .HZ                                               : {F13.4}
SSN  .HZ                                               : {F13.4}
CNCF .PU                                               : {F13.4}
MMRK .MN                                               : {F13.4}
#-----------------------------------------------------------------------------
# DEPT       
#     DEPT         BIT          DEPM         GR           SPD          TTEN         
#     CAL          CALX         HRD1         HRD2         PE           SFT2         
#     SOFT         SSD          ZCOR         ZDEN         CNC          CN           
#     LSN          SSN          CNCF         MMRK         
~A  
# ...
4680.8136
   4680.8136       8.5000    4680.1447      89.0199       7.5015    6845.9531
      9.4005       9.4005     595.1891     779.8575       6.0354     457.1788
    308.3509    6618.9423      -0.0301       2.5981       0.0000      18.4018
   1392.1539    3383.5765      17.5807       0.0000
4680.6612
   4680.6612       8.5000    4679.9913      88.8215       7.4908    6929.4313
      9.4148       9.4148     589.9822     771.7021       6.1052     453.9744
    298.9636    6622.2503      -0.0270       2.6015       0.0000      18.5696
   1389.1142    3392.5377      17.7343       0.0000
4680.5088
   4680.5088       8.5000    4679.8389      89.4429       7.5123    7007.6094
      9.4158       9.4158     587.4338     748.1842       5.9693     455.6151
    299.4087    6625.6357      -0.0213       2.6092       0.0000      18.1915
   1397.0322    3374.7959      17.3662       0.0000
4680.3564
   4680.3564       8.5000    4679.6855      89.8407       7.5785    7053.2578
      9.4144       9.4144     578.6039     734.4434       5.8049     458.0453
    304.1188    6590.3682      -0.0216       2.6164       0.0000      17.8611
   1395.9214    3339.5469      17.0460       0.0000
4680.2040
   4680.2040       8.5000    4679.5321      89.4127       7.6596    7058.0379
      9.4141       9.4141     560.5426     738.6775       5.7890     451.6045
    306.5824    6552.9182      -0.0240       2.6202       0.0000      18.2143
   1368.2071    3307.3130      17.3895       0.0000
4680.0516
   4680.0516       8.5000    4679.3797      89.3673       7.7150    7015.1875
      9.4146       9.4146     558.5654     745.8836       5.8312     443.6805
    306.5376    6556.5779      -0.0246       2.6186       0.0000      18.8519
   1332.4541    3280.3266      18.0089       0.0000
4679.8992
   4679.8992       8.5000    4679.2263      90.0208       7.7300    6937.8589
      9.4129       9.4129     575.0140     744.6134       5.8570     443.2180
    307.1136    6595.5836      -0.0222       2.6146       0.0000      19.0507
   1309.1453    3241.0545      18.2034       0.0000
4679.7468
   4679.7468       8.5000    4679.0739      89.7664       7.7211    6862.5263
      9.4097       9.4097     579.2838     743.3900       5.8277     446.1125
    306.1101    6632.1725      -0.0177       2.6137       0.0000      18.8451
   1296.9359    3192.3362      18.0057       0.0000
4679.5944
   4679.5944       8.5000    4678.9215      89.0978       7.7051    6826.5044
      9.4092       9.4092     567.1799     743.2102       5.8294     448.0996
    303.0391    6653.7148      -0.0122       2.6170       0.0000      18.6392
   1296.3384    3172.2567      17.8057       0.0000
4679.4420
   4679.4420       8.5000    4678.7682      89.4813       7.6816    6846.9433
      9.4177       9.4177     560.6036     738.3764       5.8675     447.3117
    299.4325    6652.5342      -0.0100       2.6214       0.0000      18.2983
   1322.0671    3203.6149      17.4687       0.0000
4679.2896
   4679.2896       8.5000    4678.6148      90.1611       7.6615    6895.5955
      9.4411       9.4411     558.8876     729.4209       5.8900     444.7160
    297.6141    6606.0165      -0.0143       2.6250       0.0000      17.7879
   1366.4990    3262.0029      16.9578       0.0000
4679.1372
   4679.1372       8.5000    4678.4624      90.2084       7.6670    6912.7641
      9.4751       9.4751     562.5281     730.1576       5.9247     444.8653
    296.9358    6529.4755      -0.0259       2.6245       0.0000      17.4601
   1402.3770    3314.9653      16.6180       0.0000
4678.9848
   4678.9848       8.5000    4678.3090      90.5803       7.6851    6886.0429
      9.5175       9.5175     571.7067     737.7769       6.1881     447.9138
    291.7478    6509.4427      -0.0323       2.6209       0.0000      17.6729
   1410.5795    3355.7606      16.7973       0.0000
4678.8324
   4678.8324       8.5000    4678.1566      91.5401       7.6861    6867.0379
      9.5748       9.5748     568.1703     746.6979       6.7358     451.6411
    276.7312    6564.8843      -0.0255       2.6191       0.0000      18.2310
   1399.6635    3385.0395      17.3009       0.0000
4678.6800
   4678.6800       8.5000    4678.0032      92.1399       7.6806    6873.2723
      9.6356       9.6356     552.2549     760.7611       7.0577     455.9209
    268.5422    6608.7903      -0.0190       2.6183       0.0000      18.6740
   1386.3621    3395.9105      17.6901       0.0000
4678.5276
   4678.5276       8.5000    4677.8499      91.7364       7.6852    6863.7033
      9.6704       9.6704     548.1107     778.2485       7.0186     454.3981
    278.7387    6614.8382      -0.0209       2.6141       0.0000      19.0379
   1371.5372    3394.2857      18.0191       0.0000
4678.3752
   4678.3752       8.5000    4677.6965      90.4339       7.6777    6837.7797
      9.6741       9.6741     558.6869     782.1957       6.6937     442.0865
    292.2992    6624.7481      -0.0225       2.6101       0.0000      19.5825
   1352.1489    3396.9994      18.5430       0.0000
4678.2228
   4678.2228       8.5000    4677.5441      88.9885       7.6502    6844.9954
      9.6665       9.6665     563.8617     763.0525       6.3266     430.9269
    296.7351    6634.3321      -0.0183       2.6129       0.0000      20.0876
   1337.9149    3407.2896      19.0366       0.0000
4678.0704
   4678.0704       8.5000    4677.3907      89.0758       7.6261    6897.9512
      9.6607       9.6607     559.4901     742.0250       6.1634     429.0497
    294.5525    6631.1422      -0.0135       2.6189       0.0000      20.4535
   1326.8201    3411.8092      19.3947       0.0000
4677.9180
   4677.9180       8.5000    4677.2383      90.0779       7.6199    6962.3633
      9.6604       9.6604     554.1919     747.8772       6.3345     432.8602
    291.1409    6647.0039      -0.0115       2.6185       0.0000      20.8824
   1310.2112    3406.7080      19.8102       0.0000
4677.7656
   4677.7656       8.5000    4677.0850      90.0424       7.6339    6998.9629
      9.6634       9.6634     559.3871     782.7281       6.6993     439.0449
    289.0116    6691.1895      -0.0135       2.6076       0.0000      21.0945
   1300.9297    3400.9253      20.0136       0.0000
4677.6132
   4677.6132       8.5000    4676.9316      89.3063       7.6608    6985.2341
      9.6631       9.6631     575.9841     821.5697       6.8188     447.0254
    294.5446    6719.4140      -0.0205       2.5929       0.0000      20.9368
   1306.3289    3401.3574      19.8610       0.0000
4677.4608
   4677.4608       8.5000    4676.7792      88.9913       7.6829    6931.0935
      9.6580       9.6580     591.9777     835.1125       6.7138     452.4565
    308.3096    6711.4373      -0.0273       2.5844       0.0000      20.8828
   1309.6067    3405.1831      19.8123       0.0000
4677.3084
   4677.3084       8.5000    4676.6258      89.1046       7.6910    6876.7746
      9.6532       9.6532     595.4325     828.9143       6.4368     455.4497
    319.8285    6686.6665      -0.0302       2.5843       0.0000      21.0263
   1304.8794    3405.3478      19.9547       0.0000
4677.1560
   4677.1560       8.5000    4676.4724      90.7368       7.6882    6854.0370
      9.6510       9.6510     589.1759     820.1854       6.3234     459.1268
    320.4055    6670.0821      -0.0296       2.5891       0.0000      20.7043
   1311.8501    3395.3780      19.6442       0.0000
4677.0036
   4677.0036       8.5000    4676.3210      93.7231       7.6710    6863.8821
      9.6451       9.6451     577.7001     803.3704       6.2275     459.7600
    316.2062    6669.7347      -0.0242       2.5975       0.0000      19.9543
   1332.1771    3380.6284      18.9222       0.0000
4676.8512
   4676.8512       8.5000    4676.1676      94.9549       7.6448    6886.8440
      9.6214       9.6214     567.8384     774.9556       6.0518     459.6427
    313.7281    6692.2543      -0.0135       2.6065       0.0000      19.4847
   1347.6352    3376.6544      18.4837       0.0000
4676.6988
   4676.6988       8.5000    4676.0152      93.0217       7.6350    6896.5407
      9.5621       9.5621     571.8174     765.9880       5.9701     463.7962
    312.7386    6723.8847      -0.0082       2.6069       0.0000      19.2053
   1363.4812    3390.1384      18.2527       0.0000
