~VERSION INFORMATION
VERS.           2.0   :CWLS Log ASCII Standard - VERSION 2.0
WRAP.           NO    :One Line per depth step
PROD.  Schlumberger   :LAS Producer
PROG.  DLIS to ASCII 2.3                               :LAS Program name and version
CREA.        2023/07/14 00:15                          :LAS Creation date {YYYY/MM/DD hh:mm}
DLIS_CREA.  2023-Jul-14 00:11                          :DLIS Creation date and time {YYYY-MMM-DD hh:mm}
SOURCE.     LIS_001.dlis                               :DLIS File Name
FILE-ID.     LIS   .001                                :File Identification Number
#--------------------------------------------------
~WELL INFORMATION
#MNEM.UNIT      DATA             DESCRIPTION
#---- ------ --------------   -----------------------------
STRT .M      5244.5412       :START DEPTH     
STOP .M      5059.0704       :STOP DEPTH     
STEP .M        -0.1524       :STEP     
NULL .          -999.25      :NULL VALUE
COMP .        PETROBRAS S.A.                           :COMPANY
WELL .        3-BRSA-293D-SPS                          :WELL
FLD  .        BS-400                                   :FIELD
LOC  .        BASE SAD 69:                             :LOCATION
CNTY .        SANTOS                                   :COUNTY
STAT .        BRASIL                                   :STATE
CTRY .        BRASIL                                   :COUNTRY
API  .                                                 :API NUMBER
UWI  .                                                 :UNIQUE WELL ID
DATE .        22/10/2004                               :LOG DATE
SRVC .        Schlumberger                             :SERVICE COMPANY
LATI .DEG                                              :LATITUDE
LONG .DEG                                              :LONGITUDE
GDAT .                                                 :GeoDetic Datum
#-----------------------------------------------------------------------------
~PARAMETER INFORMATION
#MNEM.UNIT    VALUE                      DESCRIPTION
#---- -----   --------------------       ------------------------
APD  .M               24                 :
BHT  .DEGF           260                 :
BLI  .M       5227.50000                 :
BS   .IN         8.50000                 :
CN   .        PETROBRAS S.A.             :
COUN .        SANTOS                     :
CS   .IN         9.62500                 :
DATE .        22/10/2004                 :
DFD  .LB/G      12.30000                 :
DFL  .C3               2                 :
DFPH .        N/A                        :
DFT  .        SINTETICO                  :
DFV  .S               87                 :
DMF  .        MESA ROTATIVA              :
EDF  .M               24                 :
EGL  .M             -500                 :
EKB  .        N/A                        :
ENGI .        HERNANDEZ/LOCK             :
FL1  .        X   7292392.00 M LAT 24 28 47.189 S :
FL2  .        Y    584087.00 M LON 44 10 12.698 W :
FL3  .        MC  45 GRAUS               :
FN   .        BS-400                     :
LMF  .        MESA ROTATIVA              :
LUL  .        MACAE                      :
MCSS .        PRENSA                     :
MCST .DEGF            80                 :
MFSS .        PRENSA                     :
MFST .DEGF            80                 :
MSS  .        LINHA DE FLUXO             :
MST  .DEGF            80                 :
PDAT .        NIVEL DO MAR               :
R1   .        01. APRESENTAÇÃO DE ACORDO COM REQUERIMENTO DO CLIENTE :
R2   .        02. TEMPERATURA MÁXIMA DO POÇO T1=T2= 260 DEGF @  5180 M :
R3   .        03. INICIO DA CIRCULAÇÃO  13 45 H 21/10/2004 :
R4   .        04. FINAL DA CIRCULAÇÃO   16 00 H 21/10/2004 :
R5   .        05. TEMPO TOTAL DE CIRCULAÇÃO  02 15 H :
R6   .        06. FLUIDO DE PERFURAÇÃO  SINTETICO (BR-MUL  BR-MI)  65% TEOR DO OLEO :
R7   .        07. SALINIDADE DA LAMA  266377 PPM NACL NA FASE DE AGUA :
R8   .        08. INCLINAÇÃO MÁXIMA DO POÇO  37.37 GRAUS @ 5100 M :
R9   .        09. PRIMEIRAS E ULTIMAS LEITURAS  :
RMB  .OHMM    > 10                       :
RMCS .OHMM    > 10                       :
RMFS .OHMM    > 10                       :
RMS  .OHMM    > 10                       :
RUN  .                 1                 :
STAT .        BRASIL                     :
TCS  .        16 00 H                    :
TDD  .M             5230                 :
TDL  .M             5231                 :
TLAB .        N/A                        :
TLI  .M             3850                 :
WITN .        ALCIDIO/VLADIMIR           :
WN   .        3-BRSA-293D-SPS            :
LUN  .              8808                 :
HIDE .        3-SPS-41D                  :
HID2 .        HIGH DEFINITION INDUCTION LOG :
HID3 .        X-MULTIPOLE ARRAY ACOUSTILOG :
HID4 .        GAMMA RAY LOG              :
HID5 .        TTRM SUB                   :
CLAB .        BACIA                      :
SLAB .        PAIS                       :
CMT1 .        ESC  1 1000                :
CMT2 .        PROF. MEDIDA               :
CMT4 .        SONDA  SS-43               :
HDAT .        SAD 69                     :
FL   .        BASE SAD 69                :
OS1  .        GR/CN/ZDL                  :
OS2  .        MREX/GR                    :
OS3  .        RCI/GR                     :
0S4  .        3DEX/GR                    :
OS5  .        SL/GR                      :
LNAM .        MREX/ZDL/CN/XMAC/HDIL/RCI/3DEX/SL/GR :
TOOL .        MREX/ZDL/CN/XMAC/HDIL/RCI/3DEX/SL/GR :
LSOU .        PETROBRAS                  :
LSRV .        OH WIRELINE                :
LTYP .        RAW                        :
EPD  .M                0                 :
LDAT .        22/10/2004                 :
TRIP .                 1                 :
SON  .            772317                 :
CBDR .M             4277                 :
CBLO .M             4277                 :
CBL1 .M             4277                 :
STEM .DEGF    N/A                        :
BSAL .            266377                 :
BARI .        OFF                        :
DLAB .        21/10/2004                 :
MRT  .DEGF           260                 :
TSTR .        HDIL/XMAC/GR/TTRM          :
TSTG .        N/A                        :
STUS .        FINAL                      :
LCNM .        BAKER ATLAS                :
LCC  .               150                 :
NATI .        BRASIL                     :
OPMD .        OH.WIRELINE                :
PANA .        HERNANDEZ/LOCK             :
PCON .        BAKER ATLAS                :
R11  .        SL     5196.0 M/4960.0 M   :
R12  .        GR     4960.0 M/4277.0 M   :
R13  .        XMAC   5202.0 M/3850.0 M   :
R14  .        HDIL   5227.5 M/4277.0 M   :
R15  .        3DEX   5217.0 M/4960.0 M   :
R17  .        10. PONTO FRACO UTILIZADO  10K :
R18  .        11. DECLINAÇÃO MAGNETICA  -20.9 GRAUS :
R19  .        12. COORDENADAS ARATU      :
R21  .        X   7292512.00 M           :
R22  .        Y    583936.00 M           :
R23  .        MC  45 GRAUS               :
R25  .        13. CADASTRO ANP  86316021017 :
PVER .           4.10000                 :
WDFN .        /space/expusr/3-SPS-41D/i77bf02_2spf.xtf :
OCT  .        i77bf                      :
#-----------------------------------------------------------------------------
~CURVE INFORMATION
#MNEM.UNIT   API CODE                                  DESCRIPTION
#---- -----  --------                                  -----------------------
DEPT .M                                                :DEPTH (BOREHOLE) {F10.4}
DEPT .M                                                : {F13.4}
DT   .US/F                                             : {F13.4}
SFN1 .US                                               : {F13.4}
SFN2 .US                                               : {F13.4}
SFN3 .US                                               : {F13.4}
SFN4 .US                                               : {F13.4}
TT   .MS                                               : {F13.4}
#-----------------------------------------------------------------------------
# 
#     DEPT        DEPT         DT           SFN1         SFN2         SFN3         SFN4         TT
#
~A  
# ...
 5112.1056    5112.1056      67.5879     687.1251     718.1276     758.7496     650.3721      23.1858
 5111.9532    5111.9532      67.5110     687.2499     718.7497     753.6275     352.0219      23.2196
 5111.8008    5111.8008      67.4302     688.0000     719.6250     753.7500     785.8750      23.2533
 5111.6484    5111.6484      67.4101     688.0000     720.0000     754.0000     786.2500      23.2870
 5111.4960    5111.4960      67.5067     688.0013     720.0003     754.2511     786.7505      23.3208
 5111.3436    5111.3436      67.7226     690.1254     720.5017     756.0014     787.6257      23.3546
 5111.1912    5111.1912      67.9882     690.4968     722.2510     757.3779     788.3775      23.3886
 5111.0388    5111.0388      68.1849     688.1297     722.9974     759.5009     790.2530      23.4227
 5110.8864    5110.8864      68.2238     690.8797     721.5052     759.9992     792.0016      23.4569
 5110.7340    5110.7340      68.0952     693.1275     724.0025     759.6259     792.7482      23.4909
 5110.5816    5110.5816      67.8824     694.1268     725.0032     760.0000     792.0000      23.5249
 5110.4292    5110.4292      67.7200     694.7496     726.1266     760.0012     792.0052      23.5588
 5110.2768    5110.2768      67.7023     694.6250     726.6246     760.3803     793.6290      23.5926
 5110.1244    5110.1244      67.8264     694.6250     726.5003     761.8713     794.7472      23.6263
 5109.9720    5109.9720      68.0118     694.6250     726.6247     761.7503     796.8705      23.6603
 5109.8196    5109.8196      68.1642     694.6250     726.6250     761.8748     796.7502      23.6944
 5109.6672    5109.6672      68.2407     694.6250     726.6250     761.7502     796.6252      23.7286
 5109.5148    5109.5148      68.2581     694.5001     726.6250     761.8749     796.7499      23.7627
 5109.3624    5109.3624      68.2563     694.6249     726.7499     761.8750     796.8749      23.7969
 5109.2100    5109.2100      68.2483     694.5000     726.7500     761.8750     796.8750      23.8310
 5109.0576    5109.0576      68.2254     694.6250     726.7500     761.8750     796.7500      23.8651
 5108.9052    5108.9052      68.2653     694.5001     726.6251     761.6251     796.8749      23.8993
 5108.7528    5108.7528      68.5358     694.6249     726.7500     761.7501     796.7501      23.9335
 5108.6004    5108.6004      69.1131     694.5000     726.7500     761.8752     796.8750      23.9681
 5108.4480    5108.4480      69.8284     694.5002     726.7498     761.9996     796.8750      24.0030
 5108.2956    5108.2956      70.2900     694.6245     726.6252     761.7502     796.8755      24.0382
 5108.1432    5108.1432      70.1371     694.3753     726.7500     761.8753     797.1241      24.0733
 5107.9908    5107.9908      69.3556     694.5000     726.7500     761.9997     796.7507      24.1080
 5107.8384    5107.8384      68.3261     694.5000     726.7496     761.8746     796.9996      24.1421
 5107.6860    5107.6860      67.5020     694.5004     726.6250     761.7509     796.8754      24.1759
 5107.5336    5107.5336      67.1039     694.6247     726.6250     761.9994     796.9997      24.2093
 5107.3812    5107.3812      67.0538     694.3756     726.7497     762.0000     797.0000      24.2428
 5107.2288    5107.2288      67.1222     694.2502     726.7500     762.0000     796.7505      24.2764
 5107.0764    5107.0764      67.1771     694.4996     726.7500     762.0000     796.9996      24.3100
 5106.9240    5106.9240      67.2522     694.3751     726.7500     761.8751     797.0000      24.3436
 5106.7716    5106.7716      67.4207     694.4999     726.7500     761.9999     796.8751      24.3773
 5106.6192    5106.6191      67.6909     694.5000     726.7500     761.7500     797.1250      24.4112
 5106.4668    5106.4668      67.9902     694.2500     726.7500     761.8750     796.8750      24.4452
 5106.3144    5106.3145      68.2320     694.6250     726.8750     762.0000     797.0000      24.4793
 5106.1620    5106.1620      68.3993     694.4999     726.7499     761.9998     796.7503      24.5135
 5106.0096    5106.0096      68.5607     694.3745     726.6251     761.7501     797.1250      24.5478
 5105.8572    5105.8572      68.7187     693.8674     726.7518     761.8750     797.1250      24.5822
 5105.7048    5105.7048      68.7268     688.6289     727.1942     761.8773     797.1250      24.6166
 5105.5524    5105.5524      68.3850     690.7522     287.5842     762.1532     797.1299      24.6508
 5105.4000    5105.4000      67.6154     691.7513     723.6276     321.5022     799.6891      24.6846
 5105.2476    5105.2476      66.5870     692.2518     724.6250     760.0000     921.4940      24.7179
 5105.0952    5105.0952      65.6119     692.8746     724.6275     760.0000     792.0016      24.7507
 5104.9428    5104.9428      64.9368     692.7503     725.3730     760.0000     792.4986      24.7830
 5104.7904    5104.7904      64.6023     695.3688     725.3750     760.0000     792.3753      24.8153
 5104.6380    5104.6380      64.5077     694.6265     727.1215     760.0000     792.7492      24.8476
 5104.4856    5104.4856      64.4932     694.1258     726.2514     762.1215     792.5004      24.8798
 5104.3332    5104.3332      64.4448     694.8741     726.3748     760.3772     795.6211      24.9121
 5104.1808    5104.1808      64.3631     694.8750     726.6248     760.8746     793.7517      24.9443
 5104.0284    5104.0284      64.3169     694.6251     726.6250     760.8750     793.3752      24.9764
 5103.8760    5103.8760      64.3746     691.2500     726.1250     760.8750     792.7500      25.0086
 5103.7236    5103.7236      64.5535     690.0000     722.1250     760.5000     792.6250      25.0409
 5103.5712    5103.5712      64.8208     690.7496     723.9993     760.0000     792.7500      25.0733
 5103.4188    5103.4188      65.0644     690.1249     722.8743     760.0000     792.7493      25.1059
 5103.2664    5103.2664      65.0503     689.9980     722.1235     759.9988     792.0000      25.1384
 5103.1140    5103.1140      64.5601     688.5036     721.0013     759.1263     791.9996      25.1707
 5102.9616    5102.9616      63.5730     690.6232     721.7528     759.8729     791.7505      25.2025
 5102.8092    5102.8092      62.3901     689.7509     723.0989     758.8495     791.9769      25.2337
 5102.6568    5102.6568      61.5284     690.1250     712.3740     748.3698     782.5031      25.2645
 5102.5044    5102.5044      61.3676     690.1254     712.0000     746.5079     783.6262      25.2952
 5102.3520    5102.3520      61.7781     690.2500     712.0000     749.0013     784.0013      25.3261
 5102.1996    5102.1996      62.2013     690.2500     712.0000     749.3741     784.3741      25.3570
 5102.0472    5102.0472      62.2998     690.2500     712.0000     749.4997     784.1255      25.3882
 5101.8948    5101.8948      62.2233     690.3748     712.0000     749.5000     784.4993      25.4193
 5101.7424    5101.7424      62.4527     690.2502     712.0000     749.5000     784.3752      25.4505
 5101.5900    5101.5900      63.3347     690.3749     712.0000     749.7497     784.3750      25.4822
 5101.4376    5101.4376      64.6253     690.3750     712.0000     749.3752     784.2501      25.5145
 5101.2852    5101.2852      65.7174     690.5000     712.0000     749.7500     784.6250      25.5474
 5101.1328    5101.1328      66.1938     690.3750     712.0000     749.3750     784.6250      25.5805
 5100.9804    5100.9804      66.0974     690.3750     712.0000     750.0000     784.6249      25.6136
 5100.8280    5100.8280      65.7350     690.3751     712.0000     749.9997     784.3752      25.6465
 5100.6756    5100.6756      65.4266     690.5000     712.0000     749.6254     784.6250      25.6792
 5100.5232    5100.5232      65.2797     690.4998     712.0000     750.0000     784.6246      25.7118
 5100.3708    5100.3708      65.1770     690.3755     712.0000     750.0002     784.3755      25.7444
 5100.2184    5100.2184      65.0635     690.6250     712.0000     750.1241     784.6253      25.7770
