~VERSION INFORMATION
VERS.           2.0   :CWLS Log ASCII Standard - VERSION 2.0
WRAP.           NO    :One Line per depth step
PROD.  Schlumberger   :LAS Producer
PROG.  DLIS to ASCII 2.3                               :LAS Program name and version
CREA.        2023/07/14 00:15                          :LAS Creation date {YYYY/MM/DD hh:mm}
DLIS_CREA.  2023-Jul-14 00:11                          :DLIS Creation date and time {YYYY-MMM-DD hh:mm}
SOURCE.     LIS_003.dlis                               :DLIS File Name
FILE-ID.     LIS   .003                                :File Identification Number
#--------------------------------------------------
~WELL INFORMATION
#MNEM.UNIT      DATA             DESCRIPTION
#---- ------ --------------   -----------------------------
STRT .M      5239.8168       :START DEPTH     
STOP .M      3827.6784       :STOP DEPTH     
STEP .M        -0.1524       :STEP     
NULL .          -999.25      :NULL VALUE
COMP .        PETROBRAS S.A.                           :COMPANY
WELL .        3-BRSA-293D-SPS                          :WELL
FLD  .        BS-400                                   :FIELD
LOC  .        BASE SAD 69:                             :LOCATION
CNTY .        SANTOS                                   :COUNTY
STAT .        BRASIL                                   :STATE
CTRY .        BRASIL                                   :COUNTRY
API  .                                                 :API NUMBER
UWI  .                                                 :UNIQUE WELL ID
DATE .        22/10/2004                               :LOG DATE
SRVC .        Schlumberger                             :SERVICE COMPANY
LATI .DEG                                              :LATITUDE
LONG .DEG                                              :LONGITUDE
GDAT .                                                 :GeoDetic Datum
#-----------------------------------------------------------------------------
~PARAMETER INFORMATION
#MNEM.UNIT    VALUE                      DESCRIPTION
#---- -----   --------------------       ------------------------
APD  .M               24                 :
BHT  .DEGF           260                 :
BLI  .M       5227.50000                 :
BS   .IN         8.50000                 :
CN   .        PETROBRAS S.A.             :
COUN .        SANTOS                     :
CS   .IN         9.62500                 :
DATE .        22/10/2004                 :
DFD  .LB/G      12.30000                 :
DFL  .C3               2                 :
DFPH .        N/A                        :
DFT  .        SINTETICO                  :
DFV  .S               87                 :
DMF  .        MESA ROTATIVA              :
EDF  .M               24                 :
EGL  .M             -500                 :
EKB  .        N/A                        :
ENGI .        HERNANDEZ/LOCK             :
FL1  .        X   7292392.00 M LAT 24 28 47.189 S :
FL2  .        Y    584087.00 M LON 44 10 12.698 W :
FL3  .        MC  45 GRAUS               :
FN   .        BS-400                     :
LMF  .        MESA ROTATIVA              :
LUL  .        MACAE                      :
MCSS .        PRENSA                     :
MCST .DEGF            80                 :
MFSS .        PRENSA                     :
MFST .DEGF            80                 :
MSS  .        LINHA DE FLUXO             :
MST  .DEGF            80                 :
PDAT .        NIVEL DO MAR               :
R1   .        01. APRESENTAÇÃO DE ACORDO COM REQUERIMENTO DO CLIENTE :
R2   .        02. TEMPERATURA MÁXIMA DO POÇO T1=T2= 260 DEGF @  5180 M :
R3   .        03. INICIO DA CIRCULAÇÃO  13 45 H 21/10/2004 :
R4   .        04. FINAL DA CIRCULAÇÃO   16 00 H 21/10/2004 :
R5   .        05. TEMPO TOTAL DE CIRCULAÇÃO  02 15 H :
R6   .        06. FLUIDO DE PERFURAÇÃO  SINTETICO (BR-MUL  BR-MI)  65% TEOR DO OLEO :
R7   .        07. SALINIDADE DA LAMA  266377 PPM NACL NA FASE DE AGUA :
R8   .        08. INCLINAÇÃO MÁXIMA DO POÇO  37.37 GRAUS @ 5100 M :
R9   .        09. PRIMEIRAS E ULTIMAS LEITURAS  :
RMB  .OHMM    > 10                       :
RMCS .OHMM    > 10                       :
RMFS .OHMM    > 10                       :
RMS  .OHMM    > 10                       :
RUN  .                 1                 :
STAT .        BRASIL                     :
TCS  .        16 00 H                    :
TDD  .M             5230                 :
TDL  .M             5231                 :
TLAB .        N/A                        :
TLI  .M             3850                 :
WITN .        ALCIDIO/VLADIMIR           :
WN   .        3-BRSA-293D-SPS            :
LUN  .              8808                 :
HIDE .        3-SPS-41D                  :
HID2 .        HIGH DEFINITION INDUCTION LOG :
HID3 .        X-MULTIPOLE ARRAY ACOUSTILOG :
HID4 .        GAMMA RAY LOG              :
HID5 .        TTRM SUB                   :
CLAB .        BACIA                      :
SLAB .        PAIS                       :
CMT1 .        ESC  1 1000                :
CMT2 .        PROF. MEDIDA               :
CMT4 .        SONDA  SS-43               :
HDAT .        SAD 69                     :
FL   .        BASE SAD 69                :
OS1  .        GR/CN/ZDL                  :
OS2  .        MREX/GR                    :
OS3  .        RCI/GR                     :
0S4  .        3DEX/GR                    :
OS5  .        SL/GR                      :
LNAM .        MREX/ZDL/CN/XMAC/HDIL/RCI/3DEX/SL/GR :
TOOL .        MREX/ZDL/CN/XMAC/HDIL/RCI/3DEX/SL/GR :
LSOU .        PETROBRAS                  :
LSRV .        OH WIRELINE                :
LTYP .        RAW                        :
EPD  .M                0                 :
LDAT .        22/10/2004                 :
TRIP .                 1                 :
SON  .            772317                 :
CBDR .M             4277                 :
CBLO .M             4277                 :
CBL1 .M             4277                 :
STEM .DEGF    N/A                        :
BSAL .            266377                 :
BARI .        OFF                        :
DLAB .        21/10/2004                 :
MRT  .DEGF           260                 :
TSTR .        HDIL/XMAC/GR/TTRM          :
TSTG .        N/A                        :
STUS .        FINAL                      :
LCNM .        BAKER ATLAS                :
LCC  .               150                 :
NATI .        BRASIL                     :
OPMD .        OH.WIRELINE                :
PANA .        HERNANDEZ/LOCK             :
PCON .        BAKER ATLAS                :
R11  .        SL     5196.0 M/4960.0 M   :
R12  .        GR     4960.0 M/4277.0 M   :
R13  .        XMAC   5202.0 M/3850.0 M   :
R14  .        HDIL   5227.5 M/4277.0 M   :
R15  .        3DEX   5217.0 M/4960.0 M   :
R17  .        10. PONTO FRACO UTILIZADO  10K :
R18  .        11. DECLINAÇÃO MAGNETICA  -20.9 GRAUS :
R19  .        12. COORDENADAS ARATU      :
R21  .        X   7292512.00 M           :
R22  .        Y    583936.00 M           :
R23  .        MC  45 GRAUS               :
R25  .        13. CADASTRO ANP  86316021017 :
PVER .           4.10000                 :
WDFN .        /space/expusr/3-SPS-41D/i77bf03_2spf.xtf :
OCT  .        i77bf                      :
#-----------------------------------------------------------------------------
~CURVE INFORMATION
#MNEM.UNIT   API CODE                                  DESCRIPTION
#---- -----  --------                                  -----------------------
DEPT .M                                                :DEPTH (BOREHOLE) {F10.4}
DEPT .M                                                : {F13.4}
DT   .US/F                                             : {F13.4}
SFN1 .US                                               : {F13.4}
SFN2 .US                                               : {F13.4}
SFN3 .US                                               : {F13.4}
SFN4 .US                                               : {F13.4}
TT   .MS                                               : {F13.4}
#-----------------------------------------------------------------------------
# 
#     DEPT        DEPT         DT           SFN1         SFN2         SFN3         SFN4         TT
#
~A  
# ...
 4938.8268    4938.8268      69.4203     713.8753     747.6247     784.0006     816.0000      60.8419
 4938.6744    4938.6744      69.2835     713.9995     747.5005     784.2491     816.0000      60.8763
 4938.5220    4938.5220      69.0722     714.0000     747.5000     784.3746     818.3670      60.9109
 4938.3696    4938.3696      68.8835     717.4894     747.6246     784.3750     818.6242      60.9453
 4938.2172    4938.2172      68.8131     719.4947     750.7417     784.2503     818.5003      60.9798
 4938.0648    4938.0648      68.8858     719.3753     751.9972     786.4949     818.7494      61.0142
 4937.9124    4937.9124      69.0216     719.2502     752.0000     789.2448     821.6195      61.0487
 4937.7600    4937.7600      69.1129     719.9988     752.0000     790.1237     823.7467      61.0833
 4937.6076    4937.6076      69.1074     720.0000     752.0000     789.8753     823.9997      61.1179
 4937.4552    4937.4552      69.0251     720.0000     752.1249     790.4995     824.0000      61.1524
 4937.3028    4937.3028      68.9302     720.0000     752.0001     789.5004     823.3753      61.1869
 4937.1504    4937.1504      68.8710     720.0000     752.0000     788.7500     823.3750      61.2213
 4936.9980    4936.9980      68.8383     720.0000     752.0000     788.7500     822.0000      61.2557
 4936.8456    4936.8456      68.7830     720.0000     752.0000     788.7499     821.8751      61.2902
 4936.6932    4936.6932      68.6845     720.0000     752.0000     788.6250     822.0000      61.3245
 4936.5408    4936.5408      68.5727     719.9989     752.0000     788.6250     821.9998      61.3588
 4936.3884    4936.3884      68.4821     719.2482     752.0000     788.6250     821.8750      61.3931
 4936.2360    4936.2360      68.4153     718.2505     752.0000     788.6258     821.8755      61.4273
 4936.0836    4936.0836      68.3547     718.4990     752.0000     788.9986     822.1240      61.4613
 4935.9312    4935.9312      68.2904     718.7491     751.8754     787.3807     822.9969      61.4954
 4935.7788    4935.7788      68.2310     718.6254     751.2520     786.3781     821.8785      61.5295
 4935.6264    4935.6264      68.2085     717.6278     750.6267     786.3750     819.6313      61.5637
 4935.4740    4935.4740      68.2506     718.8720     751.4979     786.8738     820.7473      61.5978
 4935.3216    4935.3216      68.3269     719.2492     751.9990     787.3740     821.4985      61.6320
 4935.1692    4935.1692      68.3765     718.8756     751.1265     786.8758     820.2521      61.6662
 4935.0168    4935.0168      68.3544     717.3770     750.8753     787.9985     822.8716      61.7004
 4934.8644    4934.8644      68.2551     718.3741     751.9989     788.7493     822.1257      61.7345
 4934.7120    4934.7120      68.1469     718.2501     752.0000     786.2514     820.6258      61.7686
 4934.5596    4934.5596      68.1127     717.5000     751.7500     786.3750     821.5000      61.8027
 4934.4072    4934.4072      68.1474     717.5000     752.0000     789.0000     821.2500      61.8367
 4934.2548    4934.2548      68.2014     717.5000     752.0000     787.7499     823.1244      61.8709
 4934.1024    4934.1024      68.3159     717.5000     752.0000     787.6250     821.9997      61.9050
 4933.9500    4933.9500      68.5974     717.5002     752.0000     787.6250     821.6250      61.9393
 4933.7976    4933.7976      69.0817     717.6275     752.0000     787.6252     821.6250      61.9739
 4933.6452    4933.6452      69.6214     719.1268     752.0005     787.7503     821.6250      62.0087
 4933.4928    4933.4928      69.9078     719.9965     752.2490     787.8745     821.6250      62.0435
 4933.3404    4933.3404      69.7393     720.0000     753.3709     788.8713     821.6250      62.0783
 4933.1880    4933.1880      69.2334     720.0000     752.0045     789.7471     822.3725      62.1130
 4933.0356    4933.0356      68.7097     720.0000     752.0000     788.1297     822.6243      62.1473
 4932.8832    4932.8832      68.3727     720.0000     752.9975     788.9978     822.0016      62.1815
 4932.7308    4932.7308      68.1935     720.0000     752.5011     789.4989     822.6236      62.2156
 4932.5784    4932.5784      67.9915     720.0000     752.3752     789.6248     823.3736      62.2497
 4932.4260    4932.4260      67.6405     720.7489     752.9991     790.3739     821.8772      62.2835
 4932.2736    4932.2736      67.2158     720.0008     752.2508     788.2523     821.9999      62.3171
 4932.1212    4932.1212      66.8918     720.0000     752.9995     789.4991     821.8751      62.3506
 4931.9688    4931.9688      66.7817     720.8750     752.1250     787.5000     821.5000      62.3840
 4931.8164    4931.8164      66.8743     720.6250     752.0000     787.3750     820.0000      62.4174
 4931.6640    4931.6640      67.0698     720.6250     752.0000     787.3748     819.2507      62.4510
 4931.5116    4931.5116      67.2614     720.6248     752.0000     787.0000     820.9999      62.4846
 4931.3592    4931.3592      67.4146     720.3749     752.0000     786.9997     820.8750      62.5183
 4931.2068    4931.2068      67.5668     720.2470     752.0000     786.7500     820.8748      62.5521
 4931.0544    4931.0544      67.7494     718.2401     752.0007     786.7498     820.7502      62.5860
 4930.9020    4930.9020      67.9375     713.0000     752.3604     786.6286     820.8750      62.6200
 4930.7496    4930.7496      68.0461     713.0000     745.8994     788.2439     820.8750      62.6538
 4930.5972    4930.5972      68.0140     712.0034     744.2556     782.6442     820.1276      62.6878
 4930.4448    4930.4448      67.8702     712.0000     744.0008     781.1296     816.0126      62.7218
 4930.2924    4930.2924      67.7043     712.0000     744.0000     781.0003     814.2547      62.7556
 4930.1400    4930.1400      67.6065     712.0000     744.0000     781.1247     813.6264      62.7895
 4929.9876    4929.9876      67.5784     712.0000     744.0000     781.0002     814.2488      62.8233
 4929.8352    4929.8352      67.5411     712.0000     744.0000     780.2512     814.0004      62.8570
 4929.6828    4929.6828      67.4457     712.0000     744.0000     780.1252     813.2509      62.8908
 4929.5304    4929.5304      67.3378     712.7494     744.0000     779.6254     813.1251      62.9245
 4929.3780    4929.3780      67.3306     712.9999     744.7497     779.7499     812.2504      62.9581
 4929.2256    4929.2256      67.4881     713.3750     745.2500     780.1250     812.2500      62.9919
 4929.0732    4929.0732      67.7558     713.0000     746.1250     782.3750     814.1250      63.0258
 4928.9208    4928.9208      67.9922     712.8758     745.6255     782.6252     816.0003      63.0598
 4928.7684    4928.7684      68.0895     714.1249     746.3744     782.8745     816.4994      63.0939
 4928.6160    4928.6160      68.0446     713.9997     745.7517     782.3760     815.8752      63.1279
 4928.4636    4928.4636      67.8993     713.7500     746.9993     783.1246     816.0000      63.1619
 4928.3112    4928.3112      67.7034     713.7513     746.6253     782.8747     816.0000      63.1957
 4928.1588    4928.1588      67.4924     714.3726     746.7495     782.7505     816.0000      63.2293
 4928.0064    4928.0064      67.2551     714.2504     746.9991     782.7500     816.0000      63.2629
 4927.8540    4927.8540      66.9786     712.7548     745.1310     782.9992     816.0000      63.2964
 4927.7016    4927.7016      66.6921     712.6254     744.8757     781.1303     815.7507      63.3298
 4927.5492    4927.5492      66.4102     713.6226     745.2491     780.7509     814.0043      63.3630
 4927.3968    4927.3968      66.1354     712.1281     743.8778     779.0036     811.7547      63.3961
 4927.2444    4927.2444      65.9197     707.0087     742.6271     776.7538     809.3790      63.4290
 4927.0920    4927.0920      65.8378     711.9933     742.5002     777.9983     811.4972      63.4620
 4926.9396    4926.9396      65.9810     710.0019     743.1244     778.1249     813.3732      63.4950
