~VERSION INFORMATION
VERS.           2.0   :CWLS Log ASCII Standard - VERSION 2.0
WRAP.           NO    :One Line per depth step
PROD.  Schlumberger   :LAS Producer
PROG.  DLIS to ASCII 2.3                               :LAS Program name and version
CREA.        2023/07/14 00:15                          :LAS Creation date {YYYY/MM/DD hh:mm}
DLIS_CREA.  2023-Jul-14 00:11                          :DLIS Creation date and time {YYYY-MMM-DD hh:mm}
SOURCE.     LIS_010.dlis                               :DLIS File Name
FILE-ID.     LIS   .003                                :File Identification Number
#--------------------------------------------------
~WELL INFORMATION
#MNEM.UNIT      DATA             DESCRIPTION
#---- ------ --------------   -----------------------------
STRT .M      5284.9272       :START DEPTH     
STOP .M      4939.1316       :STOP DEPTH     
STEP .M        -0.1524       :STEP     
NULL .          -999.25      :NULL VALUE
COMP .        PETROBRAS S.A.                           :COMPANY
WELL .        3-BRSA-293D-SPS                          :WELL
FLD  .        BS-400                                   :FIELD
LOC  .        BASE SAD 69:                             :LOCATION
CNTY .        SANTOS                                   :COUNTY
STAT .        BRASIL                                   :STATE
CTRY .        BRASIL                                   :COUNTRY
API  .                                                 :API NUMBER
UWI  .                                                 :UNIQUE WELL ID
DATE .        15/11/2004                               :LOG DATE
SRVC .        Schlumberger                             :SERVICE COMPANY
LATI .DEG                                              :LATITUDE
LONG .DEG                                              :LONGITUDE
GDAT .                                                 :GeoDetic Datum
#-----------------------------------------------------------------------------
~PARAMETER INFORMATION
#MNEM.UNIT    VALUE                      DESCRIPTION
#---- -----   --------------------       ------------------------
APD  .M               24                 :
BHT  .DEGF           260                 :
BLI  .M             5289                 :
BS   .IN         8.50000                 :
CN   .        PETROBRAS S.A.             :
COUN .        SANTOS                     :
CS   .IN         9.62500                 :
DATE .        15/11/2004                 :
DFD  .LB/G      12.30000                 :
DFL  .C3               2                 :
DFPH .        N/A                        :
DFT  .        SINTETICO                  :
DFV  .S               95                 :
DMF  .        MESA ROTATIVA              :
EDF  .M               24                 :
EGL  .M             -500                 :
EKB  .        N/A                        :
ENGI .        HERNANDEZ / LOCK           :
FL1  .        X   7292392.00 M LAT 24 28 47.189 S :
FL2  .        Y    584087.00 M LON 44 10 12.698 W :
FL3  .        MC  45 GRAUS               :
FN   .        BS-400                     :
LMF  .        MESA ROTATIVA              :
LUL  .        MACAE                      :
MCSS .        PRENSA                     :
MCST .DEGF            80                 :
MFSS .        PRENSA                     :
MFST .DEGF            80                 :
MSS  .        LINHA DE FLUXO             :
MST  .DEGF            80                 :
PDAT .        NIVEL DO MAR               :
R1   .        01. APRESENTAÇÃO DE ACORDO COM REQUERIMENTO DO CLIENTE :
R2   .        02. TEMPERATURA MÁXIMA DO POÇO T1=T2= 290 DEGF @  5275 M :
R3   .        03. INICIO DA CIRCULAÇÃO  12/11/2004 09 00 H :
R4   .        04. FINAL DA CIRCULAÇÃO   12/11/2004 18 00 H :
R5   .        05. TEMPO TOTAL DE CIRCULAÇÃO   09 00 H :
R6   .        06. FLUIDO DE PERFURAÇÃO  SINTETICO (BR-MUL  BR-MI)  60% TEOR DO OLEO :
R7   .        07. SALINIDADE DA LAMA  254762 PPM NACL NA FASE DE AGUA :
R8   .        08. INCLINAÇÃO MÁXIMA DO POÇO  37.37 GRAUS @ 5100 M :
R9   .        09. PRIMEIRAS E ULTIMAS LEITURAS  :
RMB  .OHMM    > 10                       :
RMCS .OHMM    > 10                       :
RMFS .OHMM    > 10                       :
RMS  .OHMM    >10                        :
RUN  .                 2                 :
STAT .        BRASIL                     :
TCS  .        18 00 H                    :
TDD  .M             5288                 :
TDL  .M             5293                 :
TLAB .        N/A                        :
TLI  .M             5000                 :
WITN .        ERNANI / ZE MARIA          :
WN   .        3-BRSA-293D-SPS            :
LUN  .              8808                 :
HIDE .        3-SPS-41D                  :
HID2 .        HIGH DEFINITION INDUCTION LOG :
HID3 .        X-MULTIPOLE ARRAY ACOUSTILOG :
HID4 .        GAMMA RAY LOG              :
HID5 .        TTRM SUB                   :
CLAB .        BACIA                      :
SLAB .        PAIS                       :
CMT1 .        ESC  1 200                 :
CMT2 .        PROF. MEDIDA               :
CMT4 .        SONDA  SS-43               :
HDAT .        SAD 69                     :
FL   .        BASE SAD 69                :
OS1  .        RCI/GR                     :
OS2  .        CHECK SHOT                 :
OS3  .        GR/CN/ZDL                  :
OS5  .        RCOR/GR                    :
LNAM .        ZDL/CN/XMAC/HDIL/EARTH IMAGER/RCI/RCOR/CHECK SHOT/GR :
TOOL .        ZDL/CN/XMAC/HDIL/EARTH IMAGER/RCI/RCOR/CHECK SHOT/GR :
LSOU .        PETROBRAS                  :
LSRV .        OH WIRELINE                :
LTYP .        RAW                        :
EPD  .M                0                 :
LDAT .        15/11/2004                 :
TRIP .                 3                 :
SON  .            786588                 :
CBDR .M             4277                 :
CBLO .        NR                         :
CBL1 .        NR                         :
STEM .DEGF    N/A                        :
BSAL .            254762                 :
BARI .        OFF                        :
DLAB .        12/11/2004                 :
MRT  .DEGF           290                 :
TSTR .        HDIL/XMAC/GR/TTRM          :
TSTG .        N/A                        :
STUS .        FINAL                      :
LCNM .        BAKER ATLAS                :
LCC  .               150                 :
NATI .        BRASIL                     :
OPMD .        OH.WIRELINE                :
PANA .        HERNANDEZ / LOCK           :
PCON .        BAKER ATLAS                :
R11  .        SL     5268.3 M / 5000.0 M :
R12  .        GR     5268.3 M / 5000.0 M :
R13  .        XMAC   5279.5 M / 5000.0 M :
R14  .        HDIL   5289.0 M / 5000.0 M :
R17  .        11. DECLINAÇÃO MAGNETICA  -20.9 GRAUS :
R18  .        12. COORDENADAS BASE       :
R21  .        Y    583936.00 M           :
R22  .        MC  45 GRAUS               :
PVER .           4.10000                 :
WDFN .        /space/expusr/3-SPS-41D_RUN2/i77bf02_2spf.xtf :
OCT  .        i77bf                      :
OS4  .        EARTH IMAGER               :
R16  .        10. PONTO FRACO UTILIZADO  10K :
R20  .        X   7292512.00 M           :
R24  .        13. CADASTRO ANP  86316021017 :
#-----------------------------------------------------------------------------
~CURVE INFORMATION
#MNEM.UNIT   API CODE                                  DESCRIPTION
#---- -----  --------                                  -----------------------
DEPT .M                                                :DEPTH (BOREHOLE) {F10.4}
DEPT .M                                                : {F13.4}
DT   .US/F                                             : {F13.4}
SFN1 .US                                               : {F13.4}
SFN2 .US                                               : {F13.4}
SFN3 .US                                               : {F13.4}
SFN4 .US                                               : {F13.4}
TT   .MS                                               : {F13.4}
#-----------------------------------------------------------------------------
# 
#     DEPT        DEPT         DT           SFN1         SFN2         SFN3         SFN4         TT
#
~A  
 5284.9272    5284.9268    -999.2500     688.8750    -999.2500    -999.2500    -999.2500    -999.2500
 5284.7748    5284.7748    -999.2500     688.8750     716.7500    -999.2500    -999.2500    -999.2500
 5284.6224    5284.6224    -999.2500     687.1288     716.6253 -999999.9999    -999.2500    -999.2500
 5284.4700    5284.4700    -999.2500     688.8719     716.7498     751.3741 -999999.9999    -999.2500
 5284.3176    5284.3176    -999.2500     688.8750     716.6252     751.4998     776.5002    -999.2500
 5284.1652    5284.1652    -999.2500     688.8750     716.6250     751.2503     776.5000    -999.2500
 5284.0128    5284.0128    -999.2500     687.1262     716.6250     751.2500     776.7498    -999.2500
 5283.8604    5283.8604    -999.2500     688.8750     716.7500     751.3750     776.3750    -999.2500
 5283.7080    5283.7080    -999.2500     688.8750     716.5000     751.1250     776.6250    -999.2500
 5283.5556    5283.5556    -999.2500     687.1250     716.5001     751.3749     776.6249    -999.2500
 5283.4032    5283.4032 -999999.9999     687.1264     716.6250     751.2500     776.5000 -945704.8859
 5283.2508    5283.2508      58.6275     688.8750     716.6249     751.2501     776.5001       0.0293
 5283.0984    5283.0984      58.5884     688.8723     716.5000     751.3742     776.6248       0.0587
 5282.9460    5282.9460      58.5727     687.1250     716.5007     750.8755     776.5002       0.0879
 5282.7936    5282.7936      58.5973     687.1250     716.8735     751.1240     776.6245       0.1171
 5282.6412    5282.6412      58.6296     687.1250     716.6259     750.7514     776.5005       0.1464
 5282.4888    5282.4888      58.6109     687.1250     716.5004     750.9991     776.6246       0.1757
 5282.3364    5282.3364      58.5151     688.8697     716.8739     751.1246     776.5004       0.2050
 5282.1840    5282.1840      58.3825     688.8750     716.5010     751.1250     776.6247       0.2342
 5282.0316    5282.0316      58.2836     688.8750     716.6247     751.2497     776.3756       0.2633
 5281.8792    5281.8792      58.2518     688.9998     716.6250     751.2500     776.8740       0.2925
 5281.7268    5281.7268      58.2685     689.1248     716.5002     751.3748     776.6254       0.3216
 5281.5744    5281.5744      58.3017     689.0001     716.6249     751.3750     776.7499       0.3508
 5281.4220    5281.4220      58.3267     689.0000     716.8748     751.3750     776.7500       0.3800
 5281.2696    5281.2696      58.3337     689.1249     716.7501     751.6249     776.7500       0.4091
 5281.1172    5281.1172      58.3327     689.2500     717.0000     751.5000     776.7500       0.4383
 5280.9648    5280.9648      58.3535     689.5000     717.1250     751.7500     776.7500       0.4675
 5280.8124    5280.8124      58.4654     689.5001     717.1252     752.0000     776.8750       0.4967
 5280.6600    5280.6600      58.7399     689.6253     717.3750     752.0000     776.8754       0.5261
 5280.5076    5280.5076      59.1572     689.8753     717.3752     752.0000     777.2500       0.5557
 5280.3552    5280.3552      59.5816     690.1259     717.5007     752.0000     777.2502       0.5855
 5280.2028    5280.2028      59.8651     690.6229     717.8734     752.0000     777.3745       0.6153
 5280.0504    5280.0504      60.0310     690.8740     718.3730     752.0000     777.4995       0.6453
 5279.8980    5279.8980      60.2892     690.9996     718.7487     752.0000     777.8737       0.6754
 5279.7456    5279.7456      60.8581     691.2492     718.8746     752.3738     778.2488       0.7059
 5279.5932    5279.5932      61.7457     691.3746     719.2489     752.4996     778.4993       0.7368
 5279.4408    5279.4408      62.7478     691.4997     720.8710     752.6247     778.7494       0.7682
 5279.2884    5279.2884      63.6472     691.8742     720.9997     752.7497     778.8747       0.8000
 5279.1360    5279.1360      64.3571     691.9998     721.3744     752.9996     778.9998       0.8322
 5278.9836    5278.9836      64.8939     692.2497     721.4998     753.2497     779.2497       0.8646
 5278.8312    5278.8312      65.2159     692.3749     721.5000     753.4998     779.4998       0.8973
 5278.6788    5278.6788      65.1908     692.3750     721.8748     753.3751     779.6249       0.9299
 5278.5264    5278.5264      64.7648     692.5000     722.1250     753.7500     779.8750       0.9623
 5278.3740    5278.3740      64.1039     692.6250     722.6250     754.0000     780.1250       0.9943
 5278.2216    5278.2216      63.5108     692.8753     722.3751     754.2501     780.2501       1.0261
 5278.0692    5278.0692      63.1706     693.3752     722.5003     754.5003     780.3751       1.0577
 5277.9168    5277.9168      63.0572     693.6248     722.8744     754.8752     780.5003       1.0892
 5277.7644    5277.7644      63.1652     693.4980     722.3720     754.9992     780.7508       1.1208
 5277.6120    5277.6120      63.7202     692.2555     720.5082     754.5022     781.2478       1.1525
 5277.4596    5277.4596      65.0482     690.7561     719.7530     752.0101     782.2460       1.1850
 5277.3072    5277.3072      67.1698     693.9881     717.5083     751.6264     784.1181       1.2186
 5277.1548    5277.1548      69.4518     690.0132     719.9917     754.6151     788.1118       1.2534
 5277.0024    5277.0024      70.8190     698.3504     727.4780     761.9784     790.6177       1.2888
 5276.8500    5276.8500      70.5910     699.6218     731.4897     765.6157     795.4875       1.3241
 5276.6976    5276.6976      68.9781     702.8679     734.4934     771.2377     800.3643       1.3586
 5276.5452    5276.5452      66.8825     689.8987     729.8834     764.8866     803.9934       1.3921
 5276.3928    5276.3928      65.2401     687.5035     718.7662     756.7618     792.2671       1.4247
 5276.2404    5276.2404      64.3322     687.0005     723.7446     760.7457     788.8787       1.4569
 5276.0880    5276.0880      63.8539     685.6260     721.7514     763.2482     796.4945       1.4888
 5275.9356    5275.9355      63.5709     683.8750     717.3750     756.6250     793.2500       1.5206
 5275.7832    5275.7832      63.6334     675.2500     710.2500     748.3750     784.0000       1.5524
 5275.6308    5275.6309      64.3296     672.0000     703.2500     739.0000     773.3750       1.5846
 5275.4784    5275.4784      65.7349     672.0030     704.0037     743.1257     775.7499       1.6175
 5275.3260    5275.3260      67.4607     676.0003     708.8768     744.0011     775.6254       1.6512
 5275.1736    5275.1736      68.7894     676.2491     710.4981     745.0009     776.0045       1.6856
 5275.0212    5275.0212      69.1768     675.6333     709.2500     745.6257     779.0049       1.7202
 5274.8688    5274.8688      68.5601     680.1063     709.2500     745.9984     781.6141       1.7543
 5274.7164    5274.7164      67.3903     680.0005     712.4876     747.2452     782.3721       1.7880
 5274.5640    5274.5640      66.4997     670.5326     709.2612     744.8832     778.7625       1.8213
 5274.4116    5274.4116      66.5883     664.0199     697.0376     743.6288     776.0084       1.8546
 5274.2592    5274.2592      67.7330     664.0000     697.9973     740.3838     775.3767       1.8885
 5274.1068    5274.1068      69.3096     664.6235     699.3718     740.2503     775.9985       1.9231
 5273.9544    5273.9544      70.3913     666.4963     703.9909     741.2480     775.3762       1.9583
 5273.8020    5273.8020      70.3325     675.8601     704.8736     743.7460     775.2502       1.9935
 5273.6496    5273.6496      69.0530     679.9950     710.9925     743.9997     775.8742       2.0281
 5273.4972    5273.4972      67.0564     686.6194     712.8734     746.4979     775.9999       2.0616
 5273.3448    5273.3448      65.2135     688.3742     716.9980     748.3741     778.1240       2.0942
 5273.1924    5273.1924      64.3398     687.7500     720.0000     752.0000     778.0000       2.1264
 5273.0400    5273.0400      64.7912     680.0000     714.8750     752.0000     782.1250       2.1588
