~VERSION INFORMATION
VERS.           2.0   :CWLS Log ASCII Standard - VERSION 2.0
WRAP.           NO    :One Line per depth step
PROD.  Schlumberger   :LAS Producer
PROG.  DLIS to ASCII 2.3                               :LAS Program name and version
CREA.        2023/07/14 00:15                          :LAS Creation date {YYYY/MM/DD hh:mm}
DLIS_CREA.  2023-Jul-14 00:11                          :DLIS Creation date and time {YYYY-MMM-DD hh:mm}
SOURCE.     LIS_005.dlis                               :DLIS File Name
FILE-ID.     LIS   .001                                :File Identification Number
#--------------------------------------------------
~WELL INFORMATION
#MNEM.UNIT      DATA             DESCRIPTION
#---- ------ --------------   -----------------------------
STRT .M      5238.7500       :START DEPTH     
STOP .M      5087.2644       :STOP DEPTH     
STEP .M        -0.1524       :STEP     
NULL .          -999.25      :NULL VALUE
COMP .        PETROBRAS S.A.                           :COMPANY
WELL .        3-BRSA-293D-SPS                          :WELL
FLD  .        BS-400                                   :FIELD
LOC  .        BASE SAD 69:                             :LOCATION
CNTY .        SANTOS                                   :COUNTY
STAT .        BRASIL                                   :STATE
CTRY .        SANTOS                                   :COUNTRY
API  .                                                 :API NUMBER
UWI  .                                                 :UNIQUE WELL ID
DATE .        23/10/2004                               :LOG DATE
SRVC .        Schlumberger                             :SERVICE COMPANY
LATI .DEG                                              :LATITUDE
LONG .DEG                                              :LONGITUDE
GDAT .                                                 :GeoDetic Datum
#-----------------------------------------------------------------------------
~PARAMETER INFORMATION
#MNEM.UNIT    VALUE                      DESCRIPTION
#---- -----   --------------------       ------------------------
APD  .M               24                 :
BHT  .DEGF           280                 :
BLI  .M             5230                 :
BS   .IN         8.50000                 :
CN   .        PETROBRAS S.A.             :
COUN .        SANTOS                     :
CS   .IN         9.62500                 :
DATE .        23/10/2004                 :
DFD  .LB/G      12.30000                 :
DFL  .C3               2                 :
DFPH .        N/A                        :
DFT  .        SINTETICO                  :
DFV  .S               87                 :
DMF  .        MESA ROTATIVA              :
EDF  .M               24                 :
EGL  .M             -500                 :
EKB  .        N/A                        :
ENGI .        HERNANDEZ/LOCK             :
FL1  .        X   7292392.00 M LAT 24 28 47.189 S :
FL2  .        Y    584087.00 M LON 44 10 12.698 W :
FL3  .        MC  45 GRAUS               :
FN   .        BS-400                     :
LMF  .        MESA ROTATIVA              :
LUL  .        MACAE                      :
MCSS .        PRENSA                     :
MCST .DEGF            80                 :
MFSS .        PRENSA                     :
MFST .DEGF            80                 :
MSS  .        LINHA DE FLUXO             :
MST  .DEGF            80                 :
PDAT .        NIVEL DO MAR               :
R1   .        01. APRESENTAÇÃO DE ACORDO COM REQUERIMENTO DO CLIENTE :
R2   .        02. TEMPERATURA MÁXIMA DO POÇO T1=T2= 260 DEGF @  5180 M :
R3   .        03. INICIO DA CIRCULAÇÃO  13 45 H 21/10/2004 :
R4   .        04. FINAL DA CIRCULAÇÃO   16 00 H 21/10/2004 :
R5   .        05. TEMPO TOTAL DE CIRCULAÇÃO  02 15 H :
R6   .        06. FLUIDO DE PERFURAÇÃO  SINTETICO (BR-MUL  BR-MI)  65% TEOR DO OLEO :
R7   .        07. SALINIDADE DA LAMA  266377 PPM NACL NA FASE DE AGUA :
R8   .        08. INCLINAÇÃO MÁXIMA DO POÇO  37.37 GRAUS @ 5100 M :
R9   .        09. PRIMEIRAS E ULTIMAS LEITURAS  :
RMB  .OHMM    > 10                       :
RMCS .OHMM    > 10                       :
RMFS .OHMM    > 10                       :
RMS  .OHMM    > 10                       :
RUN  .                 1                 :
STAT .        BRASIL                     :
TCS  .        16 00 H                    :
TDD  .M             5230                 :
TDL  .M             5231                 :
TLAB .        N/A                        :
TLI  .M             4277                 :
WITN .        ALCIDIO/VLADIMIR           :
WN   .        3-BRSA-293D-SPS            :
LUN  .              8808                 :
HIDE .        3-SPS-41D                  :
HID2 .        COMPENSATED Z-DENSILOG     :
HID3 .        COMPENSATED NEUTRON LOG    :
HID4 .        GAMMA RAY LOG              :
HID5 .        TTRM SUB                   :
CLAB .        BACIA                      :
SLAB .        PAIS                       :
CMT1 .        ESC  1 1000                :
CMT2 .        PROF. MEDIDA               :
CMT4 .        SONDA  SS-43               :
HDAT .        SAD 69                     :
FL   .        BASE SAD 69                :
OS1  .        HDIL/XMAC/SL/GR            :
OS3  .        MREX/GR                    :
OS5  .        SL/GR                      :
LNAM .        MREX/ZDL/CN/XMAC/HDIL/3DEX/RCI/SL/GR :
TOOL .        MREX/ZDL/CN/XMAC/HDIL/3DEX/RCI/SL/GR :
LSOU .        PETROBRAS                  :
LSRV .        OH WIRELINE                :
LTYP .        RAW                        :
EPD  .M                0                 :
LDAT .        23/10/2004                 :
TRIP .                 1                 :
SON  .            772317                 :
CBDR .M             4277                 :
CBLO .M             4277                 :
CBL1 .M             4277                 :
STEM .DEGF    N/A                        :
BSAL .            266377                 :
BARI .        OFF                        :
DLAB .        21/10/2004                 :
MRT  .DEGF           280                 :
TSTR .        ZDL/CN/GR/TTRM             :
TSTG .        N/A                        :
STUS .        FINAL                      :
LCNM .        BAKER ATLAS                :
LCC  .               150                 :
NATI .        SANTOS                     :
OPMD .        OH.WIRELINE                :
PANA .        HERNANDEZ/LOCK             :
PCON .        BAKER ATLAS                :
R11  .        GR     5222.5 M/4277.0 M   :
R12  .        ZDL    5230.0 M/4277.0 M   :
R13  .        CN     5224.0 M/4277.0 M   :
R15  .        10. PONTO FRACO UTILIZADO  10K :
R17  .        12. DECLINAÇÃO MAGNETICA  -20.9 GRAUS :
R18  .        13. COORDENADAS BASE       :
R21  .        Y    583936.00 M           :
R22  .        MC  45 GRAUS               :
PVER .           4.10000                 :
WDFN .        /space/expusr/3-SPS-41D/i77bf06_8spf.xtf :
OCT  .        i77bf                      :
0S2  .        3DEX/GR                    :
OS4  .        RCI/GR                     :
R16  .        11. CNC CORREGIDO PELO CALIPER E SALINIDADE  PRESENTADO MATRIZ CARBONATO :
R20  .        X   7292512.00 M           :
R24  .        14. CADASTRO ANP  86316021017 :
#-----------------------------------------------------------------------------
~CURVE INFORMATION
#MNEM.UNIT   API CODE                                  DESCRIPTION
#---- -----  --------                                  -----------------------
DEPT .M                                                :DEPTH (BOREHOLE) {F10.4}
DEPT .M                                                : {F13.4}
BIT  .IN                                               : {F13.4}
GR   .GAPI                                             : {F13.4}
TEN  .LBF                                              : {F13.4}
TTEN .LBF                                              : {F13.4}
CAL  .IN                                               : {F13.4}
CALX .IN                                               : {F13.4}
HRD1 .HZ                                               : {F13.4}
HRD2 .HZ                                               : {F13.4}
PE   .B/E                                              : {F13.4}
SFT2 .HZ                                               : {F13.4}
SOFT .HZ                                               : {F13.4}
SSD  .HZ                                               : {F13.4}
ZCOR .G/C3                                             : {F13.4}
ZDEN .G/C3                                             : {F13.4}
#-----------------------------------------------------------------------------
# 
#     DEPT        DEPT         BIT          GR           TEN          TTEN         CAL          CALX         HRD1         HRD2         PE           SFT2         SOFT         SSD          ZCOR         ZDEN
#
~A  
# ...
 5167.4268    5167.4268       8.5000      71.4382     -86.9670    6279.6422       8.6828       8.6828    1028.5302    1307.8900       3.5043     865.5229     699.6097    7179.9411      -0.0378       2.3675
 5167.2744    5167.2744       8.5000      70.1738     -86.0253    6279.1364       8.6799       8.6799    1051.9358    1324.9063       3.4107     903.6596     732.6899    7179.1743      -0.0425       2.3587
 5167.1220    5167.1220       8.5000      68.2915     -91.2066    6272.4941       8.6780       8.6780    1055.1883    1315.9526       3.3849     920.4335     735.4323    7114.7552      -0.0500       2.3564
 5166.9696    5166.9696       8.5000      68.6925     -90.6817    6271.5734       8.6766       8.6766    1077.1115    1341.8910       3.4174     931.2918     734.9353    7197.1732      -0.0450       2.3476
 5166.8172    5166.8172       8.5000      70.8966     -78.1939    6282.7455       8.6758       8.6758    1112.1695    1395.8768       3.4969     942.4952     751.3759    7370.0397      -0.0334       2.3332
 5166.6648    5166.6648       8.5000      72.4216     -66.2994    6293.5068       8.6775       8.6775    1135.2317    1436.7152       3.5078     953.2037     765.2292    7435.0758      -0.0323       2.3230
 5166.5124    5166.5124       8.5000      72.0657     -67.3689    6291.3193       8.6818       8.6818    1133.4735    1448.3579       3.4878     956.9108     762.6582    7379.5958      -0.0400       2.3216
 5166.3600    5166.3600       8.5000      70.8038     -68.9702    6288.5573       8.6847       8.6847    1117.3194    1441.6612       3.4960     948.2176     765.6344    7338.6653      -0.0427       2.3251
 5166.2076    5166.2076       8.5000      70.4039     -55.7262    6300.7750       8.6838       8.6838    1110.8411    1446.4521       3.4797     940.6612     786.6566    7367.7712      -0.0389       2.3260
 5166.0552    5166.0552       8.5000      70.8597     -38.4413    6317.2890       8.6828       8.6828    1121.1386    1466.0427       3.4714     951.0865     805.2453    7415.3645      -0.0363       2.3222
 5165.9028    5165.9028       8.5000      71.7909     -31.6575    6323.4514       8.6833       8.6833    1135.3563    1481.2725       3.4706     975.9818     805.4442    7431.0683      -0.0374       2.3179
 5165.7504    5165.7504       8.5000      72.9907     -32.2915    6322.2206       8.6837       8.6837    1144.2855    1485.2131       3.4685     993.5130     795.7817    7430.6641      -0.0388       2.3157
 5165.5980    5165.5980       8.5000      73.6809     -37.5960    6316.2676       8.6832       8.6832    1155.1424    1478.5446       3.4736     992.1875     789.7219    7436.0242      -0.0386       2.3145
 5165.4456    5165.4456       8.5000      73.1560     -41.8902    6311.2357       8.6817       8.6817    1168.1951    1464.9914       3.4394     980.7690     795.0962    7453.5405      -0.0364       2.3137
 5165.2932    5165.2932       8.5000      71.8526     -37.3148    6315.1012       8.6792       8.6792    1167.7429    1453.1267       3.4040     969.2356     802.8907    7473.8289      -0.0327       2.3146
 5165.1408    5165.1408       8.5000      70.2829     -35.9751    6315.8107       8.6776       8.6776    1150.3551    1444.7479       3.4374     964.8930     804.1649    7492.5281      -0.0278       2.3176
 5164.9884    5164.9884       8.5000      68.3652     -48.8737    6302.2037       8.6778       8.6778    1136.7285    1446.8087       3.4267     966.2475     802.6982    7499.5960      -0.0257       2.3182
 5164.8360    5164.8360       8.5000      65.2503     -57.7979    6292.4202       8.6791       8.6791    1143.6173    1472.8002       3.4323     972.3267     803.7179    7460.3691      -0.0338       2.3124
 5164.6836    5164.6836       8.5000      62.1555     -47.0529    6302.3675       8.6802       8.6802    1164.9687    1512.4896       3.4691     985.8547     810.6786    7415.6945      -0.0455       2.3027
 5164.5312    5164.5312       8.5000      62.1466     -33.3809    6315.4340       8.6804       8.6804    1182.9905    1537.7518       3.4764     998.1423     824.2952    7434.3936      -0.0475       2.2951
 5164.3788    5164.3788       8.5000      64.7447     -29.9023    6318.3916       8.6795       8.6795    1194.9131    1546.9616       3.4834     998.1813     837.1424    7441.3578      -0.0488       2.2912
 5164.2264    5164.2264       8.5000      67.2429     -26.9031    6320.9000       8.6782       8.6782    1201.5251    1547.7037       3.5046     989.6534     835.1506    7398.9523      -0.0546       2.2900
 5164.0740    5164.0740       8.5000      68.8441     -19.7260    6327.7083       8.6761       8.6761    1196.9595    1535.0613       3.5183     984.4323     821.4618    7404.9258      -0.0522       2.2924
 5163.9216    5163.9216       8.5000      69.4644     -23.3637    6323.7530       8.6748       8.6748    1173.7759    1506.5013       3.5153     976.6588     805.1145    7424.2361      -0.0447       2.2998
 5163.7692    5163.7692       8.5000      68.9207     -41.4363    6305.1211       8.6759       8.6759    1135.7078    1467.8567       3.5126     961.1126     784.6650    7316.5436      -0.0500       2.3113
 5163.6168    5163.6168       8.5000      69.1463     -54.9782    6290.6935       8.6783       8.6783    1095.2159    1428.9782       3.5147     944.4536     763.4329    7182.4204      -0.0583       2.3229
 5163.4644    5163.4644       8.5000      70.1324     -53.1318    6291.5745       8.6794       8.6794    1079.2532    1410.0099       3.4977     943.6767     757.9247    7189.5433      -0.0537       2.3278
 5163.3120    5163.3120       8.5000      70.1839     -49.5205    6294.3233       8.6802       8.6802    1099.9706    1428.4451       3.4186     959.9423     779.5471    7304.6257      -0.0436       2.3221
 5163.1596    5163.1596       8.5000      70.6551     -56.0186    6286.9639       8.6813       8.6813    1138.9969    1460.1101       3.3083     979.2272     811.0804    7400.2909      -0.0393       2.3119
 5163.0072    5163.0072       8.5000      72.8780     -63.3620    6278.6479       8.6818       8.6818    1168.7259    1462.0716       3.2335     992.0178     827.0633    7424.8274      -0.0396       2.3073
 5162.8548    5162.8548       8.5000      74.8482     -58.2799    6282.7519       8.6822       8.6822    1170.2376    1432.7089       3.2375     995.7760     815.0926    7388.6412      -0.0411       2.3115
 5162.7024    5162.7024       8.5000      75.7591     -44.8227    6295.3909       8.6834       8.6834    1152.3007    1399.5583       3.2602     987.0891     788.1392    7316.2757      -0.0447       2.3198
 5162.5500    5162.5500       8.5000      76.1654     -35.1344    6304.4326       8.6837       8.6837    1129.1833    1384.5314       3.2643     967.9336     767.9817    7277.4521      -0.0454       2.3266
 5162.3976    5162.3976       8.5000      75.3375     -33.5962    6305.3910       8.6822       8.6822    1110.6126    1393.2525       3.2727     955.0952     767.6551    7292.7536      -0.0424       2.3293
 5162.2452    5162.2452       8.5000      73.7808     -40.7916    6297.5500       8.6801       8.6801    1109.6726    1413.2872       3.2677     957.6347     784.5187    7322.7389      -0.0408       2.3271
 5162.0928    5162.0928       8.5000      72.9026     -49.2878    6288.2729       8.6782       8.6782    1137.5620    1432.1097       3.2176     960.7532     806.8120    7343.8959      -0.0431       2.3205
 5161.9404    5161.9404       8.5000      72.4077     -47.0471    6289.7103       8.6776       8.6776    1171.8200    1444.4801       3.1617     958.5944     823.6285    7352.9616      -0.0469       2.3139
 5161.7880    5161.7880       8.5000      71.3922     -34.0030    6302.1099       8.6796       8.6796    1182.3812    1447.0631       3.1188     964.6593     833.3544    7348.2113      -0.0488       2.3118
 5161.6356    5161.6356       8.5000      69.4348     -21.4672    6314.1930       8.6828       8.6828    1174.7509    1445.2751       3.0869     983.5322     840.9495    7364.1888      -0.0459       2.3130
