~VERSION INFORMATION
VERS.           2.0   :CWLS Log ASCII Standard - VERSION 2.0
WRAP.           NO    :One Line per depth step
PROD.  Schlumberger   :LAS Producer
PROG.  DLIS to ASCII 2.3                               :LAS Program name and version
CREA.        2023/07/14 00:15                          :LAS Creation date {YYYY/MM/DD hh:mm}
DLIS_CREA.  2023-Jul-14 00:11                          :DLIS Creation date and time {YYYY-MMM-DD hh:mm}
SOURCE.     LIS_003.dlis                               :DLIS File Name
FILE-ID.     LIS   .003                                :File Identification Number
#--------------------------------------------------
~WELL INFORMATION
#MNEM.UNIT      DATA             DESCRIPTION
#---- ------ --------------   -----------------------------
STRT .M      5239.8168       :START DEPTH     
STOP .M      3827.6784       :STOP DEPTH     
STEP .M        -0.1524       :STEP     
NULL .          -999.25      :NULL VALUE
COMP .        PETROBRAS S.A.                           :COMPANY
WELL .        3-BRSA-293D-SPS                          :WELL
FLD  .        BS-400                                   :FIELD
LOC  .        BASE SAD 69:                             :LOCATION
CNTY .        SANTOS                                   :COUNTY
STAT .        BRASIL                                   :STATE
CTRY .        BRASIL                                   :COUNTRY
API  .                                                 :API NUMBER
UWI  .                                                 :UNIQUE WELL ID
DATE .        22/10/2004                               :LOG DATE
SRVC .        Schlumberger                             :SERVICE COMPANY
LATI .DEG                                              :LATITUDE
LONG .DEG                                              :LONGITUDE
GDAT .                                                 :GeoDetic Datum
#-----------------------------------------------------------------------------
~PARAMETER INFORMATION
#MNEM.UNIT    VALUE                      DESCRIPTION
#---- -----   --------------------       ------------------------
APD  .M               24                 :
BHT  .DEGF           260                 :
BLI  .M       5227.50000                 :
BS   .IN         8.50000                 :
CN   .        PETROBRAS S.A.             :
COUN .        SANTOS                     :
CS   .IN         9.62500                 :
DATE .        22/10/2004                 :
DFD  .LB/G      12.30000                 :
DFL  .C3               2                 :
DFPH .        N/A                        :
DFT  .        SINTETICO                  :
DFV  .S               87                 :
DMF  .        MESA ROTATIVA              :
EDF  .M               24                 :
EGL  .M             -500                 :
EKB  .        N/A                        :
ENGI .        HERNANDEZ/LOCK             :
FL1  .        X   7292392.00 M LAT 24 28 47.189 S :
FL2  .        Y    584087.00 M LON 44 10 12.698 W :
FL3  .        MC  45 GRAUS               :
FN   .        BS-400                     :
LMF  .        MESA ROTATIVA              :
LUL  .        MACAE                      :
MCSS .        PRENSA                     :
MCST .DEGF            80                 :
MFSS .        PRENSA                     :
MFST .DEGF            80                 :
MSS  .        LINHA DE FLUXO             :
MST  .DEGF            80                 :
PDAT .        NIVEL DO MAR               :
R1   .        01. APRESENTAÇÃO DE ACORDO COM REQUERIMENTO DO CLIENTE :
R2   .        02. TEMPERATURA MÁXIMA DO POÇO T1=T2= 260 DEGF @  5180 M :
R3   .        03. INICIO DA CIRCULAÇÃO  13 45 H 21/10/2004 :
R4   .        04. FINAL DA CIRCULAÇÃO   16 00 H 21/10/2004 :
R5   .        05. TEMPO TOTAL DE CIRCULAÇÃO  02 15 H :
R6   .        06. FLUIDO DE PERFURAÇÃO  SINTETICO (BR-MUL  BR-MI)  65% TEOR DO OLEO :
R7   .        07. SALINIDADE DA LAMA  266377 PPM NACL NA FASE DE AGUA :
R8   .        08. INCLINAÇÃO MÁXIMA DO POÇO  37.37 GRAUS @ 5100 M :
R9   .        09. PRIMEIRAS E ULTIMAS LEITURAS  :
RMB  .OHMM    > 10                       :
RMCS .OHMM    > 10                       :
RMFS .OHMM    > 10                       :
RMS  .OHMM    > 10                       :
RUN  .                 1                 :
STAT .        BRASIL                     :
TCS  .        16 00 H                    :
TDD  .M             5230                 :
TDL  .M             5231                 :
TLAB .        N/A                        :
TLI  .M             3850                 :
WITN .        ALCIDIO/VLADIMIR           :
WN   .        3-BRSA-293D-SPS            :
LUN  .              8808                 :
HIDE .        3-SPS-41D                  :
HID2 .        HIGH DEFINITION INDUCTION LOG :
HID3 .        X-MULTIPOLE ARRAY ACOUSTILOG :
HID4 .        GAMMA RAY LOG              :
HID5 .        TTRM SUB                   :
CLAB .        BACIA                      :
SLAB .        PAIS                       :
CMT1 .        ESC  1 1000                :
CMT2 .        PROF. MEDIDA               :
CMT4 .        SONDA  SS-43               :
HDAT .        SAD 69                     :
FL   .        BASE SAD 69                :
OS1  .        GR/CN/ZDL                  :
OS2  .        MREX/GR                    :
OS3  .        RCI/GR                     :
0S4  .        3DEX/GR                    :
OS5  .        SL/GR                      :
LNAM .        MREX/ZDL/CN/XMAC/HDIL/RCI/3DEX/SL/GR :
TOOL .        MREX/ZDL/CN/XMAC/HDIL/RCI/3DEX/SL/GR :
LSOU .        PETROBRAS                  :
LSRV .        OH WIRELINE                :
LTYP .        RAW                        :
EPD  .M                0                 :
LDAT .        22/10/2004                 :
TRIP .                 1                 :
SON  .            772317                 :
CBDR .M             4277                 :
CBLO .M             4277                 :
CBL1 .M             4277                 :
STEM .DEGF    N/A                        :
BSAL .            266377                 :
BARI .        OFF                        :
DLAB .        21/10/2004                 :
MRT  .DEGF           260                 :
TSTR .        HDIL/XMAC/GR/TTRM          :
TSTG .        N/A                        :
STUS .        FINAL                      :
LCNM .        BAKER ATLAS                :
LCC  .               150                 :
NATI .        BRASIL                     :
OPMD .        OH.WIRELINE                :
PANA .        HERNANDEZ/LOCK             :
PCON .        BAKER ATLAS                :
R11  .        SL     5196.0 M/4960.0 M   :
R12  .        GR     4960.0 M/4277.0 M   :
R13  .        XMAC   5202.0 M/3850.0 M   :
R14  .        HDIL   5227.5 M/4277.0 M   :
R15  .        3DEX   5217.0 M/4960.0 M   :
R17  .        10. PONTO FRACO UTILIZADO  10K :
R18  .        11. DECLINAÇÃO MAGNETICA  -20.9 GRAUS :
R19  .        12. COORDENADAS ARATU      :
R21  .        X   7292512.00 M           :
R22  .        Y    583936.00 M           :
R23  .        MC  45 GRAUS               :
R25  .        13. CADASTRO ANP  86316021017 :
PVER .           4.10000                 :
WDFN .        /space/expusr/3-SPS-41D/i77bf03_2spf.xtf :
OCT  .        i77bf                      :
#-----------------------------------------------------------------------------
~CURVE INFORMATION
#MNEM.UNIT   API CODE                                  DESCRIPTION
#---- -----  --------                                  -----------------------
DEPT .M                                                :DEPTH (BOREHOLE) {F10.4}
DEPT .M                                                : {F13.4}
DT   .US/F                                             : {F13.4}
SFN1 .US                                               : {F13.4}
SFN2 .US                                               : {F13.4}
SFN3 .US                                               : {F13.4}
SFN4 .US                                               : {F13.4}
TT   .MS                                               : {F13.4}
#-----------------------------------------------------------------------------
# 
#     DEPT        DEPT         DT           SFN1         SFN2         SFN3         SFN4         TT
#
~A  
# ...
 4854.5496    4854.5496      68.1866     696.4993     725.2554     757.6299     791.0003      79.5772
 4854.3972    4854.3972      68.2295     696.0178     729.2489     761.2556     791.2558      79.6113
 4854.2448    4854.2448      68.1431     706.3846     728.6480     764.5039     794.6315      79.6454
 4854.0924    4854.0924      67.9028     710.9818     739.7062     766.3676     797.7377      79.6792
 4853.9400    4853.9400      67.6238     711.4982     743.6111     775.9654     799.1201      79.7130
 4853.7876    4853.7876      67.5196     709.7556     743.1266     776.1246     807.9714      79.7468
 4853.6352    4853.6352      67.6761     708.7529     741.7539     777.2468     809.4957      79.7806
 4853.4828    4853.4828      67.9249     709.6228     741.8747     777.0006     811.3703      79.8146
 4853.3304    4853.3304      67.9912     709.9992     742.4987     777.6237     810.2524      79.8486
 4853.1780    4853.1780      67.7510     711.3726     742.2504     777.8746     810.8739      79.8825
 4853.0256    4853.0256      67.3343     710.8757     743.7479     777.2509     811.1247      79.9162
 4852.8732    4852.8732      67.0109     711.9989     743.5003     778.1241     810.6255      79.9497
 4852.7208    4852.7208      66.9491     712.0000     743.9997     778.2499     812.8736      79.9832
 4852.5684    4852.5684      67.0851     712.3750     744.0000     778.3750     810.7500      80.0167
 4852.4160    4852.4160      67.2412     712.0000     744.0000     779.3750     812.5000      80.0504
 4852.2636    4852.2636      67.2999     712.0000     743.9998     780.9991     812.8753      80.0840
 4852.1112    4852.1112      67.2339     711.9993     743.6251     778.9998     813.4989      80.1177
 4851.9588    4851.9588      67.0727     711.1235     743.7485     778.7498     812.2491      80.1512
 4851.8064    4851.8064      66.8776     709.8724     742.4996     778.6232     811.4996      80.1847
 4851.6540    4851.6540      66.7050     708.2490     742.2464     777.4983     811.2493      80.2180
 4851.5016    4851.5016      66.6173     707.7520     740.3826     776.6286     810.8765      80.2511
 4851.3492    4851.3492      66.6618     706.8783     740.1259     776.0023     810.0033      80.2845
 4851.1968    4851.1968      66.7909     707.7471     740.2496     776.3737     809.5017      80.3179
 4851.0444    4851.0444      66.8902     707.7500     740.0007     776.0011     808.0045      80.3514
 4850.8920    4850.8920      66.8748     705.2565     738.6286     776.0000     808.3740      80.3848
 4850.7396    4850.7396      66.6952     705.3747     738.9992     776.0000     808.7492      80.4182
 4850.5872    4850.5872      66.3938     704.1273     736.8790     774.7523     808.0014      80.4514
 4850.4348    4850.4348      66.1429     704.0002     736.0013     772.6282     807.5008      80.4845
 4850.2824    4850.2824      66.1309     704.0000     736.0000     771.2516     804.7531      80.5175
 4850.1300    4850.1300      66.4777     703.8751     735.2506     768.8768     801.7523      80.5508
 4849.9776    4849.9776      67.1334     701.6259     735.2500     769.3748     801.3752      80.5844
 4849.8252    4849.8252      67.7976     703.7500     736.0000     772.7500     804.7500      80.6183
 4849.6728    4849.6729      68.1287     703.5000     735.8750     770.5000     805.6250      80.6523
 4849.5204    4849.5204      68.0215     703.6251     736.0000     772.2502     804.8753      80.6864
 4849.3680    4849.3680      67.6420     703.7501     736.0000     772.5000     805.2500      80.7202
 4849.2156    4849.2156      67.3433     703.8752     736.0000     772.5004     805.2500      80.7539
 4849.0632    4849.0632      67.4331     703.9993     736.0000     772.7507     805.2500      80.7876
 4848.9108    4848.9108      67.8913     703.6302     736.0000     773.1196     805.2505      80.8216
 4848.7584    4848.7584      68.4464     705.9909     736.0000     770.6346     805.4990      80.8556
 4848.6060    4848.6060      68.8553     706.7474     738.4913     775.2339     802.3859      80.8900
 4848.4536    4848.4536      69.0282     707.7469     740.3692     775.9977     807.9825      80.9246
 4848.3012    4848.3012      69.0910     707.9993     739.7517     776.0000     808.0000      80.9591
 4848.1488    4848.1488      69.2107     708.4988     741.1217     776.0000     808.9976      80.9938
 4847.9964    4847.9964      69.3789     710.7455     741.7487     776.9980     809.4990      81.0284
 4847.8440    4847.8440      69.4897     711.9979     742.7484     776.8752     809.7496      81.0632
 4847.6916    4847.6916      69.5140     712.0000     743.9984     778.9973     811.2481      81.0980
 4847.5392    4847.5392      69.4999     712.4995     744.0000     779.9991     812.1242      81.1328
 4847.3868    4847.3868      69.4974     713.2496     744.1249     780.7496     812.2499      81.1675
 4847.2344    4847.2344      69.4971     712.0000     744.6250     782.1250     813.5000      81.2023
 4847.0820    4847.0820      69.3006     712.6250     744.6250     784.0000     816.0000      81.2369
 4846.9296    4846.9296      68.5228     712.1249     745.3742     782.8746     815.9996      81.2712
 4846.7772    4846.7772      66.7932     712.0000     744.0009     782.2498     815.2507      81.3046
 4846.6248    4846.6248      63.9057     712.0005     744.9987     781.9923     815.9895      81.3366
 4846.4724    4846.4724      60.1519     712.3531     743.9836     776.1113     807.9836      81.3667
 4846.3200    4846.3200      56.5981     699.3681     734.2373     767.9931     798.2467      81.3950
 4846.1676    4846.1676      54.6307     696.0134     728.0248     764.6384     796.6314      81.4221
 4846.0152    4846.0152      55.0659     681.4280     719.2817     754.5367     790.0240      81.4497
 4845.8628    4845.8628      57.7265     675.8929     709.7809     747.1490     779.4095      81.4786
 4845.7104    4845.7104      61.4576     676.3736     709.8746     747.2496     782.6156      81.5093
 4845.5580    4845.5580      64.9499     676.2503     710.4984     745.8785     780.7547      81.5418
 4845.4056    4845.4056      67.6289     674.3790     709.8763     743.3804     776.7586      81.5756
 4845.2532    4845.2532      69.5931     674.4998     709.5007     746.9936     779.8695      81.6104
 4845.1008    4845.1008      70.9436     675.3738     707.7525     742.6311     782.6211      81.6459
 4844.9484    4844.9484      71.5333     675.9994     708.9987     747.2452     784.6229      81.6817
 4844.7960    4844.7960      71.1000     680.8717     715.8704     749.6234     787.4981      81.7172
 4844.6436    4844.6436      69.5868     679.0000     714.5000     752.8750     787.7500      81.7521
 4844.4912    4844.4912      67.4768     675.5000     708.5000     745.5000     781.5000      81.7858
 4844.3388    4844.3388      65.4939     673.0002     706.0001     741.4999     777.2501      81.8186
 4844.1864    4844.1864      64.1297     673.4988     706.2478     741.3735     777.4971      81.8506
 4844.0340    4844.0340      63.5892     672.0006     703.5010     739.4999     773.8738      81.8824
 4843.8816    4843.8816      63.7849     672.5093     704.3744     739.3727     772.8721      81.9143
 4843.7292    4843.7292      64.3655     678.5161     704.0101     737.8767     770.9988      81.9465
 4843.5768    4843.5768      64.9484     686.8935     709.2696     738.7642     770.3776      81.9790
 4843.4244    4843.4244      65.3173     694.9697     717.8428     744.9767     771.4958      82.0115
 4843.2720    4843.2720      65.4918     702.5992     727.7166     752.4746     778.2272      82.0442
 4843.1196    4843.1196      65.6798     701.5034     731.2394     759.9774     783.9827      82.0771
 4842.9672    4842.9672      66.0710     700.8767     734.1174     767.9788     792.2282      82.1101
 4842.8148    4842.8148      66.6580     701.1244     731.7554     768.0000     799.9824      82.1435
 4842.6624    4842.6624      67.2943     699.2536     732.8729     768.0000     800.2495      82.1771
