~VERSION INFORMATION
VERS.           2.0   :CWLS Log ASCII Standard - VERSION 2.0
WRAP.           NO    :One Line per depth step
PROD.  Schlumberger   :LAS Producer
PROG.  DLIS to ASCII 2.3                               :LAS Program name and version
CREA.        2023/07/14 00:15                          :LAS Creation date {YYYY/MM/DD hh:mm}
DLIS_CREA.  2023-Jul-14 00:11                          :DLIS Creation date and time {YYYY-MMM-DD hh:mm}
SOURCE.     LIS_009.dlis                               :DLIS File Name
FILE-ID.     LIS   .002                                :File Identification Number
#--------------------------------------------------
~WELL INFORMATION
#MNEM.UNIT      DATA             DESCRIPTION
#---- ------ --------------   -----------------------------
STRT .M      5301.9960       :START DEPTH     
STOP .M      5058.6132       :STOP DEPTH     
STEP .M        -0.1524       :STEP     
NULL .          -999.25      :NULL VALUE
COMP .        PETROBRAS S.A.                           :COMPANY
WELL .        3-BRSA-293D-SPS                          :WELL
FLD  .        BS-400                                   :FIELD
LOC  .        BASE SAD 69:                             :LOCATION
CNTY .        SANTOS                                   :COUNTY
STAT .        BRASIL                                   :STATE
CTRY .        BRASIL                                   :COUNTRY
API  .                                                 :API NUMBER
UWI  .                                                 :UNIQUE WELL ID
DATE .        15/11/2004                               :LOG DATE
SRVC .        Schlumberger                             :SERVICE COMPANY
LATI .DEG                                              :LATITUDE
LONG .DEG                                              :LONGITUDE
GDAT .                                                 :GeoDetic Datum
#-----------------------------------------------------------------------------
~PARAMETER INFORMATION
#MNEM.UNIT    VALUE                      DESCRIPTION
#---- -----   --------------------       ------------------------
APD  .M               24                 :
BHT  .DEGF           260                 :
BLI  .M             5289                 :
BS   .IN         8.50000                 :
CN   .        PETROBRAS S.A.             :
COUN .        SANTOS                     :
CS   .IN         9.62500                 :
DATE .        15/11/2004                 :
DFD  .LB/G      12.30000                 :
DFL  .C3               2                 :
DFPH .        N/A                        :
DFT  .        SINTETICO                  :
DFV  .S               95                 :
DMF  .        MESA ROTATIVA              :
EDF  .M               24                 :
EGL  .M             -500                 :
EKB  .        N/A                        :
ENGI .        HERNANDEZ / LOCK           :
FL1  .        X   7292392.00 M LAT 24 28 47.189 S :
FL2  .        Y    584087.00 M LON 44 10 12.698 W :
FL3  .        MC  45 GRAUS               :
FN   .        BS-400                     :
LMF  .        MESA ROTATIVA              :
LUL  .        MACAE                      :
MCSS .        PRENSA                     :
MCST .DEGF            80                 :
MFSS .        PRENSA                     :
MFST .DEGF            80                 :
MSS  .        LINHA DE FLUXO             :
MST  .DEGF            80                 :
PDAT .        NIVEL DO MAR               :
R1   .        01. APRESENTAÇÃO DE ACORDO COM REQUERIMENTO DO CLIENTE :
R2   .        02. TEMPERATURA MÁXIMA DO POÇO T1=T2= 290 DEGF @  5275 M :
R3   .        03. INICIO DA CIRCULAÇÃO  12/11/2004 09 00 H :
R4   .        04. FINAL DA CIRCULAÇÃO   12/11/2004 18 00 H :
R5   .        05. TEMPO TOTAL DE CIRCULAÇÃO   09 00 H :
R6   .        06. FLUIDO DE PERFURAÇÃO  SINTETICO (BR-MUL  BR-MI)  60% TEOR DO OLEO :
R7   .        07. SALINIDADE DA LAMA  254762 PPM NACL NA FASE DE AGUA :
R8   .        08. INCLINAÇÃO MÁXIMA DO POÇO  37.37 GRAUS @ 5100 M :
R9   .        09. PRIMEIRAS E ULTIMAS LEITURAS  :
RMB  .OHMM    > 10                       :
RMCS .OHMM    > 10                       :
RMFS .OHMM    > 10                       :
RMS  .OHMM    >10                        :
RUN  .                 2                 :
STAT .        BRASIL                     :
TCS  .        18 00 H                    :
TDD  .M             5288                 :
TDL  .M             5293                 :
TLAB .        N/A                        :
TLI  .M             5000                 :
WITN .        ERNANI / ZE MARIA          :
WN   .        3-BRSA-293D-SPS            :
LUN  .              8808                 :
HIDE .        3-SPS-41D                  :
HID2 .        HIGH DEFINITION INDUCTION LOG :
HID3 .        X-MULTIPOLE ARRAY ACOUSTILOG :
HID4 .        GAMMA RAY LOG              :
HID5 .        TTRM SUB                   :
CLAB .        BACIA                      :
SLAB .        PAIS                       :
CMT1 .        ESC  1 200                 :
CMT2 .        PROF. MEDIDA               :
CMT4 .        SONDA  SS-43               :
HDAT .        SAD 69                     :
FL   .        BASE SAD 69                :
OS1  .        RCI/GR                     :
OS2  .        CHECK SHOT                 :
OS3  .        GR/CN/ZDL                  :
OS5  .        RCOR/GR                    :
LNAM .        ZDL/CN/XMAC/HDIL/EARTH IMAGER/RCI/RCOR/CHECK SHOT/GR :
TOOL .        ZDL/CN/XMAC/HDIL/EARTH IMAGER/RCI/RCOR/CHECK SHOT/GR :
LSOU .        PETROBRAS                  :
LSRV .        OH WIRELINE                :
LTYP .        RAW                        :
EPD  .M                0                 :
LDAT .        15/11/2004                 :
TRIP .                 3                 :
SON  .            786588                 :
CBDR .M             4277                 :
CBLO .        NR                         :
CBL1 .        NR                         :
STEM .DEGF    N/A                        :
BSAL .            254762                 :
BARI .        OFF                        :
DLAB .        12/11/2004                 :
MRT  .DEGF           290                 :
TSTR .        HDIL/XMAC/GR/TTRM          :
TSTG .        N/A                        :
STUS .        FINAL                      :
LCNM .        BAKER ATLAS                :
LCC  .               150                 :
NATI .        BRASIL                     :
OPMD .        OH.WIRELINE                :
PANA .        HERNANDEZ / LOCK           :
PCON .        BAKER ATLAS                :
R11  .        SL     5268.3 M / 5000.0 M :
R12  .        GR     5268.3 M / 5000.0 M :
R13  .        XMAC   5279.5 M / 5000.0 M :
R14  .        HDIL   5289.0 M / 5000.0 M :
R17  .        11. DECLINAÇÃO MAGNETICA  -20.9 GRAUS :
R18  .        12. COORDENADAS BASE       :
R21  .        Y    583936.00 M           :
R22  .        MC  45 GRAUS               :
PVER .           4.10000                 :
WDFN .        /space/expusr/3-SPS-41D_RUN2/i77bf01_4spf.xtf :
OCT  .        i77bf                      :
OS4  .        EARTH IMAGER               :
R16  .        10. PONTO FRACO UTILIZADO  10K :
R20  .        X   7292512.00 M           :
R24  .        13. CADASTRO ANP  86316021017 :
#-----------------------------------------------------------------------------
~CURVE INFORMATION
#MNEM.UNIT   API CODE                                  DESCRIPTION
#---- -----  --------                                  -----------------------
DEPT .M                                                :DEPTH (BOREHOLE) {F10.4}
DEPT .M                                                : {F13.4}
BIT  .IN                                               : {F13.4}
GR   .GAPI                                             : {F13.4}
M2R1 .OHMM                                             : {F13.4}
M2R2 .OHMM                                             : {F13.4}
M2R3 .OHMM                                             : {F13.4}
M2R6 .OHMM                                             : {F13.4}
M2R9 .OHMM                                             : {F13.4}
M2RX .OHMM                                             : {F13.4}
SPD  .M/MN                                             : {F13.4}
TEN  .LBF                                              : {F13.4}
TTEN .LBF                                              : {F13.4}
#-----------------------------------------------------------------------------
# 
#     DEPT        DEPT         BIT          GR           M2R1         M2R2         M2R3         M2R6         M2R9         M2RX         SPD          TEN          TTEN
#
~A  
# ...
 5104.4856    5104.4856       8.5000      83.2115       3.2991       4.5507       5.3942       5.9130       6.0603       6.1882       4.7391     128.1215    7792.3079
 5104.3332    5104.3332       8.5000      80.3482       3.2660       4.5335       5.3696       5.8783       6.0233       6.1492       4.7399     148.7892    7815.4259
 5104.1808    5104.1808       8.5000      80.0255       3.2604       4.5347       5.3625       5.8633       6.0040       6.1281       4.7379     192.9840    7862.7336
 5104.0284    5104.0284       8.5000      80.8786       3.2810       4.5473       5.3646       5.8594       5.9945       6.1170       4.7405     243.1130    7916.9681
 5103.8760    5103.8760       8.5000      81.9428       3.3200       4.5653       5.3758       5.8696       6.0009       6.1229       4.7481     296.1492    7975.1016
 5103.7236    5103.7236       8.5000      83.5671       3.4049       4.6112       5.4129       5.9072       6.0318       6.1532       4.7481     368.1412    8053.2969
 5103.5712    5103.5712       8.5000      84.9333       3.5295       4.7074       5.5144       6.0177       6.1371       6.2599       4.7389     432.8830    8125.5932
 5103.4188    5103.4188       8.5000      84.7844       3.7217       4.9180       5.7611       6.2900       6.4084       6.5369       4.7285     461.6698    8162.9009
 5103.2664    5103.2664       8.5000      83.6002       3.9689       5.2460       6.1583       6.7300       6.8530       6.9916       4.7231     473.3525    8183.3327
 5103.1140    5103.1140       8.5000      82.6350       4.1411       5.5170       6.4974       7.1103       7.2399       7.3890       4.7237     492.8623    8211.6421
 5102.9616    5102.9616       8.5000      82.2354       4.1322       5.5558       6.5623       7.1927       7.3277       7.4823       4.7237     514.7974    8242.7153
 5102.8092    5102.8092       8.5000      83.9591       4.0094       5.4134       6.4032       7.0302       7.1693       7.3252       4.7186     552.0753    8289.6129
 5102.6568    5102.6568       8.5000      87.8540       3.9040       5.2604       6.2200       6.8394       6.9842       7.1413       4.7149     631.4122    8379.7533
 5102.5044    5102.5044       8.5000      91.5399       3.8738       5.1959       6.1360       6.7561       6.9099       7.0710       4.7188     707.3003    8468.0242
 5102.3520    5102.3520       8.5000      93.7947       3.9164       5.2336       6.1714       6.8063       6.9773       7.1489       4.7260     726.6267    8500.8073
 5102.1996    5102.1996       8.5000      95.1716       3.9335       5.2639       6.2069       6.8514       7.0328       7.2115       4.7265     722.6546    8510.6973
 5102.0472    5102.0472       8.5000      95.3872       3.9239       5.2682       6.2145       6.8646       7.0537       7.2382       4.7148     753.2586    8555.4658
 5101.8948    5101.8948       8.5000      94.9696       3.8975       5.2506       6.1960       6.8475       7.0412       7.2302       4.6979     814.9090    8631.8055
 5101.7424    5101.7424       8.5000      94.3093       3.8576       5.2089       6.1464       6.7939       6.9892       7.1811       4.6879     887.3193    8720.0336
 5101.5900    5101.5900       8.5000      93.4481       3.8174       5.1594       6.0843       6.7244       6.9189       7.1127       4.6872     950.9073    8801.2136
 5101.4376    5101.4376       8.5000      93.0180       3.7983       5.1335       6.0475       6.6807       6.8740       7.0700       4.6940     973.1607    8841.9897
 5101.2852    5101.2852       8.5000      93.2678       3.8161       5.1225       5.9959       6.6023       6.7955       7.0040       4.6998     976.7258    8863.7676
 5101.1328    5101.1328       8.5000      93.3997       3.8096       5.1053       5.9717       6.5759       6.7704       6.9810       4.6972    1008.2948    8913.3496
 5100.9804    5100.9804       8.5000      93.2000       3.8143       5.1079       5.9747       6.5820       6.7788       6.9923       4.6890    1066.2772    8990.1122
 5100.8280    5100.8280       8.5000      93.2031       3.8245       5.1217       5.9952       6.6092       6.8088       7.0259       4.6828    1112.9332    9056.4904
 5100.6756    5100.6756       8.5000      93.7726       3.8331       5.1333       6.0156       6.6377       6.8400       7.0605       4.6760    1144.2381    9108.2188
 5100.5232    5100.5232       8.5000      94.6498       3.8385       5.1385       6.0286       6.6587       6.8631       7.0866       4.6681    1147.7765    9132.5485
 5100.3708    5100.3708       8.5000      94.9009       3.8472       5.1475       6.0445       6.6828       6.8892       7.1157       4.6638    1092.6493    9097.6050
 5100.2184    5100.2184       8.5000      93.9767    -999.2500    -999.2500    -999.2500    -999.2500    -999.2500    -999.2500       4.6648    1034.6027    9057.9676
 5100.0660    5100.0660       8.5000      92.4981    -999.2500    -999.2500    -999.2500    -999.2500    -999.2500    -999.2500       4.6694    1084.1237    9125.5404
 5099.9136    5099.9136       8.5000      91.3204    -999.2500    -999.2500    -999.2500    -999.2500    -999.2500    -999.2500       4.6730    1219.8963    9281.3280
 5099.7612    5099.7612       8.5000      90.8508    -999.2500    -999.2500    -999.2500    -999.2500    -999.2500    -999.2500       4.6678    1327.4397    9410.9105
 5099.6088    5099.6088       8.5000      91.2035    -999.2500    -999.2500    -999.2500    -999.2500    -999.2500    -999.2500       4.6566    1376.9910    9482.7436
 5099.4564    5099.4564       8.5000      92.0245    -999.2500    -999.2500    -999.2500    -999.2500    -999.2500    -999.2500       4.6515    1365.1841    9492.7212
 5099.3040    5099.3040       8.5000      91.5520    -999.2500    -999.2500    -999.2500    -999.2500    -999.2500    -999.2500       4.6566    1243.1637    9391.3223
 5099.1516    5099.1516       8.5000      89.3697    -999.2500    -999.2500    -999.2500    -999.2500    -999.2500    -999.2500       4.6633    1075.1402    9241.5644
 5098.9992    5098.9992       8.5000      88.0175    -999.2500    -999.2500    -999.2500    -999.2500    -999.2500    -999.2500       4.6599    1043.7205    9227.2508
 5098.8468    5098.8468       8.5000      88.4694    -999.2500    -999.2500    -999.2500    -999.2500    -999.2500    -999.2500       4.6472    1197.2523    9400.2624
 5098.6944    5098.6944       8.5000      89.3764    -999.2500    -999.2500    -999.2500    -999.2500    -999.2500    -999.2500       4.6402    1386.8241    9613.8430
 5098.5420    5098.5420       8.5000      90.7027    -999.2500    -999.2500    -999.2500    -999.2500    -999.2500    -999.2500       4.6418    1486.0210    9740.7441
 5098.3896    5098.3896       8.5000      91.8786    -999.2500    -999.2500    -999.2500    -999.2500    -999.2500    -999.2500       4.6460    1471.5571    9754.8711
 5098.2372    5098.2372       8.5000      92.0093    -999.2500    -999.2500    -999.2500    -999.2500    -999.2500    -999.2500       4.6532    1335.4417    9645.0619
 5098.0848    5098.0848       8.5000      92.4550    -999.2500    -999.2500    -999.2500    -999.2500    -999.2500    -999.2500       4.6572    1160.5260    9492.5259
 5097.9324    5097.9324       8.5000      93.6237    -999.2500    -999.2500    -999.2500    -999.2500    -999.2500    -999.2500       4.6473    1142.5600    9495.1664
 5097.7800    5097.7800       8.5000      93.7730    -999.2500    -999.2500    -999.2500    -999.2500    -999.2500    -999.2500       4.6314    1334.0657    9710.1221
 5097.6276    5097.6276       8.5000      93.0438    -999.2500    -999.2500    -999.2500    -999.2500    -999.2500    -999.2500       4.6232    1553.8897    9958.2356
 5097.4752    5097.4752       8.5000      92.5607    -999.2500    -999.2500    -999.2500    -999.2500    -999.2500    -999.2500       4.6205    1635.9921   10070.7013
 5097.3228    5097.3228       8.5000      93.0105    -999.2500    -999.2500    -999.2500    -999.2500    -999.2500    -999.2500       4.6213    1583.2222   10047.6455
