~VERSION INFORMATION
VERS.           2.0   :CWLS Log ASCII Standard - VERSION 2.0
WRAP.           NO    :One Line per depth step
PROD.  Schlumberger   :LAS Producer
PROG.  DLIS to ASCII 2.3                               :LAS Program name and version
CREA.        2023/07/14 00:15                          :LAS Creation date {YYYY/MM/DD hh:mm}
DLIS_CREA.  2023-Jul-14 00:11                          :DLIS Creation date and time {YYYY-MMM-DD hh:mm}
SOURCE.     LIS_005.dlis                               :DLIS File Name
FILE-ID.     LIS   .001                                :File Identification Number
#--------------------------------------------------
~WELL INFORMATION
#MNEM.UNIT      DATA             DESCRIPTION
#---- ------ --------------   -----------------------------
STRT .M      5238.7500       :START DEPTH     
STOP .M      5087.2644       :STOP DEPTH     
STEP .M        -0.1524       :STEP     
NULL .          -999.25      :NULL VALUE
COMP .        PETROBRAS S.A.                           :COMPANY
WELL .        3-BRSA-293D-SPS                          :WELL
FLD  .        BS-400                                   :FIELD
LOC  .        BASE SAD 69:                             :LOCATION
CNTY .        SANTOS                                   :COUNTY
STAT .        BRASIL                                   :STATE
CTRY .        SANTOS                                   :COUNTRY
API  .                                                 :API NUMBER
UWI  .                                                 :UNIQUE WELL ID
DATE .        23/10/2004                               :LOG DATE
SRVC .        Schlumberger                             :SERVICE COMPANY
LATI .DEG                                              :LATITUDE
LONG .DEG                                              :LONGITUDE
GDAT .                                                 :GeoDetic Datum
#-----------------------------------------------------------------------------
~PARAMETER INFORMATION
#MNEM.UNIT    VALUE                      DESCRIPTION
#---- -----   --------------------       ------------------------
APD  .M               24                 :
BHT  .DEGF           280                 :
BLI  .M             5230                 :
BS   .IN         8.50000                 :
CN   .        PETROBRAS S.A.             :
COUN .        SANTOS                     :
CS   .IN         9.62500                 :
DATE .        23/10/2004                 :
DFD  .LB/G      12.30000                 :
DFL  .C3               2                 :
DFPH .        N/A                        :
DFT  .        SINTETICO                  :
DFV  .S               87                 :
DMF  .        MESA ROTATIVA              :
EDF  .M               24                 :
EGL  .M             -500                 :
EKB  .        N/A                        :
ENGI .        HERNANDEZ/LOCK             :
FL1  .        X   7292392.00 M LAT 24 28 47.189 S :
FL2  .        Y    584087.00 M LON 44 10 12.698 W :
FL3  .        MC  45 GRAUS               :
FN   .        BS-400                     :
LMF  .        MESA ROTATIVA              :
LUL  .        MACAE                      :
MCSS .        PRENSA                     :
MCST .DEGF            80                 :
MFSS .        PRENSA                     :
MFST .DEGF            80                 :
MSS  .        LINHA DE FLUXO             :
MST  .DEGF            80                 :
PDAT .        NIVEL DO MAR               :
R1   .        01. APRESENTAÇÃO DE ACORDO COM REQUERIMENTO DO CLIENTE :
R2   .        02. TEMPERATURA MÁXIMA DO POÇO T1=T2= 260 DEGF @  5180 M :
R3   .        03. INICIO DA CIRCULAÇÃO  13 45 H 21/10/2004 :
R4   .        04. FINAL DA CIRCULAÇÃO   16 00 H 21/10/2004 :
R5   .        05. TEMPO TOTAL DE CIRCULAÇÃO  02 15 H :
R6   .        06. FLUIDO DE PERFURAÇÃO  SINTETICO (BR-MUL  BR-MI)  65% TEOR DO OLEO :
R7   .        07. SALINIDADE DA LAMA  266377 PPM NACL NA FASE DE AGUA :
R8   .        08. INCLINAÇÃO MÁXIMA DO POÇO  37.37 GRAUS @ 5100 M :
R9   .        09. PRIMEIRAS E ULTIMAS LEITURAS  :
RMB  .OHMM    > 10                       :
RMCS .OHMM    > 10                       :
RMFS .OHMM    > 10                       :
RMS  .OHMM    > 10                       :
RUN  .                 1                 :
STAT .        BRASIL                     :
TCS  .        16 00 H                    :
TDD  .M             5230                 :
TDL  .M             5231                 :
TLAB .        N/A                        :
TLI  .M             4277                 :
WITN .        ALCIDIO/VLADIMIR           :
WN   .        3-BRSA-293D-SPS            :
LUN  .              8808                 :
HIDE .        3-SPS-41D                  :
HID2 .        COMPENSATED Z-DENSILOG     :
HID3 .        COMPENSATED NEUTRON LOG    :
HID4 .        GAMMA RAY LOG              :
HID5 .        TTRM SUB                   :
CLAB .        BACIA                      :
SLAB .        PAIS                       :
CMT1 .        ESC  1 1000                :
CMT2 .        PROF. MEDIDA               :
CMT4 .        SONDA  SS-43               :
HDAT .        SAD 69                     :
FL   .        BASE SAD 69                :
OS1  .        HDIL/XMAC/SL/GR            :
OS3  .        MREX/GR                    :
OS5  .        SL/GR                      :
LNAM .        MREX/ZDL/CN/XMAC/HDIL/3DEX/RCI/SL/GR :
TOOL .        MREX/ZDL/CN/XMAC/HDIL/3DEX/RCI/SL/GR :
LSOU .        PETROBRAS                  :
LSRV .        OH WIRELINE                :
LTYP .        RAW                        :
EPD  .M                0                 :
LDAT .        23/10/2004                 :
TRIP .                 1                 :
SON  .            772317                 :
CBDR .M             4277                 :
CBLO .M             4277                 :
CBL1 .M             4277                 :
STEM .DEGF    N/A                        :
BSAL .            266377                 :
BARI .        OFF                        :
DLAB .        21/10/2004                 :
MRT  .DEGF           280                 :
TSTR .        ZDL/CN/GR/TTRM             :
TSTG .        N/A                        :
STUS .        FINAL                      :
LCNM .        BAKER ATLAS                :
LCC  .               150                 :
NATI .        SANTOS                     :
OPMD .        OH.WIRELINE                :
PANA .        HERNANDEZ/LOCK             :
PCON .        BAKER ATLAS                :
R11  .        GR     5222.5 M/4277.0 M   :
R12  .        ZDL    5230.0 M/4277.0 M   :
R13  .        CN     5224.0 M/4277.0 M   :
R15  .        10. PONTO FRACO UTILIZADO  10K :
R17  .        12. DECLINAÇÃO MAGNETICA  -20.9 GRAUS :
R18  .        13. COORDENADAS BASE       :
R21  .        Y    583936.00 M           :
R22  .        MC  45 GRAUS               :
PVER .           4.10000                 :
WDFN .        /space/expusr/3-SPS-41D/i77bf06_8spf.xtf :
OCT  .        i77bf                      :
0S2  .        3DEX/GR                    :
OS4  .        RCI/GR                     :
R16  .        11. CNC CORREGIDO PELO CALIPER E SALINIDADE  PRESENTADO MATRIZ CARBONATO :
R20  .        X   7292512.00 M           :
R24  .        14. CADASTRO ANP  86316021017 :
#-----------------------------------------------------------------------------
~CURVE INFORMATION
#MNEM.UNIT   API CODE                                  DESCRIPTION
#---- -----  --------                                  -----------------------
DEPT .M                                                :DEPTH (BOREHOLE) {F10.4}
DEPT .M                                                : {F13.4}
BIT  .IN                                               : {F13.4}
GR   .GAPI                                             : {F13.4}
TEN  .LBF                                              : {F13.4}
TTEN .LBF                                              : {F13.4}
CAL  .IN                                               : {F13.4}
CALX .IN                                               : {F13.4}
HRD1 .HZ                                               : {F13.4}
HRD2 .HZ                                               : {F13.4}
PE   .B/E                                              : {F13.4}
SFT2 .HZ                                               : {F13.4}
SOFT .HZ                                               : {F13.4}
SSD  .HZ                                               : {F13.4}
ZCOR .G/C3                                             : {F13.4}
ZDEN .G/C3                                             : {F13.4}
#-----------------------------------------------------------------------------
# 
#     DEPT        DEPT         BIT          GR           TEN          TTEN         CAL          CALX         HRD1         HRD2         PE           SFT2         SOFT         SSD          ZCOR         ZDEN
#
~A  
# ...
 5191.2012    5191.2012       8.5000      75.5305     -63.9429    6439.5347       8.6370       8.6370     632.5333     809.5173       5.0937     481.1751     348.6669    6154.7347      -0.0465       2.5663
 5191.0488    5191.0488       8.5000      76.4300     -58.7537    6443.6822       8.6375       8.6375     630.2295     814.0943       5.0739     489.8940     350.8660    6157.5686      -0.0465       2.5658
 5190.8964    5190.8964       8.5000      77.9383     -36.3162    6465.3211       8.6389       8.6389     619.9309     813.6073       5.0398     492.5487     360.5958    6138.2655      -0.0473       2.5682
 5190.7440    5190.7440       8.5000      79.7182     -16.7025    6484.5268       8.6406       8.6406     610.4515     815.0294       5.0172     491.0695     366.0658    6146.8870      -0.0445       2.5700
 5190.5916    5190.5916       8.5000      81.6360     -14.3002    6486.7443       8.6415       8.6415     610.6449     826.6978       5.0204     493.4557     365.0332    6177.8613      -0.0422       2.5678
 5190.4392    5190.4392       8.5000      82.9330     -22.5603    6478.2553       8.6417       8.6417     615.4365     836.6482       5.0218     497.4461     366.8673    6193.0192      -0.0427       2.5649
 5190.2868    5190.2868       8.5000      84.2959     -24.5376    6475.8984       8.6418       8.6418     616.1316     830.5243       5.0217     493.5499     369.6643    6181.5293      -0.0434       2.5654
 5190.1344    5190.1344       8.5000      86.3015     -14.9447    6485.0949       8.6411       8.6411     614.2654     826.1084       5.0239     483.9594     364.9659    6173.3847      -0.0434       2.5658
 5189.9820    5189.9820       8.5000      87.7610     -13.5648    6486.1327       8.6397       8.6397     614.8471     837.6110       5.0656     481.4391     360.5161    6175.3905      -0.0454       2.5625
 5189.8296    5189.8296       8.5000      87.9107     -36.4306    6462.7526       8.6392       8.6392     617.0395     851.8974       5.0893     489.6233     368.0676    6164.2737      -0.0500       2.5587
 5189.6772    5189.6772       8.5000      87.1041     -64.0979    6434.1857       8.6390       8.6390     620.6180     849.8626       4.9562     500.8572     379.1587    6162.0779      -0.0506       2.5590
 5189.5248    5189.5248       8.5000      84.1022     -67.6635    6429.5345       8.6382       8.6382     619.9205     835.1020       4.8312     511.0439     382.9203    6180.5484      -0.0451       2.5628
 5189.3724    5189.3724       8.5000      78.0345     -53.9775    6442.2291       8.6379       8.6379     616.8534     830.7562       4.7661     513.9787     383.7527    6188.0572      -0.0426       2.5644
 5189.2200    5189.2200       8.5000      71.9740     -36.9677    6458.4379       8.6392       8.6392     623.9346     838.3998       4.8143     506.9866     381.2328    6166.2628      -0.0485       2.5611
 5189.0676    5189.0676       8.5000      68.7037     -16.0787    6478.8386       8.6405       8.6405     640.4714     835.8232       5.0068     496.0122     370.1213    6121.3271      -0.0577       2.5585
 5188.9152    5188.9152       8.5000      66.8352       0.1214    6494.9053       8.6405       8.6405     641.5117     818.1936       5.2292     486.2784     351.9279    6070.1690      -0.0622       2.5635
 5188.7628    5188.7628       8.5000      65.3448      -7.6064    6487.1035       8.6398       8.6398     618.3178     793.8740       5.3707     479.6149     336.0741    6055.6653      -0.0554       2.5760
 5188.6104    5188.6104       8.5000      64.8485     -31.2250    6463.1111       8.6393       8.6393     592.1104     774.3471       5.4577     477.0106     325.8679    6094.2776      -0.0408       2.5879
 5188.4580    5188.4580       8.5000      65.1395     -48.9322    6444.7285       8.6389       8.6389     583.7016     774.4043       5.6091     476.4152     319.5991    6135.0694      -0.0332       2.5907
 5188.3056    5188.3056       8.5000      65.3339     -58.0501    6434.7810       8.6390       8.6390     592.0300     788.7196       5.7419     477.8609     318.7052    6139.6221      -0.0370       2.5850
 5188.1532    5188.1532       8.5000      67.1012     -61.2637    6430.6767       8.6393       8.6393     603.0854     802.8716       5.6678     481.5700     327.7503    6125.7003      -0.0439       2.5779
 5188.0008    5188.0008       8.5000      73.9283     -53.2371    6437.8487       8.6399       8.6399     607.0161     810.1519       5.3986     488.5740     342.8357    6128.9828      -0.0455       2.5739
 5187.8484    5187.8484       8.5000      83.8071     -35.5224    6454.8892       8.6405       8.6405     608.8971     815.5235       5.1698     500.6543     355.2870    6148.2669      -0.0441       2.5717
 5187.6960    5187.6960       8.5000      89.4643     -28.3257    6461.6039       8.6405       8.6405     612.5244     827.3253       5.0897     510.4255     362.8817    6157.5453      -0.0456       2.5690
 5187.5436    5187.5436       8.5000      88.2274     -41.6815    6447.6809       8.6406       8.6406     613.2469     842.4543       5.0533     507.9426     369.8227    6154.0555      -0.0491       2.5669
 5187.3912    5187.3912       8.5000      84.8964     -51.4333    6437.1011       8.6412       8.6412     612.2087     844.0182       4.9483     502.2931     375.4865    6145.5892      -0.0504       2.5672
 5187.2388    5187.2388       8.5000      83.6504     -38.0624    6449.6360       8.6410       8.6410     618.9465     833.0233       4.7686     501.9010     379.9616    6143.1194      -0.0500       2.5679
 5187.0864    5187.0864       8.5000      83.8648     -22.5371    6464.5582       8.6402       8.6402     629.2949     826.0845       4.6209     503.7934     384.9047    6151.9652      -0.0493       2.5667
 5186.9340    5186.9340       8.5000      79.8959     -19.8218    6466.8023       8.6398       8.6398     635.6677     833.0227       4.5708     513.7784     390.4104    6172.9954      -0.0487       2.5622
 5186.7816    5186.7816       8.5000      69.1154     -11.1629    6475.1218       8.6405       8.6405     651.8761     865.6642       4.5496     545.1920     403.8944    6250.8682      -0.0462       2.5478
 5186.6292    5186.6292       8.5000      57.7257       7.0411    6493.3106       8.6406       8.6406     701.3257     928.7896       4.4119     592.6348     441.3824    6445.8620      -0.0379       2.5183
 5186.4768    5186.4768       8.5000      52.6681       9.3713    6495.8062       8.6389       8.6389     780.0185    1009.0994       4.1655     644.9182     498.3769    6695.6618      -0.0287       2.4810
 5186.3244    5186.3244       8.5000      52.8558      -5.3182    6481.1062       8.6368       8.6368     846.6162    1074.8225       4.0135     693.3989     541.7065    6841.8486      -0.0285       2.4530
 5186.1720    5186.1720       8.5000      54.2369     -17.7396    6468.4529       8.6363       8.6363     854.1855    1095.0473       3.9745     716.7456     552.7947    6804.1512      -0.0374       2.4473
 5186.0196    5186.0196       8.5000      55.2541     -18.8119    6467.1095       8.6364       8.6364     816.1181    1072.0938       3.9469     704.0456     546.2847    6701.5313      -0.0425       2.4585
 5185.8672    5185.8672       8.5000      55.4335     -19.1537    6466.4950       8.6369       8.6369     793.7871    1053.8449       3.9516     680.8522     538.0241    6702.8198      -0.0365       2.4663
 5185.7148    5185.7148       8.5000      55.0393     -33.8783    6451.2892       8.6374       8.6374     812.2046    1081.5687       4.1110     681.5194     536.1098    6818.0208      -0.0278       2.4584
 5185.5624    5185.5624       8.5000      55.9119     -66.2506    6417.9725       8.6377       8.6377     839.0854    1133.6796       4.2886     702.4703     545.6897    6898.0475      -0.0283       2.4442
 5185.4100    5185.4100       8.5000      58.2900     -94.1751    6388.5909       8.6499       8.6499     850.9412    1161.8598       4.3376     719.8544     557.0500    6881.3998      -0.0359       2.4358
