~VERSION INFORMATION
VERS.           2.0   :CWLS Log ASCII Standard - VERSION 2.0
WRAP.           YES   :Multiple lines per depth step
PROD.  Schlumberger   :LAS Producer
PROG.  DLIS to ASCII 2.3                               :LAS Program name and version
CREA.        2023/07/14 00:15                          :LAS Creation date {YYYY/MM/DD hh:mm}
DLIS_CREA.  2023-Jul-14 00:11                          :DLIS Creation date and time {YYYY-MMM-DD hh:mm}
SOURCE.     LIS_012.dlis                               :DLIS File Name
FILE-ID.     LIS   .001                                :File Identification Number
#--------------------------------------------------
~WELL INFORMATION
#MNEM.UNIT      DATA             DESCRIPTION
#---- ------ --------------   -----------------------------
STRT .M      5265.1152       :START DEPTH     
STOP .M      5185.4100       :STOP DEPTH     
STEP .M        -0.1524       :STEP     
NULL .          -999.25      :NULL VALUE
COMP .        PETROBRAS S.A.                           :COMPANY
WELL .        3-BRSA-293D-SPS                          :WELL
FLD  .        BS-400                                   :FIELD
LOC  .        BASE SAD 69:                             :LOCATION
CNTY .        SANTOS                                   :COUNTY
STAT .        BRASIL                                   :STATE
CTRY .        BRASIL                                   :COUNTRY
API  .                                                 :API NUMBER
UWI  .                                                 :UNIQUE WELL ID
DATE .        15/11/2004                               :LOG DATE
SRVC .        Schlumberger                             :SERVICE COMPANY
LATI .DEG                                              :LATITUDE
LONG .DEG                                              :LONGITUDE
GDAT .                                                 :GeoDetic Datum
#-----------------------------------------------------------------------------
~PARAMETER INFORMATION
#MNEM.UNIT    VALUE                      DESCRIPTION
#---- -----   --------------------       ------------------------
APD  .M               24                 :
BHT  .DEGF           260                 :
BLI  .M             5289                 :
BS   .IN         8.50000                 :
CN   .        PETROBRAS S.A.             :
COUN .        SANTOS                     :
CS   .IN         9.62500                 :
DATE .        15/11/2004                 :
DFD  .LB/G      12.30000                 :
DFL  .C3               2                 :
DFPH .        N/A                        :
DFT  .        SINTETICO                  :
DFV  .S               95                 :
DMF  .        MESA ROTATIVA              :
EDF  .M               24                 :
EGL  .M             -500                 :
EKB  .        N/A                        :
ENGI .        HERNANDEZ / LOCK           :
FL1  .        X   7292392.00 M LAT 24 28 47.189 S :
FL2  .        Y    584087.00 M LON 44 10 12.698 W :
FL3  .        MC  45 GRAUS               :
FN   .        BS-400                     :
LMF  .        MESA ROTATIVA              :
LUL  .        MACAE                      :
MCSS .        PRENSA                     :
MCST .DEGF            80                 :
MFSS .        PRENSA                     :
MFST .DEGF            80                 :
MSS  .        LINHA DE FLUXO             :
MST  .DEGF            80                 :
PDAT .        NIVEL DO MAR               :
R1   .        01. APRESENTAÇÃO DE ACORDO COM REQUERIMENTO DO CLIENTE :
R2   .        02. TEMPERATURA MÁXIMA DO POÇO T1=T2= 292 DEGF @  5277 M :
R3   .        03. INICIO DA CIRCULAÇÃO  12/11/2004 09 00 H :
R4   .        04. FINAL DA CIRCULAÇÃO   12/11/2004 18 00 H :
R5   .        05. TEMPO TOTAL DE CIRCULAÇÃO   09 00 H :
R6   .        06. FLUIDO DE PERFURAÇÃO  SINTETICO (BR-MUL  BR-MI)  60% TEOR DO OLEO :
R7   .        07. SALINIDADE DA LAMA  254762 PPM NACL NA FASE DE AGUA :
R8   .        08. INCLINAÇÃO MÁXIMA DO POÇO  37.37 GRAUS @ 5100 M :
R9   .        09. PRIMEIRAS E ULTIMAS LEITURAS  :
RMB  .OHMM    > 10                       :
RMCS .OHMM    > 10                       :
RMFS .OHMM    > 10                       :
RMS  .OHMM    >10                        :
RUN  .                 2                 :
STAT .        BRASIL                     :
TCS  .        18 00 H                    :
TDD  .M             5288                 :
TDL  .M             5293                 :
TLAB .        N/A                        :
TLI  .M             4277                 :
WITN .        ERNANI / ZE MARIA          :
WN   .        3-BRSA-293D-SPS            :
LUN  .              8808                 :
HIDE .        3-SPS-41D                  :
HID2 .        COMPENSATED Z-DENSILOG     :
HID3 .        COMPENSATED NEUTRON LOG    :
HID4 .        GAMMA RAY LOG              :
HID5 .        TTRM SUB                   :
CLAB .        BACIA                      :
SLAB .        PAIS                       :
CMT1 .        ESC  1 1000                :
CMT2 .        PROF. MEDIDA               :
CMT4 .        SONDA  SS-43               :
HDAT .        SAD 69                     :
FL   .        BASE SAD 69                :
OS1  .        RCI/GR                     :
OS2  .        CHECK SHOT                 :
OS3  .        GR/XMAC/HDIL               :
OS5  .        RCOR/GR                    :
LNAM .        ZDL/CN/XMAC/HDIL/EARTH IMAGER/RCI/RCOR/CHECK SHOT/GR :
TOOL .        ZDL/CN/XMAC/HDIL/EARTH IMAGER/RCI/RCOR/CHECK SHOT/GR :
LSOU .        PETROBRAS                  :
LSRV .        OH WIRELINE                :
LTYP .        RAW                        :
EPD  .M                0                 :
LDAT .        15/11/2004                 :
TRIP .                 4                 :
SON  .            786588                 :
CBDR .M             4277                 :
CBLO .        NR                         :
CBL1 .        NR                         :
STEM .DEGF    N/A                        :
BSAL .            254762                 :
BARI .        OFF                        :
DLAB .        12/11/2004                 :
MRT  .DEGF           292                 :
TSTR .        ZDL/CN/GR/TTRM             :
TSTG .        N/A                        :
STUS .        FINAL                      :
LCNM .        BAKER ATLAS                :
LCC  .               150                 :
NATI .        BRASIL                     :
OPMD .        OH.WIRELINE                :
PANA .        HERNANDEZ / LOCK           :
PCON .        BAKER ATLAS                :
R11  .        GR     5268.3 M / 4277.0 M :
R12  .        CN     5286.5 M / 5128.0 M (FERRAMENTA PERDEU LEITURA ACIMA DE 5128M) :
R13  .        ZDL    5292.0 M / 4277.0 M :
R15  .        10. PONTO FRACO UTILIZADO  10K :
R17  .        12. COORDENADAS BASE       :
R19  .        X   7292512.00 M           :
R21  .        MC  45 GRAUS               :
R23  .        13. CADASTRO ANP  86316021017 :
PVER .           4.10000                 :
WDFN .        /space/expusr/3-SPS-41D_RUN2/i77bf03_8spf.xtf :
OCT  .        i77bf                      :
OS4  .        EARTH IMAGER               :
R16  .        11. DECLINAÇÃO MAGNETICA  -20.9 GRAUS :
R20  .        Y    583936.00 M           :
#-----------------------------------------------------------------------------
~CURVE INFORMATION
#MNEM.UNIT   API CODE                                  DESCRIPTION
#---- -----  --------                                  -----------------------
DEPT .M                                                :DEPTH (BOREHOLE) {F10.4}
DEPT .M                                                : {F13.4}
BIT  .IN                                               : {F13.4}
DEPM .M                                                : {F13.4}
GR   .GAPI                                             : {F13.4}
SPD  .M/MN                                             : {F13.4}
TTEN .LBF                                              : {F13.4}
CAL  .IN                                               : {F13.4}
CALX .IN                                               : {F13.4}
HRD1 .HZ                                               : {F13.4}
HRD2 .HZ                                               : {F13.4}
PE   .B/E                                              : {F13.4}
SFT2 .HZ                                               : {F13.4}
SOFT .HZ                                               : {F13.4}
SSD  .HZ                                               : {F13.4}
ZCOR .G/C3                                             : {F13.4}
ZDEN .G/C3                                             : {F13.4}
CNC  .PU                                               : {F13.4}
CN   .PU                                               : {F13.4}
LSN  .HZ                                               : {F13.4}
SSN  .HZ                                               : {F13.4}
CNCF .PU                                               : {F13.4}
MMRK .MN                                               : {F13.4}
#-----------------------------------------------------------------------------
# DEPT       
#     DEPT         BIT          DEPM         GR           SPD          TTEN         
#     CAL          CALX         HRD1         HRD2         PE           SFT2         
#     SOFT         SSD          ZCOR         ZDEN         CNC          CN           
#     LSN          SSN          CNCF         MMRK         
~A  
# ...
5205.3744
   5205.3744       8.5000    5205.0814      58.9870       5.8824    7302.1442
      9.0558       9.0547     916.1634    1101.6040       3.8053     780.5713
    573.5580    7544.1765      -0.0108       2.4364      10.5255      10.8375
   2481.3270    4652.0927      10.5255       0.0000
5205.2220
   5205.2220       8.5000    5204.9290      59.6595       5.9141    7367.9909
      9.0588       9.0579     904.1107    1051.2540       3.2379     776.6044
    603.2017    7545.5861      -0.0049       2.4495      10.5823      11.0472
   2493.0261    4672.3835      10.5823       0.0000
5205.0696
   5205.0696       8.5000    5204.7766      60.1731       5.9259    7440.1649
      9.0579       9.0583     861.9971    1069.3847       3.2926     754.9025
    605.2757    7465.3283      -0.0072       2.4565      10.6111      11.0064
   2476.9380    4660.6733      10.6111       0.0000
5204.9172
   5204.9172       8.5000    5204.6242      60.5445       5.9791    7502.7870
      9.0610       9.0593     872.6539    1080.1847       3.3770     747.5144
    602.3167    7481.6373      -0.0131       2.4547      10.7541      11.1963
   2468.1838    4660.3439      10.7541       0.0000
5204.7648
   5204.7648       8.5000    5204.4718      61.0440       6.0485    7520.1339
      9.0593       9.0611     863.9293    1058.5179       3.3774     714.2192
    576.8241    7347.1692      -0.0186       2.4647      10.4909      10.9532
   2517.2614    4691.1353      10.4909       0.0000
5204.6124
   5204.6124       8.5000    5204.3194      60.5030       6.1135    7466.7795
      9.0579       9.0581     832.4620     986.2836       3.3393     710.2044
    567.9460    7321.3245      -0.0140       2.4892       9.6559      10.2104
   2660.1220    4751.6907       9.6559       0.0000
5204.4600
   5204.4600       8.5000    5204.1670      57.8538       6.1320    7365.9570
      9.0552       9.0569     807.2673    1015.8524       3.3531     689.9949
    560.1151    7396.8916      -0.0066       2.4904       8.5136       8.9834
   2908.5107    4901.2451       8.5136       0.0000
5204.3076
   5204.3076       8.5000    5204.0146      54.6224       6.0934    7273.0605
      9.0567       9.0555     823.6493    1005.7346       3.3707     701.0201
    560.3755    7426.3926      -0.0003       2.4919       7.7368       8.1636
   3174.4624    5152.6670       7.7368       0.0000
5204.1552
   5204.1552       8.5000    5203.8622      54.0818       5.9850    7227.1676
      9.0569       9.0566     780.6874     975.9195       3.2031     719.4226
    556.7812    7423.3432       0.0099       2.5119       7.9991       8.2462
   3138.3087    5252.0820       7.9991       0.0000
5204.0028
   5204.0028       8.5000    5203.7089      56.1261       5.8626    7240.5158
      9.0589       9.0586     790.0485     928.2047       2.7211     739.7623
    582.8289    7391.6699       0.0151       2.5238       9.2304       9.5178
   2795.1659    5014.2029       9.2304       0.0000
5203.8504
   5203.8504       8.5000    5203.5565      58.6222       5.8555    7289.7367
      9.0559       9.0574     814.5370     956.3796       2.8051     725.3059
    583.5751    7335.5275      -0.0026       2.5089       9.5776       9.9664
   2599.3252    4701.6281       9.5776       0.0000
5203.6980
   5203.6980       8.5000    5203.4041      61.1601       5.9233    7327.5798
      9.0521       9.0542     812.3158     932.5046       2.8288     708.1613
    563.4701    7291.6870      -0.0039       2.5104       9.7780      10.1769
   2540.5151    4598.7573       9.7780       0.0000
5203.5456
   5203.5456       8.5000    5203.2526      63.7148       5.9593    7325.6469
      9.0577       9.0531     786.6587     915.3669       2.6978     706.8490
    570.3804    7305.5701       0.0046       2.5267       9.8618      10.2420
   2540.9440    4620.0220       9.8618       0.0000
5203.3932
   5203.3932       8.5000    5203.1002      64.5223       5.9417    7298.0133
      9.0623       9.0617     776.5284     914.9257       2.5002     689.1771
    599.7927    7237.6819      -0.0049       2.5247      10.0301      10.4438
   2513.1375    4606.1013      10.0301       0.0000
5203.2408
   5203.2408       8.5000    5202.9478      63.4599       5.9129    7277.1514
      9.0587       9.0607     865.7307     994.0334       2.6474     751.5953
    624.5340    7514.2970      -0.0032       2.4855      10.1926      10.5772
   2479.3476    4582.8334      10.1926       0.0000
5203.0884
   5203.0884       8.5000    5202.7954      61.4970       5.8980    7275.6258
      9.0612       9.0588     911.8114    1048.1330       2.8856     771.9980
    632.4262    7634.3557       0.0051       2.4615      10.5038      10.9043
   2434.3123    4557.6867      10.5038       0.0000
5202.9360
   5202.9360       8.5000    5202.6430      58.6645       5.9047    7283.1882
      9.0615       9.0624     940.7546    1069.2007       3.0386     775.8692
    629.4194    7607.2164      -0.0038       2.4490      10.4818      10.9199
   2442.9268    4558.8047      10.4818       0.0000
5202.7836
   5202.7836       8.5000    5202.4906      56.3050       5.8672    7290.2094
      9.0659       9.0624     926.4398    1105.1791       3.2629     797.0280
    620.9084    7660.1958      -0.0019       2.4419      10.5710      10.9817
   2441.6255    4579.7720      10.5710       0.0000
5202.6312
   5202.6312       8.5000    5202.3382      56.1165       5.8234    7301.5271
      9.0660       9.0675     896.2999    1119.8981       3.3029     774.6774
    632.1045    7582.6353      -0.0034       2.4442      10.9001      11.3066
   2401.6015    4577.0843      10.9001       0.0000
5202.4788
   5202.4788       8.5000    5202.1858      57.4496       5.8356    7314.1029
      9.0571       9.0619     864.7649    1110.8045       3.3554     754.3527
    622.2056    7438.7691      -0.0182       2.4517      10.5303      11.0348
   2425.7634    4538.8088      10.5303       0.0000
5202.3264
   5202.3264       8.5000    5202.0334      58.3612       5.9039    7315.5193
      9.0507       9.0533     886.7088    1056.8739       3.4191     734.0115
    586.8490    7441.5709      -0.0127       2.4579      10.3005      10.7185
   2436.4438    4514.1589      10.3005       0.0000
5202.1740
   5202.1740       8.5000    5201.8810      58.8645       5.9514    7304.8529
      9.0507       9.0491     832.4187     999.7488       3.5494     695.0114
    542.5699    7245.7533      -0.0204       2.4806      10.3860      10.7852
   2449.1847    4546.4841      10.3860       0.0000
5202.0216
   5202.0216       8.5000    5201.7286      59.4511       5.9332    7291.8757
      9.0589       9.0553     799.0266     996.5857       3.6283     670.5919
    531.3924    7377.3569      -0.0071       2.4870      10.8527      11.1990
   2407.5644    4582.2323      10.8527       0.0000
5201.8692
   5201.8691       8.5000    5201.5762      59.4203       5.9238    7285.0732
      9.0560       9.0588     825.2767    1062.7112       3.6869     712.1345
    569.4216    7413.4111      -0.0122       2.4661      11.4875      11.8970
   2330.4067    4556.2051      11.4875       0.0000
5201.7168
   5201.7168       8.5000    5201.4238      58.1498       5.8695    7277.1553
      9.0550       9.0542     869.3868    1109.1755       3.8154     738.1990
    574.6639    7510.9727      -0.0139       2.4471      11.7018      12.1550
   2286.8340    4504.5479      11.7018       0.0000
5201.5644
   5201.5645       8.5000    5201.2705      57.2794       5.9005    7254.5537
      9.0576       9.0569     891.8523    1081.2629       3.5184     776.6234
    587.9893    7419.5049      -0.0179       2.4498      11.0260      11.5906
   2347.1431    4474.8896      11.0260       0.0000
5201.4120
   5201.4120       8.5000    5201.1181      58.1132       5.8960    7228.9048
      9.0559       9.0570     855.5088    1022.4557       2.8853     777.8418
    622.0005    7430.0849      -0.0109       2.4671       9.5767      10.1269
   2520.6052    4491.3706       9.5767       0.0000
5201.2596
   5201.2596       8.5000    5200.9657      59.4219       5.8503    7225.3807
      9.0559       9.0553     897.7329    1074.3969       3.0577     745.6907
    629.3878    7483.1437      -0.0139       2.4494       9.0937       9.4976
   2603.2222    4551.8219       9.0937       0.0000
