~VERSION INFORMATION
VERS.           2.0   :CWLS Log ASCII Standard - VERSION 2.0
WRAP.           NO    :One Line per depth step
PROD.  Schlumberger   :LAS Producer
PROG.  DLIS to ASCII 2.3                               :LAS Program name and version
CREA.        2023/07/14 00:15                          :LAS Creation date {YYYY/MM/DD hh:mm}
DLIS_CREA.  2023-Jul-14 00:11                          :DLIS Creation date and time {YYYY-MMM-DD hh:mm}
SOURCE.     LIS_006.dlis                               :DLIS File Name
FILE-ID.     LIS   .002                                :File Identification Number
#--------------------------------------------------
~WELL INFORMATION
#MNEM.UNIT      DATA             DESCRIPTION
#---- ------ --------------   -----------------------------
STRT .M      5238.7500       :START DEPTH     
STOP .M      5087.2644       :STOP DEPTH     
STEP .M        -0.1524       :STEP     
NULL .          -999.25      :NULL VALUE
COMP .        Petrobras S.A.                           :COMPANY
WELL .        3-SPS-41D                                :WELL
FLD  .        MEXILHOES                                :FIELD
LOC  .                                                 :LOCATION
CNTY .                                                 :COUNTY
STAT .                                                 :STATE
CTRY .                                                 :COUNTRY
API  .                                                 :API NUMBER
UWI  .                                                 :UNIQUE WELL ID
DATE .                                                 :LOG DATE
SRVC .        Schlumberger                             :SERVICE COMPANY
LATI .DEG                                              :LATITUDE
LONG .DEG                                              :LONGITUDE
GDAT .                                                 :GeoDetic Datum
#-----------------------------------------------------------------------------
~PARAMETER INFORMATION
#MNEM.UNIT    VALUE                      DESCRIPTION
#---- -----   --------------------       ------------------------
CN   .        Petrobras S.A.             :
FN   .        MEXILHOES                  :
WN   .        3-SPS-41D                  :
LCC  .               150                 :
WDFN .        /space/expusr/3-SPS-41D/i77bf06_8spf.xtf :
OCT  .        i77bf                      :
RUN  .                                   :RUN NUMBER
PDAT .                                   :Permanent Datum
EPD  .                                   :Elevation of Permanent Datum above Mean Sea Level
LMF  .                                   :Logging Measured From (Name of Logging Elevation Reference)
APD  .                                   :Elevation of Depth Reference (LMF) above Permanent Datum
#-----------------------------------------------------------------------------
~CURVE INFORMATION
#MNEM.UNIT   API CODE                                  DESCRIPTION
#---- -----  --------                                  -----------------------
DEPT .M                                                :DEPTH (BOREHOLE) {F10.4}
DEPT .M                                                : {F13.4}
BIT  .IN                                               : {F13.4}
DEPM .M                                                : {F13.4}
SPD  .M/MN                                             : {F13.4}
CNC  .PU                                               : {F13.4}
CN   .PU                                               : {F13.4}
LSN  .HZ                                               : {F13.4}
SSN  .HZ                                               : {F13.4}
#-----------------------------------------------------------------------------
# 
#     DEPT        DEPT         BIT          DEPM         SPD          CNC          CN           LSN          SSN
#
~A  
# ...
 5217.4140    5217.4140       8.5000    5217.0185       5.1869       6.8312       7.0307    3022.6690    4687.2781
 5217.2616    5217.2616       8.5000    5216.8661       5.1906       6.7025       6.8122    3096.1318    4734.0604
 5217.1092    5217.1092       8.5000    5216.7137       5.1404       6.4780       6.6744    3054.8761    4555.8398
 5216.9568    5216.9568       8.5000    5216.5623       5.1301       7.6866       8.6442    2689.7100    4268.0582
 5216.8044    5216.8044       8.5000    5216.4099       5.1415      10.7374      11.3942    2202.4406    4068.4334
 5216.6520    5216.6520       8.5000    5216.2575       5.1527      11.3939      11.5527    2090.0587    3995.5565
 5216.4996    5216.4996       8.5000    5216.1051       5.1683      11.1738      11.2909    2097.8370    3986.6525
 5216.3472    5216.3472       8.5000    5215.9527       5.1587      10.0784       9.7875    2204.8109    3994.1131
 5216.1948    5216.1948       8.5000    5215.8003       5.1548       8.0354       7.7953    2438.1464    4019.3257
 5216.0424    5216.0424       8.5000    5215.6479       5.1807       6.7399       6.8163    2667.9918    4143.5278
 5215.8900    5215.8900       8.5000    5215.4955       5.1619       6.9552       7.2827    2818.8634    4477.5959
 5215.7376    5215.7376       8.5000    5215.3431       5.1356       6.8208       6.5862    3108.7717    4901.2370
 5215.5852    5215.5852       8.5000    5215.1907       5.1437       4.5870       4.0817    3884.3447    5359.9143
 5215.4328    5215.4328       8.5000    5215.0383       5.1210       2.3333       1.9696    4952.9822    5821.3676
 5215.2804    5215.2804       8.5000    5214.8859       5.1349       0.7184       0.6145    6024.1295    6141.2302
 5215.1280    5215.1280       8.5000    5214.7325       5.1495       0.4112       0.5200    6377.0274    6304.1275
 5214.9756    5214.9756       8.5000    5214.5801       5.1785       0.5462       0.7169    6510.1716    6557.2453
 5214.8232    5214.8232       8.5000    5214.4277       5.1775       0.7690       0.8113    6749.3811    6935.8396
 5214.6708    5214.6708       8.5000    5214.2753       5.1383       0.2958       0.2425    7297.4174    7094.0747
 5214.5184    5214.5184       8.5000    5214.1229       5.1456       0.1212       0.3700    7244.1941    6833.4890
 5214.3660    5214.3660       8.5000    5213.9715       5.1575       1.2246       1.7950    6169.5532    6380.3688
 5214.2136    5214.2136       8.5000    5213.8191       5.1474       3.5331       4.3848    4694.6394    5714.9206
 5214.0612    5214.0612       8.5000    5213.6667       5.1263       6.0697       6.6652    3459.9611    4922.6267
 5213.9088    5213.9088       8.5000    5213.5143       5.1282       7.4155       7.9216    2828.8046    4422.4367
 5213.7564    5213.7564       8.5000    5213.3619       5.1717       8.9891       9.5823    2497.6682    4275.7401
 5213.6040    5213.6040       8.5000    5213.2095       5.1778       9.8092       9.9820    2339.9933    4157.0337
 5213.4516    5213.4516       8.5000    5213.0571       5.1318       9.6275       9.8467    2299.5901    4065.0111
 5213.2992    5213.2992       8.5000    5212.9047       5.1344       9.9352      10.3530    2241.4944    4025.2376
 5213.1468    5213.1468       8.5000    5212.7523       5.1519      10.8092      11.1736    2124.8565    3951.2386
 5212.9944    5212.9944       8.5000    5212.5999       5.1411      10.7660      10.7840    2082.7411    3874.5905
 5212.8420    5212.8420       8.5000    5212.4475       5.1512      10.1118      10.3574    2127.0087    3865.7084
 5212.6896    5212.6896       8.5000    5212.2944       5.1699      10.3935      10.6616    2128.6357    3928.5987
 5212.5372    5212.5372       8.5000    5212.1427       5.1935      10.3946      10.5804    2158.0233    3968.2952
 5212.3848    5212.3848       8.5000    5211.9903       5.1616      10.0962      10.1925    2181.6888    3949.0890
 5212.2324    5212.2324       8.5000    5211.8379       5.1442       9.4981       9.5653    2231.3272    3937.4538
 5212.0800    5212.0800       8.5000    5211.6845       5.1576       9.4101       9.8118    2247.9469    3956.1883
 5211.9276    5211.9276       8.5000    5211.5321       5.1655      10.1713      10.5236    2184.0844    3980.5631
 5211.7752    5211.7752       8.5000    5211.3807       5.1640      10.8615      11.3325    2133.2706    3999.4276
 5211.6228    5211.6228       8.5000    5211.2283       5.1607      11.2825      11.4272    2082.4931    3958.0428
 5211.4704    5211.4704       8.5000    5211.0759       5.1341      11.1793      11.4827    2052.2631    3880.3649
 5211.3180    5211.3180       8.5000    5210.9235       5.1159      11.3296      11.5716    2008.5990    3835.1774
 5211.1656    5211.1656       8.5000    5210.7711       5.1461      11.0856      11.1344    2026.5567    3838.0125
 5211.0132    5211.0132       8.5000    5210.6187       5.1002      10.9018      11.2925    2050.1480    3853.8877
 5210.8608    5210.8608       8.5000    5210.4663       5.0999      10.7588      10.6095    2066.4290    3859.1620
 5210.7084    5210.7084       8.5000    5210.3139       5.1348       9.6941       9.8567    2187.7960    3919.2809
 5210.5560    5210.5560       8.5000    5210.1615       5.1507       9.2936       9.3729    2306.4377    4077.3093
 5210.4036    5210.4036       8.5000    5210.0091       5.1672       9.2573       9.5798    2411.3216    4236.2758
 5210.2512    5210.2512       8.5000    5209.8567       5.1752       9.4181       9.5854    2425.2711    4254.4847
 5210.0988    5210.0988       8.5000    5209.7043       5.1987       9.3724       9.6662    2393.9814    4178.7016
 5209.9464    5209.9464       8.5000    5209.5519       5.1632       9.9657      10.4105    2290.6209    4118.5586
 5209.7940    5209.7940       8.5000    5209.3995       5.1470      10.7368      11.0407    2197.6541    4091.9957
 5209.6416    5209.6416       8.5000    5209.2461       5.1688      10.6594      10.7984    2192.4884    4070.9749
 5209.4892    5209.4892       8.5000    5209.0937       5.2007      10.5528      10.8454    2196.4714    4062.3531
 5209.3368    5209.3368       8.5000    5208.9413       5.1919      10.7294      10.9370    2180.6558    4068.3934
 5209.1844    5209.1844       8.5000    5208.7892       5.1550      10.5004      10.6472    2218.3580    4111.1673
 5209.0320    5209.0320       8.5000    5208.6375       5.1796      10.2502      10.4181    2282.0653    4180.9276
 5208.8796    5208.8796       8.5000    5208.4851       5.2179       9.8969      10.0132    2335.3646    4189.2156
 5208.7272    5208.7272       8.5000    5208.3327       5.1859       9.6875       9.8834    2325.5891    4119.8614
 5208.5748    5208.5748       8.5000    5208.1803       5.1838       9.7228      10.0769    2283.0943    4055.9755
 5208.4224    5208.4224       8.5000    5208.0279       5.2168      10.4066      10.6849    2186.8451    4009.1640
 5208.2700    5208.2700       8.5000    5207.8755       5.2371      10.0790      10.0650    2200.3045    3982.6155
 5208.1176    5208.1176       8.5000    5207.7231       5.2434       9.3717       9.5540    2266.4644    3974.5020
 5207.9652    5207.9652       8.5000    5207.5707       5.2488       9.2908       9.4795    2287.4810    4014.5226
 5207.8128    5207.8128       8.5000    5207.4183       5.2539       9.6762      10.1960    2288.1968    4082.8312
 5207.6604    5207.6604       8.5000    5207.2659       5.2725      10.9607      11.4721    2162.0904    4044.7515
 5207.5080    5207.5080       8.5000    5207.1135       5.2347      11.7154      12.0813    2016.3447    3867.7558
 5207.3556    5207.3556       8.5000    5206.9611       5.2236      12.2927      12.6028    1878.7710    3700.6242
 5207.2032    5207.2032       8.5000    5206.8077       5.2266      12.1129      12.2769    1843.6914    3635.6330
 5207.0508    5207.0508       8.5000    5206.6553       5.2190      12.0713      12.3199    1864.0559    3697.9602
 5206.8984    5206.8984       8.5000    5206.5029       5.2299      11.6962      11.7106    1949.1054    3809.9911
