~VERSION INFORMATION
VERS.           2.0   :CWLS Log ASCII Standard - VERSION 2.0
WRAP.           YES   :Multiple lines per depth step
PROD.  Schlumberger   :LAS Producer
PROG.  DLIS to ASCII 2.3                               :LAS Program name and version
CREA.        2023/07/14 00:15                          :LAS Creation date {YYYY/MM/DD hh:mm}
DLIS_CREA.  2023-Jul-14 00:11                          :DLIS Creation date and time {YYYY-MMM-DD hh:mm}
SOURCE.     LIS_013.dlis                               :DLIS File Name
FILE-ID.     LIS   .002                                :File Identification Number
#--------------------------------------------------
~WELL INFORMATION
#MNEM.UNIT      DATA             DESCRIPTION
#---- ------ --------------   -----------------------------
STRT .M      5299.5576       :START DEPTH     
STOP .M      4241.4444       :STOP DEPTH     
STEP .M        -0.1524       :STEP     
NULL .          -999.25      :NULL VALUE
COMP .        PETROBRAS S.A.                           :COMPANY
WELL .        3-BRSA-293D-SPS                          :WELL
FLD  .        BS-400                                   :FIELD
LOC  .        BASE SAD 69:                             :LOCATION
CNTY .        SANTOS                                   :COUNTY
STAT .        BRASIL                                   :STATE
CTRY .        BRASIL                                   :COUNTRY
API  .                                                 :API NUMBER
UWI  .                                                 :UNIQUE WELL ID
DATE .        15/11/2004                               :LOG DATE
SRVC .        Schlumberger                             :SERVICE COMPANY
LATI .DEG                                              :LATITUDE
LONG .DEG                                              :LONGITUDE
GDAT .                                                 :GeoDetic Datum
#-----------------------------------------------------------------------------
~PARAMETER INFORMATION
#MNEM.UNIT    VALUE                      DESCRIPTION
#---- -----   --------------------       ------------------------
APD  .M               24                 :
BHT  .DEGF           260                 :
BLI  .M             5289                 :
BS   .IN         8.50000                 :
CN   .        PETROBRAS S.A.             :
COUN .        SANTOS                     :
CS   .IN         9.62500                 :
DATE .        15/11/2004                 :
DFD  .LB/G      12.30000                 :
DFL  .C3               2                 :
DFPH .        N/A                        :
DFT  .        SINTETICO                  :
DFV  .S               95                 :
DMF  .        MESA ROTATIVA              :
EDF  .M               24                 :
EGL  .M             -500                 :
EKB  .        N/A                        :
ENGI .        HERNANDEZ / LOCK           :
FL1  .        X   7292392.00 M LAT 24 28 47.189 S :
FL2  .        Y    584087.00 M LON 44 10 12.698 W :
FL3  .        MC  45 GRAUS               :
FN   .        BS-400                     :
LMF  .        MESA ROTATIVA              :
LUL  .        MACAE                      :
MCSS .        PRENSA                     :
MCST .DEGF            80                 :
MFSS .        PRENSA                     :
MFST .DEGF            80                 :
MSS  .        LINHA DE FLUXO             :
MST  .DEGF            80                 :
PDAT .        NIVEL DO MAR               :
R1   .        01. APRESENTAÇÃO DE ACORDO COM REQUERIMENTO DO CLIENTE :
R2   .        02. TEMPERATURA MÁXIMA DO POÇO T1=T2= 292 DEGF @  5277 M :
R3   .        03. INICIO DA CIRCULAÇÃO  12/11/2004 09 00 H :
R4   .        04. FINAL DA CIRCULAÇÃO   12/11/2004 18 00 H :
R5   .        05. TEMPO TOTAL DE CIRCULAÇÃO   09 00 H :
R6   .        06. FLUIDO DE PERFURAÇÃO  SINTETICO (BR-MUL  BR-MI)  60% TEOR DO OLEO :
R7   .        07. SALINIDADE DA LAMA  254762 PPM NACL NA FASE DE AGUA :
R8   .        08. INCLINAÇÃO MÁXIMA DO POÇO  37.37 GRAUS @ 5100 M :
R9   .        09. PRIMEIRAS E ULTIMAS LEITURAS  :
RMB  .OHMM    > 10                       :
RMCS .OHMM    > 10                       :
RMFS .OHMM    > 10                       :
RMS  .OHMM    >10                        :
RUN  .                 2                 :
STAT .        BRASIL                     :
TCS  .        18 00 H                    :
TDD  .M             5288                 :
TDL  .M             5293                 :
TLAB .        N/A                        :
TLI  .M             4277                 :
WITN .        ERNANI / ZE MARIA          :
WN   .        3-BRSA-293D-SPS            :
LUN  .              8808                 :
HIDE .        3-SPS-41D                  :
HID2 .        COMPENSATED Z-DENSILOG     :
HID3 .        COMPENSATED NEUTRON LOG    :
HID4 .        GAMMA RAY LOG              :
HID5 .        TTRM SUB                   :
CLAB .        BACIA                      :
SLAB .        PAIS                       :
CMT1 .        ESC  1 1000                :
CMT2 .        PROF. MEDIDA               :
CMT4 .        SONDA  SS-43               :
HDAT .        SAD 69                     :
FL   .        BASE SAD 69                :
OS1  .        RCI/GR                     :
OS2  .        CHECK SHOT                 :
OS3  .        GR/XMAC/HDIL               :
OS5  .        RCOR/GR                    :
LNAM .        ZDL/CN/XMAC/HDIL/EARTH IMAGER/RCI/RCOR/CHECK SHOT/GR :
TOOL .        ZDL/CN/XMAC/HDIL/EARTH IMAGER/RCI/RCOR/CHECK SHOT/GR :
LSOU .        PETROBRAS                  :
LSRV .        OH WIRELINE                :
LTYP .        RAW                        :
EPD  .M                0                 :
LDAT .        15/11/2004                 :
TRIP .                 4                 :
SON  .            786588                 :
CBDR .M             4277                 :
CBLO .        NR                         :
CBL1 .        NR                         :
STEM .DEGF    N/A                        :
BSAL .            254762                 :
BARI .        OFF                        :
DLAB .        12/11/2004                 :
MRT  .DEGF           292                 :
TSTR .        ZDL/CN/GR/TTRM             :
TSTG .        N/A                        :
STUS .        FINAL                      :
LCNM .        BAKER ATLAS                :
LCC  .               150                 :
NATI .        BRASIL                     :
OPMD .        OH.WIRELINE                :
PANA .        HERNANDEZ / LOCK           :
PCON .        BAKER ATLAS                :
R11  .        GR     5268.3 M / 4277.0 M :
R12  .        CN     5286.5 M / 5128.0 M (FERRAMENTA PERDEU LEITURA ACIMA DE 5128M) :
R13  .        ZDL    5292.0 M / 4277.0 M :
R15  .        10. PONTO FRACO UTILIZADO  10K :
R17  .        12. COORDENADAS BASE       :
R19  .        X   7292512.00 M           :
R21  .        MC  45 GRAUS               :
R23  .        13. CADASTRO ANP  86316021017 :
PVER .           4.10000                 :
WDFN .        /space/expusr/3-SPS-41D_RUN2/i77bf04_8spf.xtf :
OCT  .        i77bf                      :
OS4  .        EARTH IMAGER               :
R16  .        11. DECLINAÇÃO MAGNETICA  -20.9 GRAUS :
R20  .        Y    583936.00 M           :
#-----------------------------------------------------------------------------
~CURVE INFORMATION
#MNEM.UNIT   API CODE                                  DESCRIPTION
#---- -----  --------                                  -----------------------
DEPT .M                                                :DEPTH (BOREHOLE) {F10.4}
DEPT .M                                                : {F13.4}
BIT  .IN                                               : {F13.4}
DEPM .M                                                : {F13.4}
GR   .GAPI                                             : {F13.4}
SPD  .M/MN                                             : {F13.4}
TTEN .LBF                                              : {F13.4}
CAL  .IN                                               : {F13.4}
CALX .IN                                               : {F13.4}
HRD1 .HZ                                               : {F13.4}
HRD2 .HZ                                               : {F13.4}
PE   .B/E                                              : {F13.4}
SFT2 .HZ                                               : {F13.4}
SOFT .HZ                                               : {F13.4}
SSD  .HZ                                               : {F13.4}
ZCOR .G/C3                                             : {F13.4}
ZDEN .G/C3                                             : {F13.4}
CNC  .PU                                               : {F13.4}
CN   .PU                                               : {F13.4}
LSN  .HZ                                               : {F13.4}
SSN  .HZ                                               : {F13.4}
CNCF .PU                                               : {F13.4}
MMRK .MN                                               : {F13.4}
#-----------------------------------------------------------------------------
# DEPT       
#     DEPT         BIT          DEPM         GR           SPD          TTEN         
#     CAL          CALX         HRD1         HRD2         PE           SFT2         
#     SOFT         SSD          ZCOR         ZDEN         CNC          CN           
#     LSN          SSN          CNCF         MMRK         
~A  
# ...
4475.9880
   4475.9880       8.5000    4473.9079      82.2681       7.7285    6586.9411
      9.1531       9.1531     653.0784     851.7037       5.0593     528.6897
    377.1769    6849.5929      -0.0228       2.5690       0.0000      16.5540
   1097.4695    2522.5613      15.9419       0.0000
4475.8356
   4475.8356       8.5000    4473.7555      85.2203       7.7561    6597.1143
      9.1427       9.1427     650.6692     861.7832       5.0980     532.1641
    378.5270    6839.5521      -0.0255       2.5673       0.0000      17.1793
   1073.3710    2515.4986      16.5600       0.0000
4475.6832
   4475.6832       8.5000    4473.6022      89.0602       7.7791    6598.4258
      9.1351       9.1351     666.1708     867.1616       4.9204     534.1848
    390.6781    6834.1351      -0.0299       2.5620       0.0000      18.2252
   1043.7873    2523.8563      17.5887       0.0000
4475.5308
   4475.5308       8.5000    4473.4497      93.3090       7.7766    6587.5727
      9.1345       9.1345     672.2081     853.7051       4.6046     533.0912
    403.2208    6842.4230      -0.0275       2.5607       0.0000      18.7475
   1029.4685    2526.9816      18.1007       0.0000
4475.3784
   4475.3784       8.5000    4473.2964      97.7152       7.7526    6580.3231
      9.1376       9.1376     662.9020     835.4203       4.4658     534.8088
    403.2973    6895.1623      -0.0155       2.5643       0.0000      18.8095
   1018.9876    2505.6428      18.1592       0.0000
4475.2260
   4475.2260       8.5000    4473.1440     100.4201       7.7205    6597.2413
      9.1390       9.1390     657.0864     832.6047       4.6462     539.2199
    390.9150    6979.9682      -0.0027       2.5651       0.0000      19.1367
    997.3424    2474.9967      18.4788       0.0000
4475.0736
   4475.0736       8.5000    4472.9906      99.1407       7.6995    6629.7941
      9.1375       9.1375     665.8177     841.3662       4.9620     538.9708
    376.7474    7043.1263       0.0027       2.5607       0.0000      19.5639
    986.5493    2477.2737      18.8986       0.0000
4474.9212
   4474.9212       8.5000    4472.8382      95.4145       7.6970    6664.9854
      9.1347       9.1347     676.7190     852.1464       5.0976     538.3524
    374.4470    7058.7611       0.0007       2.5554       0.0000      19.2942
   1017.6216    2536.2586      18.6363       0.0000
4474.7688
   4474.7688       8.5000    4472.6848      92.4308       7.6969    6711.6547
      9.1288       9.1288     677.7197     863.9384       4.9859     543.7578
    386.4029    7052.4348      -0.0024       2.5518       0.0000      18.4764
   1079.1157    2628.1978      17.8391       0.0000
4474.6164
   4474.6164       8.5000    4472.5324      90.7737       7.6970    6767.0823
      9.1196       9.1196     680.0799     874.1673       4.7547     556.0931
    403.5039    7031.4277      -0.0074       2.5485       0.0000      17.9175
   1129.4749    2706.5932      17.2980       0.3510
4474.4640
   4474.4640       8.5000    4472.3790      89.5240       7.7250    6785.7553
      9.1130       9.1130     691.5154     877.4358       4.5735     574.2094
    416.8334    6983.9745      -0.0161       2.5457       0.0000      17.9346
   1146.1886    2748.0596      17.3193       0.0011
4474.3116
   4474.3116       8.5000    4472.2257      88.5337       7.7781    6736.2899
      9.1135       9.1135     698.9000     874.3576       4.5689     587.0519
    420.2040    6922.6250      -0.0250       2.5458       0.0000      18.1358
   1145.6544    2763.0698      17.5161       0.0000
4474.1592
   4474.1592       8.5000    4472.0732      87.9745       7.8134    6644.5391
      9.1195       9.1195     691.6512     870.2369       4.5945     581.8241
    416.2584    6871.3193      -0.0299       2.5495       0.0000      17.9906
   1152.1377    2766.8599      17.3697       0.0000
4474.0068
   4474.0068       8.5000    4471.9199      88.1213       7.8030    6568.8525
      9.1256       9.1256     674.5364     869.2449       4.5981     567.7434
    411.9475    6867.0342      -0.0273       2.5544       0.0000      17.5358
   1166.7637    2764.3047      16.9202       0.0000
4473.8544
   4473.8544       8.5000    4471.7675      89.6269       7.7673    6541.8113
      9.1298       9.1298     655.3534     870.7189       4.6051     557.9835
    410.0810    6905.3688      -0.0191       2.5582       0.0000      17.4152
   1170.5202    2763.1397      16.7994       0.0000
4473.7020
   4473.7020       8.5000    4471.6141      91.7077       7.7383    6557.3351
      9.1339       9.1339     648.5852     867.3065       4.6045     550.3137
    404.2185    6926.0983      -0.0145       2.5598       0.0000      17.8744
   1161.3755    2779.4873      17.2461       0.0000
4473.5496
   4473.5496       8.5000    4471.4617      92.2139       7.7304    6586.8103
      9.1385       9.1385     657.0645     858.8768       4.5918     545.0468
    394.9415    6907.0309      -0.0171       2.5591       0.0000      18.3377
   1160.5740    2815.5459      17.6965       0.0000
4473.3972
   4473.3972       8.5000    4471.3093      91.1228       7.7338    6604.2806
      9.1415       9.1415     664.9907     852.4555       4.5904     547.8302
    395.1047    6889.8858      -0.0196       2.5581       0.0000      18.2574
   1180.1660    2856.3595      17.6157       0.0000
4473.2448
   4473.2448       8.5000    4471.1569      90.5725       7.7400    6610.3481
      9.1425       9.1425     665.7824     850.4400       4.5309     552.1541
    405.7007    6905.6554      -0.0173       2.5580       0.0000      17.9422
   1204.2868    2887.9879      17.3066       0.0000
4473.0924
   4473.0924       8.5000    4471.0035      90.3095       7.7495    6619.0836
      9.1421       9.1421     669.7038     848.3435       4.5255     553.2934
    411.1715    6942.7923      -0.0127       2.5581       0.0000      17.7661
   1217.8947    2905.4226      17.1344       0.0000
4472.9400
   4472.9400       8.5000    4470.8511      89.1957       7.7568    6627.3391
      9.1420       9.1420     672.5945     845.8606       4.5352     555.8813
    409.4350    6981.2383      -0.0077       2.5583       0.0000      17.4550
   1230.6011    2908.4365      16.8301       0.0000
4472.7876
   4472.7876       8.5000    4470.6978      88.2428       7.7562    6626.5522
      9.1431       9.1431     669.8879     857.0111       4.5152     563.2311
    412.1098    6994.3344      -0.0075       2.5568       0.0000      16.9665
   1248.6728    2907.3570      16.3516       0.0000
4472.6352
   4472.6352       8.5000    4470.5454      88.4020       7.7530    6619.6608
      9.1466       9.1466     670.9191     879.2771       4.5000     565.6291
    420.1861    6980.2917      -0.0134       2.5525       0.0000      16.6589
   1262.2394    2910.9260      16.0486       0.0000
4472.4828
   4472.4828       8.5000    4470.3920      88.3720       7.7458    6614.1714
      9.1523       9.1523     678.0231     890.4585       4.4957     559.1647
    424.2740    6955.9967      -0.0198       2.5495       0.0000      16.9160
   1251.5200    2909.4005      16.2962       0.0000
4472.3304
   4472.3304       8.5000    4470.2396      88.4970       7.7340    6610.7587
      9.1566       9.1566     680.4529     877.1360       4.4937     549.3176
    419.2616    6935.5011      -0.0206       2.5522       0.0000      17.5579
   1220.2353    2892.8210      16.9210       0.0000
4472.1780
   4472.1780       8.5000    4470.0862      89.1034       7.7290    6601.8596
      9.1567       9.1567     676.2888     855.5697       4.4877     542.3012
    403.6748    6935.8645      -0.0161       2.5586       0.0000      18.1671
   1191.3990    2875.9498      17.5169       0.0000
4472.0256
   4472.0256       8.5000    4469.9338      89.2243       7.7291    6583.4453
      9.1547       9.1547     671.0289     838.7236       4.5263     536.8807
    388.4169    6947.2531      -0.0106       2.5637       0.0000      18.8229
   1171.8146    2882.4550      18.1603       0.0000
4471.8732
   4471.8732       8.5000    4469.7804      88.9831       7.7185    6572.9705
      9.1519       9.1519     676.7960     828.6480       4.5668     532.4696
    387.1585    6945.5993      -0.0101       2.5643       0.0000      19.5625
   1159.8507    2912.2986      18.8868       0.0000
