~VERSION INFORMATION
VERS.           2.0   :CWLS Log ASCII Standard - VERSION 2.0
WRAP.           NO    :One Line per depth step
PROD.  Schlumberger   :LAS Producer
PROG.  DLIS to ASCII 2.3                               :LAS Program name and version
CREA.        2023/07/14 00:15                          :LAS Creation date {YYYY/MM/DD hh:mm}
DLIS_CREA.  2023-Jul-14 00:11                          :DLIS Creation date and time {YYYY-MMM-DD hh:mm}
SOURCE.     LIS_005.dlis                               :DLIS File Name
FILE-ID.     LIS   .001                                :File Identification Number
#--------------------------------------------------
~WELL INFORMATION
#MNEM.UNIT      DATA             DESCRIPTION
#---- ------ --------------   -----------------------------
STRT .M      5238.7500       :START DEPTH     
STOP .M      5087.2644       :STOP DEPTH     
STEP .M        -0.1524       :STEP     
NULL .          -999.25      :NULL VALUE
COMP .        PETROBRAS S.A.                           :COMPANY
WELL .        3-BRSA-293D-SPS                          :WELL
FLD  .        BS-400                                   :FIELD
LOC  .        BASE SAD 69:                             :LOCATION
CNTY .        SANTOS                                   :COUNTY
STAT .        BRASIL                                   :STATE
CTRY .        SANTOS                                   :COUNTRY
API  .                                                 :API NUMBER
UWI  .                                                 :UNIQUE WELL ID
DATE .        23/10/2004                               :LOG DATE
SRVC .        Schlumberger                             :SERVICE COMPANY
LATI .DEG                                              :LATITUDE
LONG .DEG                                              :LONGITUDE
GDAT .                                                 :GeoDetic Datum
#-----------------------------------------------------------------------------
~PARAMETER INFORMATION
#MNEM.UNIT    VALUE                      DESCRIPTION
#---- -----   --------------------       ------------------------
APD  .M               24                 :
BHT  .DEGF           280                 :
BLI  .M             5230                 :
BS   .IN         8.50000                 :
CN   .        PETROBRAS S.A.             :
COUN .        SANTOS                     :
CS   .IN         9.62500                 :
DATE .        23/10/2004                 :
DFD  .LB/G      12.30000                 :
DFL  .C3               2                 :
DFPH .        N/A                        :
DFT  .        SINTETICO                  :
DFV  .S               87                 :
DMF  .        MESA ROTATIVA              :
EDF  .M               24                 :
EGL  .M             -500                 :
EKB  .        N/A                        :
ENGI .        HERNANDEZ/LOCK             :
FL1  .        X   7292392.00 M LAT 24 28 47.189 S :
FL2  .        Y    584087.00 M LON 44 10 12.698 W :
FL3  .        MC  45 GRAUS               :
FN   .        BS-400                     :
LMF  .        MESA ROTATIVA              :
LUL  .        MACAE                      :
MCSS .        PRENSA                     :
MCST .DEGF            80                 :
MFSS .        PRENSA                     :
MFST .DEGF            80                 :
MSS  .        LINHA DE FLUXO             :
MST  .DEGF            80                 :
PDAT .        NIVEL DO MAR               :
R1   .        01. APRESENTAÇÃO DE ACORDO COM REQUERIMENTO DO CLIENTE :
R2   .        02. TEMPERATURA MÁXIMA DO POÇO T1=T2= 260 DEGF @  5180 M :
R3   .        03. INICIO DA CIRCULAÇÃO  13 45 H 21/10/2004 :
R4   .        04. FINAL DA CIRCULAÇÃO   16 00 H 21/10/2004 :
R5   .        05. TEMPO TOTAL DE CIRCULAÇÃO  02 15 H :
R6   .        06. FLUIDO DE PERFURAÇÃO  SINTETICO (BR-MUL  BR-MI)  65% TEOR DO OLEO :
R7   .        07. SALINIDADE DA LAMA  266377 PPM NACL NA FASE DE AGUA :
R8   .        08. INCLINAÇÃO MÁXIMA DO POÇO  37.37 GRAUS @ 5100 M :
R9   .        09. PRIMEIRAS E ULTIMAS LEITURAS  :
RMB  .OHMM    > 10                       :
RMCS .OHMM    > 10                       :
RMFS .OHMM    > 10                       :
RMS  .OHMM    > 10                       :
RUN  .                 1                 :
STAT .        BRASIL                     :
TCS  .        16 00 H                    :
TDD  .M             5230                 :
TDL  .M             5231                 :
TLAB .        N/A                        :
TLI  .M             4277                 :
WITN .        ALCIDIO/VLADIMIR           :
WN   .        3-BRSA-293D-SPS            :
LUN  .              8808                 :
HIDE .        3-SPS-41D                  :
HID2 .        COMPENSATED Z-DENSILOG     :
HID3 .        COMPENSATED NEUTRON LOG    :
HID4 .        GAMMA RAY LOG              :
HID5 .        TTRM SUB                   :
CLAB .        BACIA                      :
SLAB .        PAIS                       :
CMT1 .        ESC  1 1000                :
CMT2 .        PROF. MEDIDA               :
CMT4 .        SONDA  SS-43               :
HDAT .        SAD 69                     :
FL   .        BASE SAD 69                :
OS1  .        HDIL/XMAC/SL/GR            :
OS3  .        MREX/GR                    :
OS5  .        SL/GR                      :
LNAM .        MREX/ZDL/CN/XMAC/HDIL/3DEX/RCI/SL/GR :
TOOL .        MREX/ZDL/CN/XMAC/HDIL/3DEX/RCI/SL/GR :
LSOU .        PETROBRAS                  :
LSRV .        OH WIRELINE                :
LTYP .        RAW                        :
EPD  .M                0                 :
LDAT .        23/10/2004                 :
TRIP .                 1                 :
SON  .            772317                 :
CBDR .M             4277                 :
CBLO .M             4277                 :
CBL1 .M             4277                 :
STEM .DEGF    N/A                        :
BSAL .            266377                 :
BARI .        OFF                        :
DLAB .        21/10/2004                 :
MRT  .DEGF           280                 :
TSTR .        ZDL/CN/GR/TTRM             :
TSTG .        N/A                        :
STUS .        FINAL                      :
LCNM .        BAKER ATLAS                :
LCC  .               150                 :
NATI .        SANTOS                     :
OPMD .        OH.WIRELINE                :
PANA .        HERNANDEZ/LOCK             :
PCON .        BAKER ATLAS                :
R11  .        GR     5222.5 M/4277.0 M   :
R12  .        ZDL    5230.0 M/4277.0 M   :
R13  .        CN     5224.0 M/4277.0 M   :
R15  .        10. PONTO FRACO UTILIZADO  10K :
R17  .        12. DECLINAÇÃO MAGNETICA  -20.9 GRAUS :
R18  .        13. COORDENADAS BASE       :
R21  .        Y    583936.00 M           :
R22  .        MC  45 GRAUS               :
PVER .           4.10000                 :
WDFN .        /space/expusr/3-SPS-41D/i77bf06_8spf.xtf :
OCT  .        i77bf                      :
0S2  .        3DEX/GR                    :
OS4  .        RCI/GR                     :
R16  .        11. CNC CORREGIDO PELO CALIPER E SALINIDADE  PRESENTADO MATRIZ CARBONATO :
R20  .        X   7292512.00 M           :
R24  .        14. CADASTRO ANP  86316021017 :
#-----------------------------------------------------------------------------
~CURVE INFORMATION
#MNEM.UNIT   API CODE                                  DESCRIPTION
#---- -----  --------                                  -----------------------
DEPT .M                                                :DEPTH (BOREHOLE) {F10.4}
DEPT .M                                                : {F13.4}
BIT  .IN                                               : {F13.4}
GR   .GAPI                                             : {F13.4}
TEN  .LBF                                              : {F13.4}
TTEN .LBF                                              : {F13.4}
CAL  .IN                                               : {F13.4}
CALX .IN                                               : {F13.4}
HRD1 .HZ                                               : {F13.4}
HRD2 .HZ                                               : {F13.4}
PE   .B/E                                              : {F13.4}
SFT2 .HZ                                               : {F13.4}
SOFT .HZ                                               : {F13.4}
SSD  .HZ                                               : {F13.4}
ZCOR .G/C3                                             : {F13.4}
ZDEN .G/C3                                             : {F13.4}
#-----------------------------------------------------------------------------
# 
#     DEPT        DEPT         BIT          GR           TEN          TTEN         CAL          CALX         HRD1         HRD2         PE           SFT2         SOFT         SSD          ZCOR         ZDEN
#
~A  
# ...
 5137.7088    5137.7088       8.5000      61.4891       8.5585    6365.2676       8.6819       8.6819    1169.2077    1447.7780       3.5856     983.0344     774.7935    7531.1984      -0.0254       2.3311
 5137.5564    5137.5564       8.5000      60.5013      34.6546    6391.7821       8.6821       8.6821    1124.5165    1369.5997       3.5904     954.8119     731.6912    7387.4932      -0.0298       2.3489
 5137.4040    5137.4040       8.5000      60.6761      35.6123    6393.3788       8.6834       8.6834    1039.6359    1275.7051       3.7570     889.7053     663.9827    7227.0521      -0.0295       2.3741
 5137.2516    5137.2516       8.5000      61.8478      22.6384    6380.8942       8.6852       8.6852    1023.2407    1295.2569       3.9761     873.3779     650.8338    7271.8993      -0.0243       2.3732
 5137.0992    5137.0992       8.5000      63.3682      20.7675    6379.3917       8.6873       8.6873    1099.0161    1418.0821       4.1024     933.8362     696.9943    7459.3663      -0.0235       2.3433
 5136.9468    5136.9468       8.5000      64.0536      16.9656    6375.9297       8.6836       8.6836    1182.0115    1514.9330       4.0448    1004.7358     751.1785    7559.5034      -0.0301       2.3150
 5136.7944    5136.7944       8.5000      63.4278      -1.9236    6357.1687       8.6602       8.6602    1209.1476    1525.4325       3.8844    1022.9338     779.3334    7534.9749      -0.0368       2.3061
 5136.6420    5136.6420       8.5000      63.2519     -11.9409    6347.0206       8.6210       8.6210    1195.0978    1491.5391       3.8599    1001.6188     781.5458    7466.0199      -0.0403       2.3112
 5136.4896    5136.4896       8.5000      63.5378       3.8600    6362.7637       8.5934       8.5934    1162.3972    1446.0790       3.9285     970.4585     766.5240    7369.4547      -0.0440       2.3225
 5136.3372    5136.3372       8.5000      62.9461      27.9908    6387.1863       8.6096       8.6096    1124.7796    1397.4567       3.9117     930.4021     737.5041    7280.3975      -0.0459       2.3352
 5136.1848    5136.1848       8.5000      61.1175      43.1810    6402.9675       8.6862       8.6862    1099.7923    1383.5668       4.0207     894.3003     699.2093    7283.3832      -0.0414       2.3404
 5136.0324    5136.0324       8.5000      58.7457      54.2214    6414.8070       8.7956       8.7956    1108.6562    1421.3782       4.4488     893.0998     668.3715    7388.7262      -0.0335       2.3324
 5135.8800    5135.8800       8.5000      56.9238      62.9305    6424.4925       8.8768       8.8768    1150.6749    1475.8344       4.8243     922.1905     659.7998    7512.0965      -0.0287       2.3165
 5135.7276    5135.7276       8.5000      56.6132      64.8541    6427.4394       8.9021       8.9021    1181.9684    1508.3881       5.0752     939.3397     660.2453    7568.4240      -0.0284       2.3047
 5135.5752    5135.5752       8.5000      57.5472      74.3656    6438.0203       8.8888       8.8888    1164.9015    1517.6981       5.6282     909.1374     628.8293    7520.5849      -0.0333       2.3040
 5135.4228    5135.4228       8.5000      58.5669     109.0523    6474.1947       8.8585       8.8585    1113.3628    1511.1762       6.8557     838.0710     548.5567    7409.6234      -0.0408       2.3116
 5135.2704    5135.2704       8.5000      59.0803     150.4283    6517.7997       8.8292       8.8292    1065.6671    1496.2115       8.1634     772.3237     468.9691    7357.4272      -0.0407       2.3197
 5135.1180    5135.1180       8.5000      59.5893     156.0845    6526.0404       8.8100       8.8100    1058.3656    1484.8736       7.8835     770.6204     478.0410    7400.2670      -0.0335       2.3227
 5134.9656    5134.9656       8.5000      60.5323     118.7057    6490.8153       8.7896       8.7896    1081.3795    1466.5167       6.2190     827.0939     571.2406    7414.7535      -0.0322       2.3240
 5134.8132    5134.8132       8.5000      60.8720      74.0361    6447.5048       8.7672       8.7672    1080.4127    1416.7524       4.9980     866.0303     635.6471    7292.1285      -0.0418       2.3332
 5134.6608    5134.6608       8.5000      59.3353      45.9979    6420.2550       8.7560       8.7560    1033.3596    1345.5086       4.7036     845.9801     619.0630    7078.2665      -0.0555       2.3520
 5134.5084    5134.5084       8.5000      57.6144      32.9611    6407.7563       8.7566       8.7566     981.5844    1302.7751       4.8151     803.1981     583.6138    6906.9537      -0.0666       2.3690
 5134.3560    5134.3560       8.5000      57.9210      38.7522    6414.0896       8.7500       8.7500     957.0501    1292.8729       4.8426     786.2018     577.2906    6848.8954      -0.0701       2.3768
 5134.2036    5134.2036       8.5000      59.0626      60.3533    6436.5118       8.7172       8.7172     959.0182    1282.9659       4.5896     803.2071     591.6584    6893.0492      -0.0634       2.3797
 5134.0512    5134.0512       8.5000      58.4655      79.5525    6456.8928       8.6676       8.6676     963.5135    1255.7176       4.0944     829.3327     622.6830    6991.3816      -0.0479       2.3855
 5133.8988    5133.8988       8.5000      56.3760      92.5937    6471.3808       8.6299       8.6299     944.0667    1214.0436       3.6069     827.9133     649.9804    7031.7474      -0.0352       2.3988
 5133.7464    5133.7464       8.5000      54.9388     110.1097    6490.6013       8.6164       8.6164     906.4032    1159.7793       3.3524     795.6502     645.9910    6954.6962      -0.0334       2.4175
 5133.5940    5133.5940       8.5000      55.1453     125.4186    6507.8929       8.6114       8.6114     872.7575    1103.1087       3.3166     760.7986     618.0108    6850.8087      -0.0349       2.4371
 5133.4416    5133.4416       8.5000      56.9089     130.4171    6515.0198       8.6009       8.6009     840.2820    1055.4500       3.3609     733.2801     586.8322    6782.3541      -0.0328       2.4561
 5133.2892    5133.2892       8.5000      60.5235     133.7016    6520.4816       8.5865       8.5865     806.9885    1029.4184       3.4995     707.1466     559.8977    6730.6206      -0.0311       2.4699
 5133.1368    5133.1368       8.5000      69.3816     145.3791    6534.4918       8.5788       8.5788     795.6469    1030.4033       3.7528     683.3236     537.2504    6767.6091      -0.0246       2.4731
 5132.9844    5132.9844       8.5000      85.2112     155.1180    6546.7235       8.5796       8.5796     807.6715    1036.0444       3.9596     666.9980     521.1975    6902.3296      -0.0095       2.4710
 5132.8320    5132.8320       8.5000     100.0438     151.0663    6545.1350       8.5821       8.5821     813.2782    1024.5153       4.0206     660.1579     513.7552    6919.2827      -0.0064       2.4749
 5132.6796    5132.6796       8.5000     104.9684     135.1686    6531.5084       8.5833       8.5833     783.8998     982.6219       4.0788     641.0846     493.9948    6671.9474      -0.0285       2.4934
 5132.5272    5132.5272       8.5000     103.0512     124.9667    6523.3799       8.5835       8.5835     717.0488     909.5949       4.4168     588.7719     437.0822    6340.2540      -0.0522       2.5270
 5132.3748    5132.3748       8.5000     101.7121     136.1548    6536.6805       8.5831       8.5831     647.1782     838.2767       5.0457     525.7628     367.8130    6152.7578      -0.0547       2.5624
 5132.2224    5132.2224       8.5000     100.8688     167.3169    6570.3851       8.5826       8.5826     607.3025     805.2249       5.4934     488.2308     333.0476    6117.1173      -0.0464       2.5827
 5132.0700    5132.0700       8.5000      99.9542     183.5909    6589.6083       8.5826       8.5826     601.3760     805.3053       5.5587     480.1599     334.0039    6134.6888      -0.0427       2.5851
 5131.9176    5131.9176       8.5000     100.6682     164.0921    6572.8793       8.5819       8.5819     614.5569     814.2380       5.5850     487.2016     340.1961    6177.7687      -0.0406       2.5783
