~VERSION INFORMATION
VERS.           2.0   :CWLS Log ASCII Standard - VERSION 2.0
WRAP.           NO    :One Line per depth step
PROD.  Schlumberger   :LAS Producer
PROG.  DLIS to ASCII 2.3                               :LAS Program name and version
CREA.        2023/07/14 00:15                          :LAS Creation date {YYYY/MM/DD hh:mm}
DLIS_CREA.  2023-Jul-14 00:11                          :DLIS Creation date and time {YYYY-MMM-DD hh:mm}
SOURCE.     LIS_009.dlis                               :DLIS File Name
FILE-ID.     LIS   .002                                :File Identification Number
#--------------------------------------------------
~WELL INFORMATION
#MNEM.UNIT      DATA             DESCRIPTION
#---- ------ --------------   -----------------------------
STRT .M      5301.9960       :START DEPTH     
STOP .M      5058.6132       :STOP DEPTH     
STEP .M        -0.1524       :STEP     
NULL .          -999.25      :NULL VALUE
COMP .        PETROBRAS S.A.                           :COMPANY
WELL .        3-BRSA-293D-SPS                          :WELL
FLD  .        BS-400                                   :FIELD
LOC  .        BASE SAD 69:                             :LOCATION
CNTY .        SANTOS                                   :COUNTY
STAT .        BRASIL                                   :STATE
CTRY .        BRASIL                                   :COUNTRY
API  .                                                 :API NUMBER
UWI  .                                                 :UNIQUE WELL ID
DATE .        15/11/2004                               :LOG DATE
SRVC .        Schlumberger                             :SERVICE COMPANY
LATI .DEG                                              :LATITUDE
LONG .DEG                                              :LONGITUDE
GDAT .                                                 :GeoDetic Datum
#-----------------------------------------------------------------------------
~PARAMETER INFORMATION
#MNEM.UNIT    VALUE                      DESCRIPTION
#---- -----   --------------------       ------------------------
APD  .M               24                 :
BHT  .DEGF           260                 :
BLI  .M             5289                 :
BS   .IN         8.50000                 :
CN   .        PETROBRAS S.A.             :
COUN .        SANTOS                     :
CS   .IN         9.62500                 :
DATE .        15/11/2004                 :
DFD  .LB/G      12.30000                 :
DFL  .C3               2                 :
DFPH .        N/A                        :
DFT  .        SINTETICO                  :
DFV  .S               95                 :
DMF  .        MESA ROTATIVA              :
EDF  .M               24                 :
EGL  .M             -500                 :
EKB  .        N/A                        :
ENGI .        HERNANDEZ / LOCK           :
FL1  .        X   7292392.00 M LAT 24 28 47.189 S :
FL2  .        Y    584087.00 M LON 44 10 12.698 W :
FL3  .        MC  45 GRAUS               :
FN   .        BS-400                     :
LMF  .        MESA ROTATIVA              :
LUL  .        MACAE                      :
MCSS .        PRENSA                     :
MCST .DEGF            80                 :
MFSS .        PRENSA                     :
MFST .DEGF            80                 :
MSS  .        LINHA DE FLUXO             :
MST  .DEGF            80                 :
PDAT .        NIVEL DO MAR               :
R1   .        01. APRESENTAÇÃO DE ACORDO COM REQUERIMENTO DO CLIENTE :
R2   .        02. TEMPERATURA MÁXIMA DO POÇO T1=T2= 290 DEGF @  5275 M :
R3   .        03. INICIO DA CIRCULAÇÃO  12/11/2004 09 00 H :
R4   .        04. FINAL DA CIRCULAÇÃO   12/11/2004 18 00 H :
R5   .        05. TEMPO TOTAL DE CIRCULAÇÃO   09 00 H :
R6   .        06. FLUIDO DE PERFURAÇÃO  SINTETICO (BR-MUL  BR-MI)  60% TEOR DO OLEO :
R7   .        07. SALINIDADE DA LAMA  254762 PPM NACL NA FASE DE AGUA :
R8   .        08. INCLINAÇÃO MÁXIMA DO POÇO  37.37 GRAUS @ 5100 M :
R9   .        09. PRIMEIRAS E ULTIMAS LEITURAS  :
RMB  .OHMM    > 10                       :
RMCS .OHMM    > 10                       :
RMFS .OHMM    > 10                       :
RMS  .OHMM    >10                        :
RUN  .                 2                 :
STAT .        BRASIL                     :
TCS  .        18 00 H                    :
TDD  .M             5288                 :
TDL  .M             5293                 :
TLAB .        N/A                        :
TLI  .M             5000                 :
WITN .        ERNANI / ZE MARIA          :
WN   .        3-BRSA-293D-SPS            :
LUN  .              8808                 :
HIDE .        3-SPS-41D                  :
HID2 .        HIGH DEFINITION INDUCTION LOG :
HID3 .        X-MULTIPOLE ARRAY ACOUSTILOG :
HID4 .        GAMMA RAY LOG              :
HID5 .        TTRM SUB                   :
CLAB .        BACIA                      :
SLAB .        PAIS                       :
CMT1 .        ESC  1 200                 :
CMT2 .        PROF. MEDIDA               :
CMT4 .        SONDA  SS-43               :
HDAT .        SAD 69                     :
FL   .        BASE SAD 69                :
OS1  .        RCI/GR                     :
OS2  .        CHECK SHOT                 :
OS3  .        GR/CN/ZDL                  :
OS5  .        RCOR/GR                    :
LNAM .        ZDL/CN/XMAC/HDIL/EARTH IMAGER/RCI/RCOR/CHECK SHOT/GR :
TOOL .        ZDL/CN/XMAC/HDIL/EARTH IMAGER/RCI/RCOR/CHECK SHOT/GR :
LSOU .        PETROBRAS                  :
LSRV .        OH WIRELINE                :
LTYP .        RAW                        :
EPD  .M                0                 :
LDAT .        15/11/2004                 :
TRIP .                 3                 :
SON  .            786588                 :
CBDR .M             4277                 :
CBLO .        NR                         :
CBL1 .        NR                         :
STEM .DEGF    N/A                        :
BSAL .            254762                 :
BARI .        OFF                        :
DLAB .        12/11/2004                 :
MRT  .DEGF           290                 :
TSTR .        HDIL/XMAC/GR/TTRM          :
TSTG .        N/A                        :
STUS .        FINAL                      :
LCNM .        BAKER ATLAS                :
LCC  .               150                 :
NATI .        BRASIL                     :
OPMD .        OH.WIRELINE                :
PANA .        HERNANDEZ / LOCK           :
PCON .        BAKER ATLAS                :
R11  .        SL     5268.3 M / 5000.0 M :
R12  .        GR     5268.3 M / 5000.0 M :
R13  .        XMAC   5279.5 M / 5000.0 M :
R14  .        HDIL   5289.0 M / 5000.0 M :
R17  .        11. DECLINAÇÃO MAGNETICA  -20.9 GRAUS :
R18  .        12. COORDENADAS BASE       :
R21  .        Y    583936.00 M           :
R22  .        MC  45 GRAUS               :
PVER .           4.10000                 :
WDFN .        /space/expusr/3-SPS-41D_RUN2/i77bf01_4spf.xtf :
OCT  .        i77bf                      :
OS4  .        EARTH IMAGER               :
R16  .        10. PONTO FRACO UTILIZADO  10K :
R20  .        X   7292512.00 M           :
R24  .        13. CADASTRO ANP  86316021017 :
#-----------------------------------------------------------------------------
~CURVE INFORMATION
#MNEM.UNIT   API CODE                                  DESCRIPTION
#---- -----  --------                                  -----------------------
DEPT .M                                                :DEPTH (BOREHOLE) {F10.4}
DEPT .M                                                : {F13.4}
BIT  .IN                                               : {F13.4}
GR   .GAPI                                             : {F13.4}
M2R1 .OHMM                                             : {F13.4}
M2R2 .OHMM                                             : {F13.4}
M2R3 .OHMM                                             : {F13.4}
M2R6 .OHMM                                             : {F13.4}
M2R9 .OHMM                                             : {F13.4}
M2RX .OHMM                                             : {F13.4}
SPD  .M/MN                                             : {F13.4}
TEN  .LBF                                              : {F13.4}
TTEN .LBF                                              : {F13.4}
#-----------------------------------------------------------------------------
# 
#     DEPT        DEPT         BIT          GR           M2R1         M2R2         M2R3         M2R6         M2R9         M2RX         SPD          TEN          TTEN
#
~A  
# ...
 5089.8552    5089.8552       8.5000     100.5650    -999.2500    -999.2500    -999.2500    -999.2500    -999.2500    -999.2500       4.7961    1554.9918   11767.7591
 5089.7028    5089.7028       8.5000      98.2413    -999.2500    -999.2500    -999.2500    -999.2500    -999.2500    -999.2500       4.7855    1598.3753   11839.5695
 5089.5504    5089.5504       8.5000      96.1495    -999.2500    -999.2500    -999.2500    -999.2500    -999.2500    -999.2500       4.7727    1667.7993   11938.2633
 5089.3980    5089.3980       8.5000      95.1833    -999.2500    -999.2500    -999.2500    -999.2500    -999.2500    -999.2500       4.7619    1726.9534   12028.1409
 5089.2456    5089.2456       8.5000      94.7170    -999.2500    -999.2500    -999.2500    -999.2500    -999.2500    -999.2500       4.7654    1708.1252   12040.5168
 5089.0932    5089.0932       8.5000      94.1948    -999.2500    -999.2500    -999.2500    -999.2500    -999.2500    -999.2500       4.7821    1568.6457   11930.6419
 5088.9408    5088.9408       8.5000      94.0957    -999.2500    -999.2500    -999.2500    -999.2500    -999.2500    -999.2500       4.7902    1429.8252   11818.5609
 5088.7884    5088.7884       8.5000      95.0376    -999.2500    -999.2500    -999.2500    -999.2500    -999.2500    -999.2500       4.7675    1465.9078   11880.5195
 5088.6360    5088.6360       8.5000      95.8020    -999.2500    -999.2500    -999.2500    -999.2500    -999.2500    -999.2500       4.7210    1641.0448   12083.9254
 5088.4836    5088.4836       8.5000      95.4356    -999.2500    -999.2500    -999.2500    -999.2500    -999.2500    -999.2500       4.6789    1770.7698   12244.9620
 5088.3312    5088.3312       8.5000      94.4581    -999.2500    -999.2500    -999.2500    -999.2500    -999.2500    -999.2500       4.6610    1784.7553   12291.8841
 5088.1788    5088.1788       8.5000      94.9155    -999.2500    -999.2500    -999.2500    -999.2500    -999.2500    -999.2500       4.6627    1738.2013   12278.7269
 5088.0264    5088.0264       8.5000      96.8898    -999.2500    -999.2500    -999.2500    -999.2500    -999.2500    -999.2500       4.6577    1687.9426   12261.1797
 5087.8740    5087.8740       8.5000      98.4858    -999.2500    -999.2500    -999.2500    -999.2500    -999.2500    -999.2500       4.6010    1687.4065   12292.5605
 5087.7216    5087.7216       8.5000      98.6263    -999.2500    -999.2500    -999.2500    -999.2500    -999.2500    -999.2500       4.4578    1743.9234   12382.3915
 5087.5692    5087.5692       8.5000      97.4810    -999.2500    -999.2500    -999.2500    -999.2500    -999.2500    -999.2500       4.3301    1766.0842   12440.0084
 5087.4168    5087.4168       8.5000      96.1617    -999.2500    -999.2500    -999.2500    -999.2500    -999.2500    -999.2500       4.4060    1630.6787   12342.0196
 5087.2644    5087.2644       8.5000      96.4281    -999.2500    -999.2500    -999.2500    -999.2500    -999.2500    -999.2500       4.6509      26.5030   12130.8565
 5087.1120    5087.1120       8.4660      99.0444    -999.2500    -999.2500    -999.2500    -999.2500    -999.2500    -999.2500       4.7891      34.0829   12054.6497
 5086.9596    5086.9596       0.0000     101.4798    -999.2500    -999.2500    -999.2500    -999.2500    -999.2500    -999.2500       4.7383      39.4955   12122.0762
 5086.8072    5086.8072       0.0000     101.8112    -999.2500    -999.2500    -999.2500    -999.2500    -999.2500    -999.2500       4.3004      43.0371   12394.5971
 5086.6548    5086.6548       0.0000     101.2100    -999.2500    -999.2500    -999.2500    -999.2500    -999.2500    -999.2500       3.7488      44.5069   12617.2517
 5086.5024    5086.5024       0.0000     100.8970    -999.2500    -999.2500    -999.2500    -999.2500    -999.2500    -999.2500       3.9741      46.2213   12628.2545
 5086.3500    5086.3500       0.0000     100.9147    -999.2500    -999.2500    -999.2500    -999.2500    -999.2500    -999.2500       4.9711      46.5146   12532.5346
 5086.1976    5086.1976       0.0000     101.0637    -999.2500    -999.2500    -999.2500    -999.2500    -999.2500    -999.2500       5.7431      11.7352   12540.0541
 5086.0452    5086.0452       0.0000     101.2988    -999.2500    -999.2500    -999.2500    -999.2500    -999.2500    -999.2500       5.7653      27.2305   12648.5733
 5085.8928    5085.8928       0.0000     101.6349    -999.2500    -999.2500    -999.2500    -999.2500    -999.2500    -999.2500       5.8222      34.5592   12703.5784
 5085.7404    5085.7404       0.0000     102.3595    -999.2500    -999.2500    -999.2500    -999.2500    -999.2500    -999.2500       7.2544      37.8782   12749.9661
 5085.5880    5085.5880       0.0000     102.8168    -999.2500    -999.2500    -999.2500    -999.2500    -999.2500    -999.2500      10.0206      42.0426   12873.3473
 5085.4356    5085.4355       0.0000     102.2820    -999.2500    -999.2500    -999.2500    -999.2500    -999.2500    -999.2500      12.2859      44.1388   12976.1523
 5085.2832    5085.2832       0.0000     101.1801    -999.2500    -999.2500    -999.2500    -999.2500    -999.2500    -999.2500      13.3327      45.5932   12414.9863
 5085.1308    5085.1309       0.0000      99.3478    -999.2500    -999.2500    -999.2500    -999.2500    -999.2500    -999.2500      18.7643      46.9419   11057.7695
 5084.9784    5084.9784       0.0000      97.1912    -999.2500    -999.2500    -999.2500    -999.2500    -999.2500    -999.2500      30.7265      12.2714    9509.6395
 5084.8260    5084.8260       0.0000      97.4617    -999.2500    -999.2500    -999.2500    -999.2500    -999.2500    -999.2500      41.8887      26.4061    8618.0756
 5084.6736    5084.6736       0.0000     101.0671    -999.2500    -999.2500    -999.2500    -999.2500    -999.2500    -999.2500      46.2561      35.1790    8227.4573
 5084.5212    5084.5212       0.0000     105.9375    -999.2500    -999.2500    -999.2500    -999.2500    -999.2500    -999.2500      46.5283      -4.1576    7824.0248
 5084.3688    5084.3688       0.0000     109.0094    -999.2500    -999.2500    -999.2500    -999.2500    -999.2500    -999.2500      46.3965    -348.1307    7475.1493
 5084.2164    5084.2164       0.0000     111.0389    -999.2500    -999.2500    -999.2500    -999.2500    -999.2500    -999.2500      46.2582    -491.8085    7322.5340
 5084.0640    5084.0640       0.0000     114.8484    -999.2500    -999.2500    -999.2500    -999.2500    -999.2500    -999.2500      46.2563    -501.6445    7302.4261
 5083.9116    5083.9116       0.0000     118.3338    -999.2500    -999.2500    -999.2500    -999.2500    -999.2500    -999.2500      46.3398    -463.9888    7330.2455
 5083.7592    5083.7592       0.0000     116.3304    -999.2500    -999.2500    -999.2500    -999.2500    -999.2500    -999.2500      46.4185    -391.6588    7394.2542
 5083.6068    5083.6068       0.0000     111.2284    -999.2500    -999.2500    -999.2500    -999.2500    -999.2500    -999.2500      46.4764    -294.2109    7485.4223
 5083.4544    5083.4544       0.0000     108.8923    -999.2500    -999.2500    -999.2500    -999.2500    -999.2500    -999.2500      46.4877    -211.4003    7563.7357
 5083.3020    5083.3020       0.0000     109.2360    -999.2500    -999.2500    -999.2500    -999.2500    -999.2500    -999.2500      46.4802    -189.1652    7582.3333
 5083.1496    5083.1496       0.0000     106.9392    -999.2500    -999.2500    -999.2500    -999.2500    -999.2500    -999.2500      46.4876    -242.3656    7524.9847
 5082.9972    5082.9972       0.0000      97.5498    -999.2500    -999.2500    -999.2500    -999.2500    -999.2500    -999.2500      46.4847    -342.9857    7418.4316
 5082.8448    5082.8448       0.0000      88.3372    -999.2500    -999.2500    -999.2500    -999.2500    -999.2500    -999.2500      46.4386    -429.9532    7323.3949
 5082.6924    5082.6924       0.0000      90.3550    -999.2500    -999.2500    -999.2500    -999.2500    -999.2500    -999.2500      46.4143    -401.5619    7343.1808
