~VERSION INFORMATION
VERS.           2.0   :CWLS Log ASCII Standard - VERSION 2.0
WRAP.           NO    :One Line per depth step
PROD.  Schlumberger   :LAS Producer
PROG.  DLIS to ASCII 2.3                               :LAS Program name and version
CREA.        2023/07/14 00:15                          :LAS Creation date {YYYY/MM/DD hh:mm}
DLIS_CREA.  2023-Jul-14 00:11                          :DLIS Creation date and time {YYYY-MMM-DD hh:mm}
SOURCE.     LIS_009.dlis                               :DLIS File Name
FILE-ID.     LIS   .002                                :File Identification Number
#--------------------------------------------------
~WELL INFORMATION
#MNEM.UNIT      DATA             DESCRIPTION
#---- ------ --------------   -----------------------------
STRT .M      5301.9960       :START DEPTH     
STOP .M      5058.6132       :STOP DEPTH     
STEP .M        -0.1524       :STEP     
NULL .          -999.25      :NULL VALUE
COMP .        PETROBRAS S.A.                           :COMPANY
WELL .        3-BRSA-293D-SPS                          :WELL
FLD  .        BS-400                                   :FIELD
LOC  .        BASE SAD 69:                             :LOCATION
CNTY .        SANTOS                                   :COUNTY
STAT .        BRASIL                                   :STATE
CTRY .        BRASIL                                   :COUNTRY
API  .                                                 :API NUMBER
UWI  .                                                 :UNIQUE WELL ID
DATE .        15/11/2004                               :LOG DATE
SRVC .        Schlumberger                             :SERVICE COMPANY
LATI .DEG                                              :LATITUDE
LONG .DEG                                              :LONGITUDE
GDAT .                                                 :GeoDetic Datum
#-----------------------------------------------------------------------------
~PARAMETER INFORMATION
#MNEM.UNIT    VALUE                      DESCRIPTION
#---- -----   --------------------       ------------------------
APD  .M               24                 :
BHT  .DEGF           260                 :
BLI  .M             5289                 :
BS   .IN         8.50000                 :
CN   .        PETROBRAS S.A.             :
COUN .        SANTOS                     :
CS   .IN         9.62500                 :
DATE .        15/11/2004                 :
DFD  .LB/G      12.30000                 :
DFL  .C3               2                 :
DFPH .        N/A                        :
DFT  .        SINTETICO                  :
DFV  .S               95                 :
DMF  .        MESA ROTATIVA              :
EDF  .M               24                 :
EGL  .M             -500                 :
EKB  .        N/A                        :
ENGI .        HERNANDEZ / LOCK           :
FL1  .        X   7292392.00 M LAT 24 28 47.189 S :
FL2  .        Y    584087.00 M LON 44 10 12.698 W :
FL3  .        MC  45 GRAUS               :
FN   .        BS-400                     :
LMF  .        MESA ROTATIVA              :
LUL  .        MACAE                      :
MCSS .        PRENSA                     :
MCST .DEGF            80                 :
MFSS .        PRENSA                     :
MFST .DEGF            80                 :
MSS  .        LINHA DE FLUXO             :
MST  .DEGF            80                 :
PDAT .        NIVEL DO MAR               :
R1   .        01. APRESENTAÇÃO DE ACORDO COM REQUERIMENTO DO CLIENTE :
R2   .        02. TEMPERATURA MÁXIMA DO POÇO T1=T2= 290 DEGF @  5275 M :
R3   .        03. INICIO DA CIRCULAÇÃO  12/11/2004 09 00 H :
R4   .        04. FINAL DA CIRCULAÇÃO   12/11/2004 18 00 H :
R5   .        05. TEMPO TOTAL DE CIRCULAÇÃO   09 00 H :
R6   .        06. FLUIDO DE PERFURAÇÃO  SINTETICO (BR-MUL  BR-MI)  60% TEOR DO OLEO :
R7   .        07. SALINIDADE DA LAMA  254762 PPM NACL NA FASE DE AGUA :
R8   .        08. INCLINAÇÃO MÁXIMA DO POÇO  37.37 GRAUS @ 5100 M :
R9   .        09. PRIMEIRAS E ULTIMAS LEITURAS  :
RMB  .OHMM    > 10                       :
RMCS .OHMM    > 10                       :
RMFS .OHMM    > 10                       :
RMS  .OHMM    >10                        :
RUN  .                 2                 :
STAT .        BRASIL                     :
TCS  .        18 00 H                    :
TDD  .M             5288                 :
TDL  .M             5293                 :
TLAB .        N/A                        :
TLI  .M             5000                 :
WITN .        ERNANI / ZE MARIA          :
WN   .        3-BRSA-293D-SPS            :
LUN  .              8808                 :
HIDE .        3-SPS-41D                  :
HID2 .        HIGH DEFINITION INDUCTION LOG :
HID3 .        X-MULTIPOLE ARRAY ACOUSTILOG :
HID4 .        GAMMA RAY LOG              :
HID5 .        TTRM SUB                   :
CLAB .        BACIA                      :
SLAB .        PAIS                       :
CMT1 .        ESC  1 200                 :
CMT2 .        PROF. MEDIDA               :
CMT4 .        SONDA  SS-43               :
HDAT .        SAD 69                     :
FL   .        BASE SAD 69                :
OS1  .        RCI/GR                     :
OS2  .        CHECK SHOT                 :
OS3  .        GR/CN/ZDL                  :
OS5  .        RCOR/GR                    :
LNAM .        ZDL/CN/XMAC/HDIL/EARTH IMAGER/RCI/RCOR/CHECK SHOT/GR :
TOOL .        ZDL/CN/XMAC/HDIL/EARTH IMAGER/RCI/RCOR/CHECK SHOT/GR :
LSOU .        PETROBRAS                  :
LSRV .        OH WIRELINE                :
LTYP .        RAW                        :
EPD  .M                0                 :
LDAT .        15/11/2004                 :
TRIP .                 3                 :
SON  .            786588                 :
CBDR .M             4277                 :
CBLO .        NR                         :
CBL1 .        NR                         :
STEM .DEGF    N/A                        :
BSAL .            254762                 :
BARI .        OFF                        :
DLAB .        12/11/2004                 :
MRT  .DEGF           290                 :
TSTR .        HDIL/XMAC/GR/TTRM          :
TSTG .        N/A                        :
STUS .        FINAL                      :
LCNM .        BAKER ATLAS                :
LCC  .               150                 :
NATI .        BRASIL                     :
OPMD .        OH.WIRELINE                :
PANA .        HERNANDEZ / LOCK           :
PCON .        BAKER ATLAS                :
R11  .        SL     5268.3 M / 5000.0 M :
R12  .        GR     5268.3 M / 5000.0 M :
R13  .        XMAC   5279.5 M / 5000.0 M :
R14  .        HDIL   5289.0 M / 5000.0 M :
R17  .        11. DECLINAÇÃO MAGNETICA  -20.9 GRAUS :
R18  .        12. COORDENADAS BASE       :
R21  .        Y    583936.00 M           :
R22  .        MC  45 GRAUS               :
PVER .           4.10000                 :
WDFN .        /space/expusr/3-SPS-41D_RUN2/i77bf01_4spf.xtf :
OCT  .        i77bf                      :
OS4  .        EARTH IMAGER               :
R16  .        10. PONTO FRACO UTILIZADO  10K :
R20  .        X   7292512.00 M           :
R24  .        13. CADASTRO ANP  86316021017 :
#-----------------------------------------------------------------------------
~CURVE INFORMATION
#MNEM.UNIT   API CODE                                  DESCRIPTION
#---- -----  --------                                  -----------------------
DEPT .M                                                :DEPTH (BOREHOLE) {F10.4}
DEPT .M                                                : {F13.4}
BIT  .IN                                               : {F13.4}
GR   .GAPI                                             : {F13.4}
M2R1 .OHMM                                             : {F13.4}
M2R2 .OHMM                                             : {F13.4}
M2R3 .OHMM                                             : {F13.4}
M2R6 .OHMM                                             : {F13.4}
M2R9 .OHMM                                             : {F13.4}
M2RX .OHMM                                             : {F13.4}
SPD  .M/MN                                             : {F13.4}
TEN  .LBF                                              : {F13.4}
TTEN .LBF                                              : {F13.4}
#-----------------------------------------------------------------------------
# 
#     DEPT        DEPT         BIT          GR           M2R1         M2R2         M2R3         M2R6         M2R9         M2RX         SPD          TEN          TTEN
#
~A  
# ...
 5294.6808    5294.6808       8.5000    -999.2500       3.5630       4.9579       5.8976       6.4762       6.7845       7.0653       4.6533    1466.8046    7324.2236
 5294.5284    5294.5284       8.5000    -999.2500       3.5674       4.9633       5.9061       6.4868       6.7978       7.0810       4.6566    1489.9190    7375.5104
 5294.3760    5294.3760       8.5000    -999.2500       3.5691       4.9704       5.9180       6.5023       6.8158       7.1014       4.6584    1503.2007    7417.3613
 5294.2236    5294.2236       8.5000    -999.2500       3.5694       4.9780       5.9311       6.5200       6.8354       7.1235       4.6537    1505.1384    7447.2090
 5294.0712    5294.0712       8.5000    -999.2500       3.5667       4.9789       5.9362       6.5290       6.8452       7.1350       4.6489    1517.0722    7486.6314
 5293.9188    5293.9188       8.5000    -999.2500       3.5616       4.9713       5.9305       6.5259       6.8417       7.1326       4.6490    1553.1212    7551.3460
 5293.7664    5293.7664       8.5000    -999.2500       3.5591       4.9646       5.9251       6.5225       6.8373       7.1289       4.6467    1584.5839    7612.9718
 5293.6140    5293.6140       8.5000    -999.2500       3.5644       4.9711       5.9348       6.5346       6.8489       7.1416       4.6377    1579.2855    7637.9119
 5293.4616    5293.4616       8.5000    -999.2500       3.5704       4.9826       5.9496       6.5513       6.8648       7.1587       4.6294    1560.1798    7648.5515
 5293.3092    5293.3092       8.5000    -999.2500       3.5644       4.9792       5.9459       6.5464       6.8580       7.1517       4.6271    1554.1141    7672.0246
 5293.1568    5293.1568       8.5000    -999.2500       3.5506       4.9637       5.9268       6.5234       6.8319       7.1245       4.6311    1564.7286    7712.1078
 5293.0044    5293.0044       8.5000    -999.2500       3.5453       4.9579       5.9180       6.5111       6.8168       7.1084       4.6378    1593.7022    7770.2656
 5292.8520    5292.8520       8.5000    -999.2500       3.5499       4.9639       5.9221       6.5125       6.8158       7.1067       4.6420    1614.1669    7820.8792
 5292.6996    5292.6996       8.5000    -999.2500       3.5512       4.9644       5.9195       6.5067       6.8070       7.0965       4.6417    1566.1136    7803.4831
 5292.5472    5292.5472       8.5000    -999.2500       3.5452       4.9559       5.9075       6.4907       6.7876       7.0747       4.6408    1462.3471    7728.5067
 5292.3948    5292.3948       8.5000    -999.2500       3.5397       4.9533       5.9053       6.4861       6.7801       7.0648       4.6401    1375.0687    7667.2409
 5292.2424    5292.2424       8.5000    -999.2500       3.5416       4.9676       5.9266       6.5076       6.8000       7.0830       4.6353    1331.1079    7648.0144
 5292.0900    5292.0900       8.5000    -999.2500       3.5445       4.9870       5.9564       6.5385       6.8304       7.1115       4.6273    1311.0099    7652.8239
 5291.9376    5291.9376       8.5000    -999.2500       3.5378       4.9908       5.9674       6.5486       6.8396       7.1175       4.6250    1304.7646    7671.5379
 5291.7852    5291.7852       8.5000    -999.2500       3.5242       4.9781       5.9559       6.5339       6.8236       7.0969       4.6351    1297.8142    7689.0195
 5291.6328    5291.6328       8.5000    -999.2500       3.5153       4.9648       5.9390       6.5130       6.8020       7.0704       4.6487    1278.0620    7693.3701
 5291.4804    5291.4804       8.5000    -999.2500       3.5152       4.9589       5.9265       6.4975       6.7868       7.0505       4.6524    1258.8122    7698.2952
 5291.3280    5291.3280       8.5000    -999.2500       3.5198       4.9572       5.9165       6.4853       6.7756       7.0350       4.6455    1243.7579    7707.2442
 5291.1756    5291.1756       8.5000    -999.2500       3.5237       4.9543       5.9055       6.4732       6.7651       7.0205       4.6357    1227.2407    7714.4121
 5291.0232    5291.0232       8.5000    -999.2500       3.5270       4.9527       5.8990       6.4674       6.7611       7.0135       4.6291    1215.0745    7725.4927
 5290.8708    5290.8708       8.5000    -999.2500       3.5327       4.9588       5.9054       6.4771       6.7732       7.0238       4.6273    1210.9819    7743.8942
 5290.7184    5290.7184       8.5000    -999.2500       3.5386       4.9700       5.9204       6.4966       6.7953       7.0453       4.6267    1214.5281    7769.3418
 5290.5660    5290.5660       8.5000    -999.2500       3.5430       4.9802       5.9335       6.5140       6.8145       7.0647       4.6285    1237.4536    7815.1207
 5290.4136    5290.4136       8.5000    -999.2500       3.5466       4.9838       5.9338       6.5160       6.8169       7.0675       4.6357    1263.4354    7865.1426
 5290.2612    5290.2612       8.5000    -999.2500       3.5500       4.9747       5.9106       6.4901       6.7890       7.0398       4.6441    1250.2507    7876.2663
 5290.1088    5290.1088       8.5000    -999.2500       3.5596       4.9571       5.8681       6.4408       6.7355       6.9863       4.6477    1183.5492    7833.0616
 5289.9564    5289.9564       8.5000    -999.2500       3.5901       4.9500       5.8313       6.3966       6.6862       6.9376       4.6433    1092.3027    7763.6350
 5289.8040    5289.8040       8.5000    -999.2500       3.6495       4.9643       5.8178       6.3786       6.6632       6.9165       4.6337    1024.3923    7715.4296
 5289.6516    5289.6516       8.5000    -999.2500       3.7242       4.9825       5.8134       6.3740       6.6534       6.9091       4.6265    1012.7060    7722.2476
 5289.4992    5289.4992       8.5000    -999.2500       3.7952       4.9842       5.7994       6.3649       6.6383       6.8958       4.6258    1051.5998    7780.4049
 5289.3468    5289.3468       8.5000    -999.2500       3.8852       5.0087       5.8245       6.4066       6.6757       6.9367       4.6344    1088.3100    7837.6562
 5289.1944    5289.1944       8.5000    -999.2500       4.0327       5.1160       5.9574       6.5753       6.8449       7.1139       4.6461    1086.2165    7856.1847
 5289.0420    5289.0420       8.5000    -999.2500       4.1515       5.2073       6.0803       6.7406       7.0101       7.2860       4.6484    1059.8162    7849.5078
 5288.8896    5288.8896       8.5000    -999.2500       4.1202       5.1458       6.0297       6.7167       6.9776       7.2513       4.6439    1019.8087    7828.4287
 5288.7372    5288.7372       8.5000    -999.2500       4.0347       5.0671       5.9621       6.6704       6.9212       7.1906       4.6444     960.7869    7787.8072
 5288.5848    5288.5848       8.5000    -999.2500       4.0193       5.1339       6.0682       6.8099       7.0566       7.3275       4.6451     914.8345    7759.6192
 5288.4324    5288.4324       8.5000    -999.2500       3.9734       5.1993       6.1728       6.9355       7.1768       7.4466       4.6412     901.3210    7763.2553
 5288.2800    5288.2800       8.5000    -999.2500       3.7366       4.9946       5.9487       6.6788       6.9015       7.1538       4.6393     875.9089    7754.3848
 5288.1276    5288.1276       8.5000    -999.2500       3.3659       4.5437       5.4173       6.0681       6.2625       6.4832       4.6372     834.4465    7728.9439
 5287.9752    5287.9752       8.5000    -999.2500       3.0897       4.1830       4.9838       5.5651       5.7377       5.9312       4.6333     828.7373    7738.8231
 5287.8228    5287.8228       8.5000    -999.2500       3.1157       4.2636       5.0724       5.6463       5.8176       6.0036       4.6344     867.9157    7793.7548
 5287.6704    5287.6704       8.5000    -999.2500       3.5588       5.0274       5.9739       6.6335       6.8327       7.0379       4.6417     891.2881    7833.3834
 5287.5180    5287.5180       8.5000    -999.2500       3.9783       5.8716       6.9725       7.7343       7.9669       8.1897       4.6446     866.0410    7824.7267
