~VERSION INFORMATION
VERS.           2.0   :CWLS Log ASCII Standard - VERSION 2.0
WRAP.           NO    :One Line per depth step
PROD.  Schlumberger   :LAS Producer
PROG.  DLIS to ASCII 2.3                               :LAS Program name and version
CREA.        2023/07/14 00:15                          :LAS Creation date {YYYY/MM/DD hh:mm}
DLIS_CREA.  2023-Jul-14 00:11                          :DLIS Creation date and time {YYYY-MMM-DD hh:mm}
SOURCE.     LIS_010.dlis                               :DLIS File Name
FILE-ID.     LIS   .003                                :File Identification Number
#--------------------------------------------------
~WELL INFORMATION
#MNEM.UNIT      DATA             DESCRIPTION
#---- ------ --------------   -----------------------------
STRT .M      5284.9272       :START DEPTH     
STOP .M      4939.1316       :STOP DEPTH     
STEP .M        -0.1524       :STEP     
NULL .          -999.25      :NULL VALUE
COMP .        PETROBRAS S.A.                           :COMPANY
WELL .        3-BRSA-293D-SPS                          :WELL
FLD  .        BS-400                                   :FIELD
LOC  .        BASE SAD 69:                             :LOCATION
CNTY .        SANTOS                                   :COUNTY
STAT .        BRASIL                                   :STATE
CTRY .        BRASIL                                   :COUNTRY
API  .                                                 :API NUMBER
UWI  .                                                 :UNIQUE WELL ID
DATE .        15/11/2004                               :LOG DATE
SRVC .        Schlumberger                             :SERVICE COMPANY
LATI .DEG                                              :LATITUDE
LONG .DEG                                              :LONGITUDE
GDAT .                                                 :GeoDetic Datum
#-----------------------------------------------------------------------------
~PARAMETER INFORMATION
#MNEM.UNIT    VALUE                      DESCRIPTION
#---- -----   --------------------       ------------------------
APD  .M               24                 :
BHT  .DEGF           260                 :
BLI  .M             5289                 :
BS   .IN         8.50000                 :
CN   .        PETROBRAS S.A.             :
COUN .        SANTOS                     :
CS   .IN         9.62500                 :
DATE .        15/11/2004                 :
DFD  .LB/G      12.30000                 :
DFL  .C3               2                 :
DFPH .        N/A                        :
DFT  .        SINTETICO                  :
DFV  .S               95                 :
DMF  .        MESA ROTATIVA              :
EDF  .M               24                 :
EGL  .M             -500                 :
EKB  .        N/A                        :
ENGI .        HERNANDEZ / LOCK           :
FL1  .        X   7292392.00 M LAT 24 28 47.189 S :
FL2  .        Y    584087.00 M LON 44 10 12.698 W :
FL3  .        MC  45 GRAUS               :
FN   .        BS-400                     :
LMF  .        MESA ROTATIVA              :
LUL  .        MACAE                      :
MCSS .        PRENSA                     :
MCST .DEGF            80                 :
MFSS .        PRENSA                     :
MFST .DEGF            80                 :
MSS  .        LINHA DE FLUXO             :
MST  .DEGF            80                 :
PDAT .        NIVEL DO MAR               :
R1   .        01. APRESENTAÇÃO DE ACORDO COM REQUERIMENTO DO CLIENTE :
R2   .        02. TEMPERATURA MÁXIMA DO POÇO T1=T2= 290 DEGF @  5275 M :
R3   .        03. INICIO DA CIRCULAÇÃO  12/11/2004 09 00 H :
R4   .        04. FINAL DA CIRCULAÇÃO   12/11/2004 18 00 H :
R5   .        05. TEMPO TOTAL DE CIRCULAÇÃO   09 00 H :
R6   .        06. FLUIDO DE PERFURAÇÃO  SINTETICO (BR-MUL  BR-MI)  60% TEOR DO OLEO :
R7   .        07. SALINIDADE DA LAMA  254762 PPM NACL NA FASE DE AGUA :
R8   .        08. INCLINAÇÃO MÁXIMA DO POÇO  37.37 GRAUS @ 5100 M :
R9   .        09. PRIMEIRAS E ULTIMAS LEITURAS  :
RMB  .OHMM    > 10                       :
RMCS .OHMM    > 10                       :
RMFS .OHMM    > 10                       :
RMS  .OHMM    >10                        :
RUN  .                 2                 :
STAT .        BRASIL                     :
TCS  .        18 00 H                    :
TDD  .M             5288                 :
TDL  .M             5293                 :
TLAB .        N/A                        :
TLI  .M             5000                 :
WITN .        ERNANI / ZE MARIA          :
WN   .        3-BRSA-293D-SPS            :
LUN  .              8808                 :
HIDE .        3-SPS-41D                  :
HID2 .        HIGH DEFINITION INDUCTION LOG :
HID3 .        X-MULTIPOLE ARRAY ACOUSTILOG :
HID4 .        GAMMA RAY LOG              :
HID5 .        TTRM SUB                   :
CLAB .        BACIA                      :
SLAB .        PAIS                       :
CMT1 .        ESC  1 200                 :
CMT2 .        PROF. MEDIDA               :
CMT4 .        SONDA  SS-43               :
HDAT .        SAD 69                     :
FL   .        BASE SAD 69                :
OS1  .        RCI/GR                     :
OS2  .        CHECK SHOT                 :
OS3  .        GR/CN/ZDL                  :
OS5  .        RCOR/GR                    :
LNAM .        ZDL/CN/XMAC/HDIL/EARTH IMAGER/RCI/RCOR/CHECK SHOT/GR :
TOOL .        ZDL/CN/XMAC/HDIL/EARTH IMAGER/RCI/RCOR/CHECK SHOT/GR :
LSOU .        PETROBRAS                  :
LSRV .        OH WIRELINE                :
LTYP .        RAW                        :
EPD  .M                0                 :
LDAT .        15/11/2004                 :
TRIP .                 3                 :
SON  .            786588                 :
CBDR .M             4277                 :
CBLO .        NR                         :
CBL1 .        NR                         :
STEM .DEGF    N/A                        :
BSAL .            254762                 :
BARI .        OFF                        :
DLAB .        12/11/2004                 :
MRT  .DEGF           290                 :
TSTR .        HDIL/XMAC/GR/TTRM          :
TSTG .        N/A                        :
STUS .        FINAL                      :
LCNM .        BAKER ATLAS                :
LCC  .               150                 :
NATI .        BRASIL                     :
OPMD .        OH.WIRELINE                :
PANA .        HERNANDEZ / LOCK           :
PCON .        BAKER ATLAS                :
R11  .        SL     5268.3 M / 5000.0 M :
R12  .        GR     5268.3 M / 5000.0 M :
R13  .        XMAC   5279.5 M / 5000.0 M :
R14  .        HDIL   5289.0 M / 5000.0 M :
R17  .        11. DECLINAÇÃO MAGNETICA  -20.9 GRAUS :
R18  .        12. COORDENADAS BASE       :
R21  .        Y    583936.00 M           :
R22  .        MC  45 GRAUS               :
PVER .           4.10000                 :
WDFN .        /space/expusr/3-SPS-41D_RUN2/i77bf02_2spf.xtf :
OCT  .        i77bf                      :
OS4  .        EARTH IMAGER               :
R16  .        10. PONTO FRACO UTILIZADO  10K :
R20  .        X   7292512.00 M           :
R24  .        13. CADASTRO ANP  86316021017 :
#-----------------------------------------------------------------------------
~CURVE INFORMATION
#MNEM.UNIT   API CODE                                  DESCRIPTION
#---- -----  --------                                  -----------------------
DEPT .M                                                :DEPTH (BOREHOLE) {F10.4}
DEPT .M                                                : {F13.4}
DT   .US/F                                             : {F13.4}
SFN1 .US                                               : {F13.4}
SFN2 .US                                               : {F13.4}
SFN3 .US                                               : {F13.4}
SFN4 .US                                               : {F13.4}
TT   .MS                                               : {F13.4}
#-----------------------------------------------------------------------------
# 
#     DEPT        DEPT         DT           SFN1         SFN2         SFN3         SFN4         TT
#
~A  
# ...
 5104.3332    5104.3332      67.7810     696.0000     728.0000     767.7484     798.0016      39.2028
 5104.1808    5104.1808      67.4372     696.0000     727.5004     764.7527     799.9982      39.2366
 5104.0284    5104.0284      67.2010     694.2509     727.2501     764.5001     798.3759      39.2702
 5103.8760    5103.8760      67.0611     694.7500     726.3750     763.2500     797.8750      39.3037
 5103.7236    5103.7236      66.9932     693.5000     725.5000     761.7500     796.1250      39.3372
 5103.5712    5103.5712      66.9374     691.7510     724.5001     760.0007     793.9992      39.3707
 5103.4188    5103.4188      66.6529     693.5000     724.6258     761.1243     792.6267      39.4041
 5103.2664    5103.2664      65.8657     693.5003     725.5000     760.3745     794.3613      39.4370
 5103.1140    5103.1140      64.6016     693.7511     725.5000     760.0000     784.0000      39.4693
 5102.9616    5102.9616      63.3495     694.3723     725.5000     760.0000     784.0000      39.5008
 5102.8092    5102.8092      62.8314     689.2704     725.8735     760.0000     784.0000      39.5322
 5102.6568    5102.6568      63.4882     688.5027     714.5411     760.0000     784.0000      39.5640
 5102.5044    5102.5044      65.0488     688.8738     721.6019     758.6295     784.0000      39.5965
 5102.3520    5102.3520      66.7908     688.9996     720.8772     759.9961     791.4785      39.6299
 5102.1996    5102.1996      68.1482     689.0000     720.3763     759.6259     791.9987      39.6640
 5102.0472    5102.0472      68.9359     688.5011     720.4997     759.8745     792.0000      39.6985
 5101.8948    5101.8948      69.2253     688.1257     720.0009     759.9998     792.0000      39.7331
 5101.7424    5101.7424      69.1506     691.3705     720.3745     760.0000     792.0000      39.7677
 5101.5900    5101.5900      68.7709     693.1232     723.4968     760.0000     792.0000      39.8021
 5101.4376    5101.4376      68.1815     691.6260     723.8748     760.0000     792.0000      39.8362
 5101.2852    5101.2852      67.5690     693.6250     723.6250     761.2500     793.0000      39.8700
 5101.1328    5101.1328      67.0687     694.5000     725.5000     761.2500     795.5000      39.9035
 5100.9804    5100.9804      66.7107     694.8741     726.6241     762.6240     795.0001      39.9369
 5100.8280    5100.8280      66.5169     692.8738     724.6238     760.3747     795.2481      39.9702
 5100.6756    5100.6756      66.5127     691.3731     723.1259     760.0000     792.8753      40.0035
 5100.5232    5100.5232      66.6794     689.7473     723.8723     760.0000     793.1240      40.0368
 5100.3708    5100.3708      66.9343     688.0182     722.1209     760.0000     792.5002      40.0703
 5100.2184    5100.2184      67.1592     697.4612     720.0087     760.0000     792.6245      40.1037
 5100.0660    5100.0660      67.3051     699.1189     729.7135     759.3773     792.3759      40.1373
 5099.9136    5099.9136      67.4302     698.7513     729.6254     767.9709     791.8767      40.1711
 5099.7612    5099.7612      67.6312     697.5038     729.2511     768.0000     799.9756      40.2049
 5099.6088    5099.6088      67.8867     697.0013     729.2500     767.0026     799.7507      40.2388
 5099.4564    5099.4564      68.0333     697.3741     728.7511     767.9977     799.9994      40.2729
 5099.3040    5099.3040      67.8903     696.1274     729.4986     768.0000     800.0000      40.3068
 5099.1516    5099.1516      67.4149     696.0002     728.7511     768.0000     800.0000      40.3406
 5098.9992    5098.9992      66.7860     695.5006     728.0009     767.1260     800.0000      40.3740
 5098.8468    5098.8468      66.3046     695.6249     726.0016     765.8760     799.3755      40.4071
 5098.6944    5098.6944      66.1859     695.5001     726.4998     760.5023     798.0006      40.4402
 5098.5420    5098.5420      66.4089     695.5000     726.5000     760.7500     794.0000      40.4734
 5098.3896    5098.3896      66.7705     695.3750     726.6250     760.7500     795.0000      40.5068
 5098.2372    5098.2372      67.0558     695.7501     726.2503     761.0000     794.8751      40.5404
 5098.0848    5098.0848      67.1647     695.8750     726.6251     761.0001     795.0000      40.5740
 5097.9324    5097.9324      67.1477     695.8750     726.7502     761.1252     795.0007      40.6076
 5097.7800    5097.7800      67.1231     695.8739     726.8754     761.2502     795.5002      40.6411
 5097.6276    5097.6276      67.1894     695.2526     727.1239     761.3745     795.6245      40.6745
 5097.4752    5097.4752      67.3861     695.7481     727.9966     761.4995     795.7495      40.7082
 5097.3228    5097.3228      67.6847     695.2518     727.0035     760.5035     795.8746      40.7421
 5097.1704    5097.1704      68.0178     695.9976     727.6230     764.3628     795.0027      40.7761
 5097.0180    5097.0180      68.3017     696.0000     727.7497     764.4997     797.6177      40.8103
 5096.8656    5096.8656      68.4741     696.0000     727.8747     765.4976     798.3732      40.8445
 5096.7132    5096.7132      68.5705     696.0000     727.9997     765.7495     798.1255      40.8788
 5096.5608    5096.5608      68.7290     695.8752     728.0000     766.2492     798.0002      40.9132
 5096.4084    5096.4084      69.0692     696.4992     728.0000     766.4997     798.6242      40.9477
 5096.2560    5096.2560      69.5299     699.8719     729.2488     764.2521     798.6250      40.9825
 5096.1036    5096.1036      69.8256     702.3736     735.7464     769.1223     796.2513      41.0175
 5095.9512    5095.9512      69.6237     703.0000     736.0000     773.3750     804.2500      41.0523
 5095.7988    5095.7988      68.8555     703.2500     736.0000     774.2500     804.6250      41.0867
 5095.6464    5095.6464      67.8565     703.7494     736.0000     773.3749     803.5001      41.1207
 5095.4940    5095.4940      67.1356     702.7485     735.9987     773.1243     803.6251      41.1542
 5095.3416    5095.3416      67.0297     701.1268     734.6237     772.3693     803.7494      41.1878
 5095.1892    5095.1892      67.4940     702.5008     733.6269     768.0035     803.2498      41.2215
 5095.0368    5095.0368      68.1604     702.9978     734.7451     770.1158     803.1255      41.2554
 5094.8844    5094.8844      68.6702     703.3735     735.2480     771.1210     804.1210      41.2897
 5094.7320    5094.7320      68.8602     702.7523     735.8727     773.4914     806.4914      41.3242
 5094.5796    5094.5796      68.8022     703.9959     735.7504     773.0016     805.7525      41.3586
 5094.4272    5094.4272      68.7112     704.0000     735.9993     772.2522     805.5007      41.3930
 5094.2748    5094.2748      68.7510     703.5013     736.0000     774.3696     806.1234      41.4274
 5094.1224    5094.1224      68.9209     703.9989     735.8753     774.2503     806.8734      41.4618
 5093.9700    5093.9700      69.0979     704.0000     735.9998     774.1252     807.9980      41.4964
 5093.8176    5093.8176      69.1357     704.0000     736.1248     775.2484     806.8766      41.5310
 5093.6652    5093.6652      68.9795     704.8741     736.6245     775.0003     807.6242      41.5655
 5093.5128    5093.5128      68.7140     704.0006     736.2503     775.1249     807.6250      41.5998
 5093.3604    5093.3604      68.4736     701.8750     734.7500     776.0000     808.0000      41.6341
 5093.2080    5093.2080      68.3421     701.2500     733.7500     773.7500     808.0000      41.6683
 5093.0556    5093.0556      68.3589     702.2501     732.7501     769.8747     806.1241      41.7025
 5092.9032    5092.9032      68.5024     702.5009     733.0007     769.1252     803.9993      41.7367
 5092.7508    5092.7508      68.6563     703.6243     733.8764     769.3772     803.1263      41.7711
 5092.5984    5092.5984      68.6896     703.0000     735.1258     771.2529     804.2525      41.8054
 5092.4460    5092.4460      68.5339     702.9991     735.6248     773.1245     805.8748      41.8397
