~VERSION INFORMATION
VERS.           2.0   :CWLS Log ASCII Standard - VERSION 2.0
WRAP.           NO    :One Line per depth step
PROD.  Schlumberger   :LAS Producer
PROG.  DLIS to ASCII 2.3                               :LAS Program name and version
CREA.        2023/07/14 00:15                          :LAS Creation date {YYYY/MM/DD hh:mm}
DLIS_CREA.  2023-Jul-14 00:11                          :DLIS Creation date and time {YYYY-MMM-DD hh:mm}
SOURCE.     LIS_005.dlis                               :DLIS File Name
FILE-ID.     LIS   .001                                :File Identification Number
#--------------------------------------------------
~WELL INFORMATION
#MNEM.UNIT      DATA             DESCRIPTION
#---- ------ --------------   -----------------------------
STRT .M      5238.7500       :START DEPTH     
STOP .M      5087.2644       :STOP DEPTH     
STEP .M        -0.1524       :STEP     
NULL .          -999.25      :NULL VALUE
COMP .        PETROBRAS S.A.                           :COMPANY
WELL .        3-BRSA-293D-SPS                          :WELL
FLD  .        BS-400                                   :FIELD
LOC  .        BASE SAD 69:                             :LOCATION
CNTY .        SANTOS                                   :COUNTY
STAT .        BRASIL                                   :STATE
CTRY .        SANTOS                                   :COUNTRY
API  .                                                 :API NUMBER
UWI  .                                                 :UNIQUE WELL ID
DATE .        23/10/2004                               :LOG DATE
SRVC .        Schlumberger                             :SERVICE COMPANY
LATI .DEG                                              :LATITUDE
LONG .DEG                                              :LONGITUDE
GDAT .                                                 :GeoDetic Datum
#-----------------------------------------------------------------------------
~PARAMETER INFORMATION
#MNEM.UNIT    VALUE                      DESCRIPTION
#---- -----   --------------------       ------------------------
APD  .M               24                 :
BHT  .DEGF           280                 :
BLI  .M             5230                 :
BS   .IN         8.50000                 :
CN   .        PETROBRAS S.A.             :
COUN .        SANTOS                     :
CS   .IN         9.62500                 :
DATE .        23/10/2004                 :
DFD  .LB/G      12.30000                 :
DFL  .C3               2                 :
DFPH .        N/A                        :
DFT  .        SINTETICO                  :
DFV  .S               87                 :
DMF  .        MESA ROTATIVA              :
EDF  .M               24                 :
EGL  .M             -500                 :
EKB  .        N/A                        :
ENGI .        HERNANDEZ/LOCK             :
FL1  .        X   7292392.00 M LAT 24 28 47.189 S :
FL2  .        Y    584087.00 M LON 44 10 12.698 W :
FL3  .        MC  45 GRAUS               :
FN   .        BS-400                     :
LMF  .        MESA ROTATIVA              :
LUL  .        MACAE                      :
MCSS .        PRENSA                     :
MCST .DEGF            80                 :
MFSS .        PRENSA                     :
MFST .DEGF            80                 :
MSS  .        LINHA DE FLUXO             :
MST  .DEGF            80                 :
PDAT .        NIVEL DO MAR               :
R1   .        01. APRESENTAÇÃO DE ACORDO COM REQUERIMENTO DO CLIENTE :
R2   .        02. TEMPERATURA MÁXIMA DO POÇO T1=T2= 260 DEGF @  5180 M :
R3   .        03. INICIO DA CIRCULAÇÃO  13 45 H 21/10/2004 :
R4   .        04. FINAL DA CIRCULAÇÃO   16 00 H 21/10/2004 :
R5   .        05. TEMPO TOTAL DE CIRCULAÇÃO  02 15 H :
R6   .        06. FLUIDO DE PERFURAÇÃO  SINTETICO (BR-MUL  BR-MI)  65% TEOR DO OLEO :
R7   .        07. SALINIDADE DA LAMA  266377 PPM NACL NA FASE DE AGUA :
R8   .        08. INCLINAÇÃO MÁXIMA DO POÇO  37.37 GRAUS @ 5100 M :
R9   .        09. PRIMEIRAS E ULTIMAS LEITURAS  :
RMB  .OHMM    > 10                       :
RMCS .OHMM    > 10                       :
RMFS .OHMM    > 10                       :
RMS  .OHMM    > 10                       :
RUN  .                 1                 :
STAT .        BRASIL                     :
TCS  .        16 00 H                    :
TDD  .M             5230                 :
TDL  .M             5231                 :
TLAB .        N/A                        :
TLI  .M             4277                 :
WITN .        ALCIDIO/VLADIMIR           :
WN   .        3-BRSA-293D-SPS            :
LUN  .              8808                 :
HIDE .        3-SPS-41D                  :
HID2 .        COMPENSATED Z-DENSILOG     :
HID3 .        COMPENSATED NEUTRON LOG    :
HID4 .        GAMMA RAY LOG              :
HID5 .        TTRM SUB                   :
CLAB .        BACIA                      :
SLAB .        PAIS                       :
CMT1 .        ESC  1 1000                :
CMT2 .        PROF. MEDIDA               :
CMT4 .        SONDA  SS-43               :
HDAT .        SAD 69                     :
FL   .        BASE SAD 69                :
OS1  .        HDIL/XMAC/SL/GR            :
OS3  .        MREX/GR                    :
OS5  .        SL/GR                      :
LNAM .        MREX/ZDL/CN/XMAC/HDIL/3DEX/RCI/SL/GR :
TOOL .        MREX/ZDL/CN/XMAC/HDIL/3DEX/RCI/SL/GR :
LSOU .        PETROBRAS                  :
LSRV .        OH WIRELINE                :
LTYP .        RAW                        :
EPD  .M                0                 :
LDAT .        23/10/2004                 :
TRIP .                 1                 :
SON  .            772317                 :
CBDR .M             4277                 :
CBLO .M             4277                 :
CBL1 .M             4277                 :
STEM .DEGF    N/A                        :
BSAL .            266377                 :
BARI .        OFF                        :
DLAB .        21/10/2004                 :
MRT  .DEGF           280                 :
TSTR .        ZDL/CN/GR/TTRM             :
TSTG .        N/A                        :
STUS .        FINAL                      :
LCNM .        BAKER ATLAS                :
LCC  .               150                 :
NATI .        SANTOS                     :
OPMD .        OH.WIRELINE                :
PANA .        HERNANDEZ/LOCK             :
PCON .        BAKER ATLAS                :
R11  .        GR     5222.5 M/4277.0 M   :
R12  .        ZDL    5230.0 M/4277.0 M   :
R13  .        CN     5224.0 M/4277.0 M   :
R15  .        10. PONTO FRACO UTILIZADO  10K :
R17  .        12. DECLINAÇÃO MAGNETICA  -20.9 GRAUS :
R18  .        13. COORDENADAS BASE       :
R21  .        Y    583936.00 M           :
R22  .        MC  45 GRAUS               :
PVER .           4.10000                 :
WDFN .        /space/expusr/3-SPS-41D/i77bf06_8spf.xtf :
OCT  .        i77bf                      :
0S2  .        3DEX/GR                    :
OS4  .        RCI/GR                     :
R16  .        11. CNC CORREGIDO PELO CALIPER E SALINIDADE  PRESENTADO MATRIZ CARBONATO :
R20  .        X   7292512.00 M           :
R24  .        14. CADASTRO ANP  86316021017 :
#-----------------------------------------------------------------------------
~CURVE INFORMATION
#MNEM.UNIT   API CODE                                  DESCRIPTION
#---- -----  --------                                  -----------------------
DEPT .M                                                :DEPTH (BOREHOLE) {F10.4}
DEPT .M                                                : {F13.4}
BIT  .IN                                               : {F13.4}
GR   .GAPI                                             : {F13.4}
TEN  .LBF                                              : {F13.4}
TTEN .LBF                                              : {F13.4}
CAL  .IN                                               : {F13.4}
CALX .IN                                               : {F13.4}
HRD1 .HZ                                               : {F13.4}
HRD2 .HZ                                               : {F13.4}
PE   .B/E                                              : {F13.4}
SFT2 .HZ                                               : {F13.4}
SOFT .HZ                                               : {F13.4}
SSD  .HZ                                               : {F13.4}
ZCOR .G/C3                                             : {F13.4}
ZDEN .G/C3                                             : {F13.4}
#-----------------------------------------------------------------------------
# 
#     DEPT        DEPT         BIT          GR           TEN          TTEN         CAL          CALX         HRD1         HRD2         PE           SFT2         SOFT         SSD          ZCOR         ZDEN
#
~A  
# ...
 5209.0320    5209.0320       8.5000      57.0738     -97.7148    6446.1268       8.5947       8.5947     885.3462    1062.7496       2.9241     751.9946     637.8689    6904.9942      -0.0240       2.4526
 5208.8796    5208.8796       8.5000      57.7314    -102.5178    6439.7225       8.5922       8.5922     873.4356    1062.8078       2.9995     741.5334     625.1905    6897.7245      -0.0233       2.4554
 5208.7272    5208.7272       8.5000      58.4776     -96.2835    6444.3149       8.5901       8.5901     870.6928    1088.8899       3.1460     748.2134     622.0270    6884.3332      -0.0283       2.4521
 5208.5748    5208.5748       8.5000      58.8916     -87.7507    6451.2950       8.5906       8.5906     875.6695    1111.3814       3.2478     763.2246     624.3380    6875.0174      -0.0332       2.4469
 5208.4224    5208.4224       8.5000      58.1737     -86.5096    6451.0549       8.5923       8.5923     878.8728    1117.8634       3.2962     763.0419     623.4250    6879.4418      -0.0340       2.4442
 5208.2700    5208.2700       8.5000      56.7633     -80.4126    6455.7621       8.5921       8.5921     872.3025    1113.4031       3.3328     745.6575     619.1761    6877.6635      -0.0327       2.4457
 5208.1176    5208.1176       8.5000      55.9616     -66.6399    6468.3343       8.5902       8.5902     852.1231    1102.3057       3.3809     724.0017     610.0259    6825.0460      -0.0353       2.4517
 5207.9652    5207.9652       8.5000      56.5233     -61.7759    6472.1232       8.5902       8.5902     830.4953    1087.4829       3.5024     703.5045     588.7199    6762.7233      -0.0385       2.4583
 5207.8128    5207.8128       8.5000      58.7147     -70.7666    6461.9609       8.5924       8.5924     829.3861    1084.4954       3.5931     697.9278     569.6306    6799.3449      -0.0331       2.4575
 5207.6604    5207.6604       8.5000      61.4642     -74.2312    6457.1900       8.5938       8.5938     860.2825    1102.7508       3.5696     722.5650     581.3735    6921.5285      -0.0239       2.4459
 5207.5080    5207.5080       8.5000      62.7562     -54.2460    6476.0433       8.5931       8.5931     905.5732    1129.4317       3.5116     759.9094     613.1736    7012.0621      -0.0219       2.4303
 5207.3556    5207.3556       8.5000      61.7337     -20.2362    6509.4745       8.5919       8.5919     931.1434    1149.3480       3.4701     780.6517     627.8805    7014.0934      -0.0276       2.4207
 5207.2032    5207.2032       8.5000      60.0174       2.3831    6532.0536       8.5911       8.5911     923.7191    1146.7925       3.4580     779.4842     618.0390    6956.5535      -0.0337       2.4219
 5207.0508    5207.0508       8.5000      59.1939      -0.5867    6529.1751       8.5908       8.5908     899.1866    1121.4521       3.4303     763.6627     609.3317    6900.3315      -0.0344       2.4313
 5206.8984    5206.8984       8.5000      59.5754     -24.0383    6505.5219       8.5907       8.5907     874.0453    1089.4314       3.2998     741.5087     610.2952    6868.8930      -0.0308       2.4427
 5206.7460    5206.7460       8.5000      60.8599     -46.0765    6482.8356       8.5907       8.5907     852.2033    1069.7683       3.2192     728.8625     610.9068    6808.5465      -0.0330       2.4523
 5206.5936    5206.5936       8.5000      62.5897     -40.3902    6487.7070       8.5911       8.5911     832.1932    1054.5584       3.2243     723.3002     604.6533    6703.9240      -0.0420       2.4609
 5206.4412    5206.4412       8.5000      63.0781      -8.9701    6518.6855       8.5931       8.5931     811.3865    1035.8644       3.2557     710.1859     588.5497    6602.1800      -0.0500       2.4696
 5206.2888    5206.2888       8.5000      61.1053      13.0103    6540.7331       8.5963       8.5963     793.5438    1020.1151       3.4015     687.5673     561.4045    6543.8110      -0.0531       2.4756
 5206.1364    5206.1364       8.5000      57.3766       8.0141    6535.9121       8.5983       8.5983     794.5120    1025.3792       3.5586     680.4445     546.7260    6587.0352      -0.0481       2.4720
 5205.9840    5205.9840       8.5000      53.7205      -9.7316    6518.1021       8.6002       8.6002     834.5495    1057.3844       3.4910     706.8131     571.0036    6730.0804      -0.0392       2.4558
 5205.8316    5205.8316       8.5000      51.6290     -28.5243    6498.9520       8.6038       8.6038     893.3644    1099.1091       3.2702     742.6457     618.9397    6872.8166      -0.0343       2.4353
 5205.6792    5205.6792       8.5000      51.7911     -39.2876    6487.5848       8.6074       8.6074     924.5783    1130.0551       3.1653     757.2899     651.1891    6945.3906      -0.0331       2.4217
 5205.5268    5205.5268       8.5000      52.5244     -25.9322    6500.3440       8.6079       8.6079     916.9769    1160.1739       3.2484     763.6061     657.0493    6970.0524      -0.0328       2.4157
 5205.3744    5205.3744       8.5000      52.6235      -5.7969    6520.1591       8.6056       8.6056     897.0223    1192.5482       3.4276     776.4842     649.2774    6962.0243      -0.0355       2.4140
 5205.2220    5205.2220       8.5000      53.2025     -12.2855    6513.4158       8.6040       8.6040     882.1875    1189.2045       3.4995     777.2838     635.7345    6916.8717      -0.0390       2.4185
 5205.0696    5205.0696       8.5000      54.9210     -29.0837    6496.1431       8.6041       8.6041     875.2731    1146.2016       3.4565     760.1312     620.8189    6848.0273      -0.0414       2.4289
 5204.9172    5204.9172       8.5000      56.0869     -24.6604    6500.0481       8.6029       8.6029     868.6626    1102.0740       3.3921     742.8779     608.4689    6794.8364      -0.0416       2.4400
 5204.7648    5204.7648       8.5000      55.3332     -17.6549    6506.6780       8.5987       8.5987     863.4509    1071.7778       3.3240     729.8823     599.6480    6783.9193      -0.0381       2.4489
 5204.6124    5204.6124       8.5000      52.5587     -30.7962    6493.0761       8.5951       8.5951     855.2665    1046.3011       3.2785     711.8798     590.4553    6776.7376      -0.0343       2.4577
 5204.4600    5204.4600       8.5000      50.2161     -39.1528    6484.1036       8.5949       8.5949     826.3600    1030.1794       3.3876     684.8068     571.3643    6723.5826      -0.0350       2.4685
 5204.3076    5204.3076       8.5000      51.3029     -25.4429    6497.3251       8.5955       8.5955     787.1622    1027.1781       3.6841     656.9366     541.0804    6673.1548      -0.0356       2.4776
 5204.1552    5204.1552       8.5000      55.2917     -16.8017    6505.6560       8.5943       8.5943     785.7994    1037.1663       3.9271     647.3408     523.4641    6698.6406      -0.0334       2.4767
 5204.0028    5204.0028       8.5000      59.1416     -28.7066    6493.3093       8.5939       8.5939     819.8880    1054.1084       3.8999     658.8196     536.0114    6742.7887      -0.0349       2.4680
 5203.8504    5203.8504       8.5000      60.9373     -39.5997    6481.7550       8.5966       8.5966     840.2650    1066.8375       3.7545     674.6587     558.0808    6727.3831      -0.0417       2.4619
 5203.6980    5203.6980       8.5000      60.3191     -38.4596    6482.1891       8.6002       8.6002     840.5771    1072.7670       3.6768     694.0367     566.1862    6732.7628      -0.0419       2.4594
 5203.5456    5203.5456       8.5000      58.9306     -35.8570    6484.1523       8.6019       8.6019     858.1211    1083.5270       3.6093     722.5094     574.9121    6835.6093      -0.0322       2.4534
 5203.3932    5203.3932       8.5000      58.4338     -26.4553    6493.0173       8.6023       8.6023     890.0443    1104.4902       3.4376     751.7018     603.5704    6958.6834      -0.0234       2.4439
 5203.2408    5203.2408       8.5000      57.6533       0.6312    6519.8701       8.6026       8.6026     904.2777    1123.8861       3.2523     772.1511     634.1511    7026.5626      -0.0191       2.4380
