~VERSION INFORMATION
VERS.           2.0   :CWLS Log ASCII Standard - VERSION 2.0
WRAP.           NO    :One Line per depth step
PROD.  Schlumberger   :LAS Producer
PROG.  DLIS to ASCII 2.3                               :LAS Program name and version
CREA.        2023/07/14 00:15                          :LAS Creation date {YYYY/MM/DD hh:mm}
DLIS_CREA.  2023-Jul-14 00:11                          :DLIS Creation date and time {YYYY-MMM-DD hh:mm}
SOURCE.     LIS_001.dlis                               :DLIS File Name
FILE-ID.     LIS   .001                                :File Identification Number
#--------------------------------------------------
~WELL INFORMATION
#MNEM.UNIT      DATA             DESCRIPTION
#---- ------ --------------   -----------------------------
STRT .M      5244.5412       :START DEPTH     
STOP .M      5059.0704       :STOP DEPTH     
STEP .M        -0.1524       :STEP     
NULL .          -999.25      :NULL VALUE
COMP .        PETROBRAS S.A.                           :COMPANY
WELL .        3-BRSA-293D-SPS                          :WELL
FLD  .        BS-400                                   :FIELD
LOC  .        BASE SAD 69:                             :LOCATION
CNTY .        SANTOS                                   :COUNTY
STAT .        BRASIL                                   :STATE
CTRY .        BRASIL                                   :COUNTRY
API  .                                                 :API NUMBER
UWI  .                                                 :UNIQUE WELL ID
DATE .        22/10/2004                               :LOG DATE
SRVC .        Schlumberger                             :SERVICE COMPANY
LATI .DEG                                              :LATITUDE
LONG .DEG                                              :LONGITUDE
GDAT .                                                 :GeoDetic Datum
#-----------------------------------------------------------------------------
~PARAMETER INFORMATION
#MNEM.UNIT    VALUE                      DESCRIPTION
#---- -----   --------------------       ------------------------
APD  .M               24                 :
BHT  .DEGF           260                 :
BLI  .M       5227.50000                 :
BS   .IN         8.50000                 :
CN   .        PETROBRAS S.A.             :
COUN .        SANTOS                     :
CS   .IN         9.62500                 :
DATE .        22/10/2004                 :
DFD  .LB/G      12.30000                 :
DFL  .C3               2                 :
DFPH .        N/A                        :
DFT  .        SINTETICO                  :
DFV  .S               87                 :
DMF  .        MESA ROTATIVA              :
EDF  .M               24                 :
EGL  .M             -500                 :
EKB  .        N/A                        :
ENGI .        HERNANDEZ/LOCK             :
FL1  .        X   7292392.00 M LAT 24 28 47.189 S :
FL2  .        Y    584087.00 M LON 44 10 12.698 W :
FL3  .        MC  45 GRAUS               :
FN   .        BS-400                     :
LMF  .        MESA ROTATIVA              :
LUL  .        MACAE                      :
MCSS .        PRENSA                     :
MCST .DEGF            80                 :
MFSS .        PRENSA                     :
MFST .DEGF            80                 :
MSS  .        LINHA DE FLUXO             :
MST  .DEGF            80                 :
PDAT .        NIVEL DO MAR               :
R1   .        01. APRESENTAÇÃO DE ACORDO COM REQUERIMENTO DO CLIENTE :
R2   .        02. TEMPERATURA MÁXIMA DO POÇO T1=T2= 260 DEGF @  5180 M :
R3   .        03. INICIO DA CIRCULAÇÃO  13 45 H 21/10/2004 :
R4   .        04. FINAL DA CIRCULAÇÃO   16 00 H 21/10/2004 :
R5   .        05. TEMPO TOTAL DE CIRCULAÇÃO  02 15 H :
R6   .        06. FLUIDO DE PERFURAÇÃO  SINTETICO (BR-MUL  BR-MI)  65% TEOR DO OLEO :
R7   .        07. SALINIDADE DA LAMA  266377 PPM NACL NA FASE DE AGUA :
R8   .        08. INCLINAÇÃO MÁXIMA DO POÇO  37.37 GRAUS @ 5100 M :
R9   .        09. PRIMEIRAS E ULTIMAS LEITURAS  :
RMB  .OHMM    > 10                       :
RMCS .OHMM    > 10                       :
RMFS .OHMM    > 10                       :
RMS  .OHMM    > 10                       :
RUN  .                 1                 :
STAT .        BRASIL                     :
TCS  .        16 00 H                    :
TDD  .M             5230                 :
TDL  .M             5231                 :
TLAB .        N/A                        :
TLI  .M             3850                 :
WITN .        ALCIDIO/VLADIMIR           :
WN   .        3-BRSA-293D-SPS            :
LUN  .              8808                 :
HIDE .        3-SPS-41D                  :
HID2 .        HIGH DEFINITION INDUCTION LOG :
HID3 .        X-MULTIPOLE ARRAY ACOUSTILOG :
HID4 .        GAMMA RAY LOG              :
HID5 .        TTRM SUB                   :
CLAB .        BACIA                      :
SLAB .        PAIS                       :
CMT1 .        ESC  1 1000                :
CMT2 .        PROF. MEDIDA               :
CMT4 .        SONDA  SS-43               :
HDAT .        SAD 69                     :
FL   .        BASE SAD 69                :
OS1  .        GR/CN/ZDL                  :
OS2  .        MREX/GR                    :
OS3  .        RCI/GR                     :
0S4  .        3DEX/GR                    :
OS5  .        SL/GR                      :
LNAM .        MREX/ZDL/CN/XMAC/HDIL/RCI/3DEX/SL/GR :
TOOL .        MREX/ZDL/CN/XMAC/HDIL/RCI/3DEX/SL/GR :
LSOU .        PETROBRAS                  :
LSRV .        OH WIRELINE                :
LTYP .        RAW                        :
EPD  .M                0                 :
LDAT .        22/10/2004                 :
TRIP .                 1                 :
SON  .            772317                 :
CBDR .M             4277                 :
CBLO .M             4277                 :
CBL1 .M             4277                 :
STEM .DEGF    N/A                        :
BSAL .            266377                 :
BARI .        OFF                        :
DLAB .        21/10/2004                 :
MRT  .DEGF           260                 :
TSTR .        HDIL/XMAC/GR/TTRM          :
TSTG .        N/A                        :
STUS .        FINAL                      :
LCNM .        BAKER ATLAS                :
LCC  .               150                 :
NATI .        BRASIL                     :
OPMD .        OH.WIRELINE                :
PANA .        HERNANDEZ/LOCK             :
PCON .        BAKER ATLAS                :
R11  .        SL     5196.0 M/4960.0 M   :
R12  .        GR     4960.0 M/4277.0 M   :
R13  .        XMAC   5202.0 M/3850.0 M   :
R14  .        HDIL   5227.5 M/4277.0 M   :
R15  .        3DEX   5217.0 M/4960.0 M   :
R17  .        10. PONTO FRACO UTILIZADO  10K :
R18  .        11. DECLINAÇÃO MAGNETICA  -20.9 GRAUS :
R19  .        12. COORDENADAS ARATU      :
R21  .        X   7292512.00 M           :
R22  .        Y    583936.00 M           :
R23  .        MC  45 GRAUS               :
R25  .        13. CADASTRO ANP  86316021017 :
PVER .           4.10000                 :
WDFN .        /space/expusr/3-SPS-41D/i77bf02_2spf.xtf :
OCT  .        i77bf                      :
#-----------------------------------------------------------------------------
~CURVE INFORMATION
#MNEM.UNIT   API CODE                                  DESCRIPTION
#---- -----  --------                                  -----------------------
DEPT .M                                                :DEPTH (BOREHOLE) {F10.4}
DEPT .M                                                : {F13.4}
DT   .US/F                                             : {F13.4}
SFN1 .US                                               : {F13.4}
SFN2 .US                                               : {F13.4}
SFN3 .US                                               : {F13.4}
SFN4 .US                                               : {F13.4}
TT   .MS                                               : {F13.4}
#-----------------------------------------------------------------------------
# 
#     DEPT        DEPT         DT           SFN1         SFN2         SFN3         SFN4         TT
#
~A  
# ...
 5196.3828    5196.3828      61.8287     672.3750     704.0000     744.0000     770.0000       3.6573
 5196.2304    5196.2304      62.9047     674.2526     710.7498     744.2498     768.0035       3.6888
 5196.0780    5196.0780      63.9554     680.0000     710.2486     743.7500     775.7495       3.7208
 5195.9256    5195.9256      64.4885     679.9933     708.5010     743.7503     775.1253       3.7530
 5195.7732    5195.7732      64.7035     674.3713     709.3666     743.9930     775.3651       3.7854
 5195.6208    5195.6208      65.0195     672.0104     704.0067     739.5087     769.0135       3.8179
 5195.4684    5195.4684      65.5476     677.3741     707.5055     744.0000     776.0000       3.8507
 5195.3160    5195.3160      65.9741     676.9937     709.8653     744.0000     775.9977       3.8837
 5195.1636    5195.1636      65.9120     674.6170     706.2432     743.9992     775.1261       3.9167
 5195.0112    5195.0112      65.3924     672.0000     703.9966     743.7382     775.4882       3.9494
 5194.8588    5194.8588      64.7347     672.0000     703.0026     740.2592     772.0092       3.9815
 5194.7064    5194.7064      64.1563     666.3878     703.6236     736.0096     771.3764       4.0136
 5194.5540    5194.5540      63.6160     667.1236     696.7630     736.0000     768.0064       4.0455
 5194.4016    5194.4016      62.9095     664.0048     696.0011     731.1325     768.0000       4.0769
 5194.2492    5194.2492      62.0129     664.0000     696.0000     733.8718     762.5064       4.1079
 5194.0968    5194.0968      61.1957     663.6253     691.2538     728.0046     761.3759       4.1385
 5193.9444    5193.9444      60.9358     663.9998     691.6248     727.0004     756.0023       4.1690
 5193.7920    5193.7920      61.4861     666.5000     691.2500     725.0000     753.6250       4.1998
 5193.6396    5193.6396      62.6079     663.8750     696.0000     728.0000     756.5000       4.2311
 5193.4872    5193.4872      63.8538     663.8764     693.6296     731.0028     752.7608       4.2630
 5193.3348    5193.3348      64.8578     665.8807     700.2508     735.1200     768.4955       4.2955
 5193.1824    5193.1824      65.6045     671.2438     700.9929     730.3734     764.2512       4.3283
 5193.0300    5193.0300      66.2722     666.8734     696.0027     729.2621     765.1284       4.3614
 5192.8776    5192.8776      66.8150     666.0130     697.5141     736.0035     767.0057       4.3949
 5192.7252    5192.7252      66.8997     672.0000     704.0073     737.6361     769.6313       4.4283
 5192.5728    5192.5728      66.2497     671.9996     706.8630     741.9942     772.1217       4.4615
 5192.4204    5192.4204      65.0190     671.8693     702.7382     739.9870     770.9939       4.4940
 5192.2680    5192.2680      63.7993     670.1298     699.1350     736.0110     769.1302       4.5257
 5192.1156    5192.1156      63.3284     669.5015     698.2521     733.3813     764.8852       4.5574
 5191.9632    5191.9632      64.0379     669.3753     697.1273     732.7513     764.8750       4.5894
 5191.8108    5191.8108      65.6368     665.2569     696.0019     729.7550     760.0081       4.6222
 5191.6584    5191.6584      67.2904     668.6206     696.0000     734.9932     767.4903       4.6559
 5191.5060    5191.5060      68.1980     678.4909     703.9926     735.9991     768.8737       4.6900
 5191.3536    5191.3536      68.0853     684.6216     711.9956     742.9961     770.6240       4.7240
 5191.2012    5191.2012      67.2912     685.6250     713.2500     747.6250     776.1250       4.7577
 5191.0488    5191.0488      66.4915     680.0000     711.6250     744.0000     775.5000       4.7910
 5190.8964    5190.8964      66.1204     687.7488     714.5029     750.2510     778.7528       4.8240
 5190.7440    5190.7440      65.9898     685.6233     719.7447     751.9985     783.7442       4.8570
 5190.5916    5190.5916      65.6440     683.7555     714.0066     750.3784     777.5126       4.8899
 5190.4392    5190.4392      64.9273     687.9994     719.1298     753.0060     787.2512       4.9224
 5190.2868    5190.2868      64.1246     687.6207     721.9805     756.6138     787.9822       4.9544
 5190.1344    5190.1344      63.8545     685.4847     712.3687     751.1079     779.2437       4.9864
 5189.9820    5189.9820      64.6161     679.1250     709.7552     744.0000     776.6274       5.0187
 5189.8296    5189.8296      66.2271     679.1383     711.6266     744.0169     777.5106       5.0518
 5189.6772    5189.6772      67.9481     683.3746     712.1385     749.3724     780.8794       5.0858
 5189.5248    5189.5248      68.9708     683.2503     715.9902     748.6269     782.1219       5.1201
 5189.3724    5189.3724      68.8003     688.8628     718.6193     754.1131     783.9959       5.1545
 5189.2200    5189.2200      67.4508     690.2475     724.9886     756.1214     789.8645       5.1882
 5189.0676    5189.0676      65.4298     689.0018     721.6298     759.9945     786.3800       5.2210
 5188.9152    5188.9152      63.4191     687.6265     720.0017     756.1291     790.1210       5.2527
 5188.7628    5188.7628      62.0101     681.8790     715.2533     752.0028     784.6288       5.2837
 5188.6104    5188.6104      61.6346     680.1250     712.0000     749.5000     784.0000       5.3145
 5188.4580    5188.4580      62.3755     679.5000     707.6250     745.2500     779.8750       5.3457
 5188.3056    5188.3056      63.8414     672.0000     708.1233     742.1247     775.9976       5.3777
 5188.1532    5188.1532      65.4122     672.0016     704.0019     741.3731     770.2533       5.4104
 5188.0008    5188.0008      66.5174     674.0055     706.3762     739.0058     774.3769       5.4436
 5187.8484    5187.8484      66.8112     678.7519     707.3815     744.0000     776.0010       5.4771
 5187.6960    5187.6960      66.3341     680.0000     711.6243     744.0000     776.6238       5.5102
 5187.5436    5187.5436      65.5200     679.9980     711.2508     744.0000     775.9977       5.5430
 5187.3912    5187.3912      64.7924     679.1098     711.6128     744.0000     775.0020       5.5754
 5187.2388    5187.2388      64.1661     673.3709     706.9910     743.9989     775.7508       5.6075
 5187.0864    5187.0864      63.3720     671.9941     703.9979     743.6145     775.9929       5.6392
 5186.9340    5186.9340      62.2501     670.2546     703.3767     740.5083     773.8806       5.6701
 5186.7816    5186.7816      61.0705     668.3793     703.4997     739.6270     774.6233       5.7007
 5186.6292    5186.6292      60.4686     656.0239     688.4042     731.1414     762.1491       5.7309
 5186.4768    5186.4768      60.7724     656.0000     688.0006     719.5181     753.7631       5.7613
 5186.3244    5186.3244      61.7061     656.0000     688.0000     721.9970     752.0021       5.7922
 5186.1720    5186.1720      62.6875     658.8726     689.7486     722.8743     752.6245       5.8236
 5186.0196    5186.0196      63.4089     660.4993     685.0021     719.8764     749.2515       5.8553
 5185.8672    5185.8672      63.9994     660.5000     691.2500     720.0000     751.1250       5.8873
 5185.7148    5185.7148      64.6054     666.2500     700.3750     727.0000     750.2500       5.9196
 5185.5624    5185.5624      65.2328     666.6228     695.9987     733.3729     767.1238       5.9522
 5185.4100    5185.4100      65.6922     663.2541     694.0036     730.1310     765.2528       5.9851
 5185.2576    5185.2576      65.8392     667.2455     697.4979     735.9956     767.9979       6.0180
 5185.1052    5185.1052      65.8757     664.0119     696.0088     732.8805     766.5026       6.0510
 5184.9528    5184.9528      66.1110     670.7495     700.9979     735.9971     767.9965       6.0840
 5184.8004    5184.8004      66.7317     670.4984     700.0003     734.6284     766.3778       6.1174
 5184.6480    5184.6480      67.7151     669.8969     700.1401     736.0129     767.5190       6.1513
 5184.4956    5184.4956      68.9141     677.5028     705.3891     740.5101     774.1302       6.1858
