~VERSION INFORMATION
VERS.           2.0   :CWLS Log ASCII Standard - VERSION 2.0
WRAP.           NO    :One Line per depth step
PROD.  Schlumberger   :LAS Producer
PROG.  DLIS to ASCII 2.3                               :LAS Program name and version
CREA.        2023/07/14 00:15                          :LAS Creation date {YYYY/MM/DD hh:mm}
DLIS_CREA.  2023-Jul-14 00:11                          :DLIS Creation date and time {YYYY-MMM-DD hh:mm}
SOURCE.     LIS_009.dlis                               :DLIS File Name
FILE-ID.     LIS   .002                                :File Identification Number
#--------------------------------------------------
~WELL INFORMATION
#MNEM.UNIT      DATA             DESCRIPTION
#---- ------ --------------   -----------------------------
STRT .M      5301.9960       :START DEPTH     
STOP .M      5058.6132       :STOP DEPTH     
STEP .M        -0.1524       :STEP     
NULL .          -999.25      :NULL VALUE
COMP .        PETROBRAS S.A.                           :COMPANY
WELL .        3-BRSA-293D-SPS                          :WELL
FLD  .        BS-400                                   :FIELD
LOC  .        BASE SAD 69:                             :LOCATION
CNTY .        SANTOS                                   :COUNTY
STAT .        BRASIL                                   :STATE
CTRY .        BRASIL                                   :COUNTRY
API  .                                                 :API NUMBER
UWI  .                                                 :UNIQUE WELL ID
DATE .        15/11/2004                               :LOG DATE
SRVC .        Schlumberger                             :SERVICE COMPANY
LATI .DEG                                              :LATITUDE
LONG .DEG                                              :LONGITUDE
GDAT .                                                 :GeoDetic Datum
#-----------------------------------------------------------------------------
~PARAMETER INFORMATION
#MNEM.UNIT    VALUE                      DESCRIPTION
#---- -----   --------------------       ------------------------
APD  .M               24                 :
BHT  .DEGF           260                 :
BLI  .M             5289                 :
BS   .IN         8.50000                 :
CN   .        PETROBRAS S.A.             :
COUN .        SANTOS                     :
CS   .IN         9.62500                 :
DATE .        15/11/2004                 :
DFD  .LB/G      12.30000                 :
DFL  .C3               2                 :
DFPH .        N/A                        :
DFT  .        SINTETICO                  :
DFV  .S               95                 :
DMF  .        MESA ROTATIVA              :
EDF  .M               24                 :
EGL  .M             -500                 :
EKB  .        N/A                        :
ENGI .        HERNANDEZ / LOCK           :
FL1  .        X   7292392.00 M LAT 24 28 47.189 S :
FL2  .        Y    584087.00 M LON 44 10 12.698 W :
FL3  .        MC  45 GRAUS               :
FN   .        BS-400                     :
LMF  .        MESA ROTATIVA              :
LUL  .        MACAE                      :
MCSS .        PRENSA                     :
MCST .DEGF            80                 :
MFSS .        PRENSA                     :
MFST .DEGF            80                 :
MSS  .        LINHA DE FLUXO             :
MST  .DEGF            80                 :
PDAT .        NIVEL DO MAR               :
R1   .        01. APRESENTAÇÃO DE ACORDO COM REQUERIMENTO DO CLIENTE :
R2   .        02. TEMPERATURA MÁXIMA DO POÇO T1=T2= 290 DEGF @  5275 M :
R3   .        03. INICIO DA CIRCULAÇÃO  12/11/2004 09 00 H :
R4   .        04. FINAL DA CIRCULAÇÃO   12/11/2004 18 00 H :
R5   .        05. TEMPO TOTAL DE CIRCULAÇÃO   09 00 H :
R6   .        06. FLUIDO DE PERFURAÇÃO  SINTETICO (BR-MUL  BR-MI)  60% TEOR DO OLEO :
R7   .        07. SALINIDADE DA LAMA  254762 PPM NACL NA FASE DE AGUA :
R8   .        08. INCLINAÇÃO MÁXIMA DO POÇO  37.37 GRAUS @ 5100 M :
R9   .        09. PRIMEIRAS E ULTIMAS LEITURAS  :
RMB  .OHMM    > 10                       :
RMCS .OHMM    > 10                       :
RMFS .OHMM    > 10                       :
RMS  .OHMM    >10                        :
RUN  .                 2                 :
STAT .        BRASIL                     :
TCS  .        18 00 H                    :
TDD  .M             5288                 :
TDL  .M             5293                 :
TLAB .        N/A                        :
TLI  .M             5000                 :
WITN .        ERNANI / ZE MARIA          :
WN   .        3-BRSA-293D-SPS            :
LUN  .              8808                 :
HIDE .        3-SPS-41D                  :
HID2 .        HIGH DEFINITION INDUCTION LOG :
HID3 .        X-MULTIPOLE ARRAY ACOUSTILOG :
HID4 .        GAMMA RAY LOG              :
HID5 .        TTRM SUB                   :
CLAB .        BACIA                      :
SLAB .        PAIS                       :
CMT1 .        ESC  1 200                 :
CMT2 .        PROF. MEDIDA               :
CMT4 .        SONDA  SS-43               :
HDAT .        SAD 69                     :
FL   .        BASE SAD 69                :
OS1  .        RCI/GR                     :
OS2  .        CHECK SHOT                 :
OS3  .        GR/CN/ZDL                  :
OS5  .        RCOR/GR                    :
LNAM .        ZDL/CN/XMAC/HDIL/EARTH IMAGER/RCI/RCOR/CHECK SHOT/GR :
TOOL .        ZDL/CN/XMAC/HDIL/EARTH IMAGER/RCI/RCOR/CHECK SHOT/GR :
LSOU .        PETROBRAS                  :
LSRV .        OH WIRELINE                :
LTYP .        RAW                        :
EPD  .M                0                 :
LDAT .        15/11/2004                 :
TRIP .                 3                 :
SON  .            786588                 :
CBDR .M             4277                 :
CBLO .        NR                         :
CBL1 .        NR                         :
STEM .DEGF    N/A                        :
BSAL .            254762                 :
BARI .        OFF                        :
DLAB .        12/11/2004                 :
MRT  .DEGF           290                 :
TSTR .        HDIL/XMAC/GR/TTRM          :
TSTG .        N/A                        :
STUS .        FINAL                      :
LCNM .        BAKER ATLAS                :
LCC  .               150                 :
NATI .        BRASIL                     :
OPMD .        OH.WIRELINE                :
PANA .        HERNANDEZ / LOCK           :
PCON .        BAKER ATLAS                :
R11  .        SL     5268.3 M / 5000.0 M :
R12  .        GR     5268.3 M / 5000.0 M :
R13  .        XMAC   5279.5 M / 5000.0 M :
R14  .        HDIL   5289.0 M / 5000.0 M :
R17  .        11. DECLINAÇÃO MAGNETICA  -20.9 GRAUS :
R18  .        12. COORDENADAS BASE       :
R21  .        Y    583936.00 M           :
R22  .        MC  45 GRAUS               :
PVER .           4.10000                 :
WDFN .        /space/expusr/3-SPS-41D_RUN2/i77bf01_4spf.xtf :
OCT  .        i77bf                      :
OS4  .        EARTH IMAGER               :
R16  .        10. PONTO FRACO UTILIZADO  10K :
R20  .        X   7292512.00 M           :
R24  .        13. CADASTRO ANP  86316021017 :
#-----------------------------------------------------------------------------
~CURVE INFORMATION
#MNEM.UNIT   API CODE                                  DESCRIPTION
#---- -----  --------                                  -----------------------
DEPT .M                                                :DEPTH (BOREHOLE) {F10.4}
DEPT .M                                                : {F13.4}
BIT  .IN                                               : {F13.4}
GR   .GAPI                                             : {F13.4}
M2R1 .OHMM                                             : {F13.4}
M2R2 .OHMM                                             : {F13.4}
M2R3 .OHMM                                             : {F13.4}
M2R6 .OHMM                                             : {F13.4}
M2R9 .OHMM                                             : {F13.4}
M2RX .OHMM                                             : {F13.4}
SPD  .M/MN                                             : {F13.4}
TEN  .LBF                                              : {F13.4}
TTEN .LBF                                              : {F13.4}
#-----------------------------------------------------------------------------
# 
#     DEPT        DEPT         BIT          GR           M2R1         M2R2         M2R3         M2R6         M2R9         M2RX         SPD          TEN          TTEN
#
~A  
# ...
 5250.7896    5250.7896       8.5000      90.2170       3.4595       4.8066       5.6091       6.0873       6.1728       6.2272       4.6511    -207.0109    7657.0443
 5250.6372    5250.6372       8.5000      81.4019       3.4700       4.7452       5.5013       5.9566       6.0344       6.0952       4.6455    -224.8441    7634.9903
 5250.4848    5250.4848       8.5000      78.8768       3.5166       4.7336       5.4654       5.9127       5.9876       6.0573       4.6324    -194.9979    7660.9375
 5250.3324    5250.3324       8.5000      80.7533       3.6354       4.8255       5.5592       6.0238       6.1037       6.1866       4.6240    -130.8625    7722.2053
 5250.1800    5250.1800       8.5000      84.6113       3.7908       4.9758       5.7281       6.2309       6.3259       6.4268       4.6269     -68.9898    7782.3630
 5250.0276    5250.0276       8.5000      90.6207       3.9189       5.1003       5.8726       6.4232       6.5435       6.6670       4.6332     -21.0283    7829.5944
 5249.8752    5249.8752       8.5000      95.9057       3.9875       5.1538       5.9367       6.5355       6.6904       6.8402       4.6355       2.2957    7852.8984
 5249.7228    5249.7228       8.5000      95.8945       4.0035       5.1393       5.9217       6.5656       6.7623       6.9418       4.6371     -28.7495    7821.7110
 5249.5704    5249.5704       8.5000      91.8438       3.9904       5.0858       5.8618       6.5473       6.7905       7.0037       4.6397     -84.8911    7764.4322
 5249.4180    5249.4180       8.5000      90.1063       3.9652       5.0213       5.7923       6.5185       6.8106       7.0620       4.6412     -90.8507    7756.6934
 5249.2656    5249.2656       8.5000      92.1801       3.9459       4.9763       5.7509       6.5203       6.8622       7.1574       4.6395     -50.0251    7796.1797
 5249.1132    5249.1132       8.5000      91.4396       3.9444       4.9660       5.7557       6.5724       6.9640       7.3095       4.6346     -24.0227    7821.5231
 5248.9608    5248.9608       8.5000      81.7879       3.9562       4.9781       5.7888       6.6530       7.0911       7.4917       4.6320     -41.5090    7803.4197
 5248.8084    5248.8084       8.5000      66.9710       3.9671       4.9879       5.8164       6.7202       7.1970       7.6536       4.6318     -80.7368    7762.9854
 5248.6560    5248.6560       8.5000      55.6734       3.9724       4.9894       5.8250       6.7545       7.2592       7.7685       4.6360    -100.1949    7741.7464
 5248.5036    5248.5036       8.5000      51.5607       3.9746       4.9878       5.8166       6.7555       7.2762       7.8317       4.6431     -82.9325    7757.2024
 5248.3512    5248.3512       8.5000      54.1578       3.9699       4.9764       5.7830       6.7128       7.2367       7.8275       4.6466     -48.2993    7790.5612
 5248.1988    5248.1988       8.5000      66.4102       3.9518       4.9408       5.7117       6.6135       7.1273       7.7388       4.6405     -22.8915    7815.2564
 5248.0464    5248.0464       8.5000      88.1897       3.9143       4.8738       5.6035       6.4628       6.9546       7.5705       4.6320      -6.5345    7831.2887
 5247.8940    5247.8940       8.5000     109.5564       3.8958       4.8401       5.5424       6.3620       6.8290       7.4422       4.6274      -6.0276    7831.6585
 5247.7416    5247.7416       8.5000     119.4194       3.9966       4.9832       5.6968       6.5070       6.9608       7.5837       4.6233     -37.0864    7800.2258
 5247.5892    5247.5892       8.5000     117.0469       4.1760       5.2508       6.0058       6.8283       7.2741       7.9120       4.6187     -92.5525    7743.5188
 5247.4368    5247.4368       8.5000     107.8462       4.1984       5.3137       6.0855       6.8913       7.3067       7.9252       4.6216    -130.8074    7702.9991
 5247.2844    5247.2844       8.5000      97.7661       4.1361       5.2301       5.9943       6.7660       7.1378       7.7127       4.6337    -118.1033    7713.1983
 5247.1320    5247.1320       8.5000      91.8908       4.1811       5.2478       6.0152       6.7711       7.1075       7.6454       4.6436     -69.9038    7759.6378
 5246.9796    5246.9796       8.5000      90.3044       4.2794       5.3250       6.1047       6.8556       7.1621       7.6654       4.6442     -37.7747    7790.8630
 5246.8272    5246.8271       8.5000      90.0667       4.3849       5.4303       6.2313       6.9821       7.2630       7.7318       4.6387     -48.3778    7779.4795
 5246.6748    5246.6748       8.5000      89.6982       4.4714       5.5418       6.3695       7.1204       7.3792       7.8117       4.6311     -69.1994    7757.5273
 5246.5224    5246.5224       8.5000      88.2422       4.4925       5.5989       6.4462       7.1877       7.4251       7.8155       4.6239     -67.6724    7757.7775
 5246.3700    5246.3700       8.5000      84.9543       4.4734       5.6260       6.4853       7.2102       7.4273       7.7727       4.6198     -46.9813    7777.4329
 5246.2176    5246.2176       8.5000      82.6370       4.4118       5.6096       6.4700       7.1685       7.3655       7.6631       4.6225     -35.9776    7787.6940
 5246.0652    5246.0652       8.5000      83.6247       4.2736       5.4868       6.3265       6.9812       7.1555       7.4013       4.6295     -54.4145    7768.3415
 5245.9128    5245.9128       8.5000      86.0066       4.1270       5.3307       6.1392       6.7423       6.8942       7.0902       4.6333     -75.5911    7745.7605
 5245.7604    5245.7604       8.5000      87.0409       4.0689       5.2739       6.0612       6.6204       6.7543       6.9085       4.6343     -62.3059    7757.5932
 5245.6080    5245.6080       8.5000      86.3911       4.0972       5.3307       6.1118       6.6363       6.7564       6.8757       4.6365     -18.5764    7800.5135
 5245.4556    5245.4556       8.5000      85.7631       4.1089       5.3785       6.1537       6.6426       6.7512       6.8394       4.6330      21.4159    7840.5444
 5245.3032    5245.3032       8.5000      87.5687       4.0081       5.2868       6.0421       6.4883       6.5859       6.6468       4.6230      45.3356    7865.1045
 5245.1508    5245.1508       8.5000      92.8053       3.8301       5.0854       5.8073       6.2161       6.3048       6.3445       4.6153      70.2276    7891.0820
 5244.9984    5244.9984       8.5000      95.4255       3.6871       4.9128       5.6176       5.9982       6.0825       6.1087       4.6140     118.3861    7940.9968
 5244.8460    5244.8460       8.5000      93.4086       3.6593       4.8787       5.5918       5.9654       6.0506       6.0703       4.6217     182.5261    8007.9587
 5244.6936    5244.6936       8.5000      95.6515       3.7659       5.0217       5.7753       6.1648       6.2564       6.2756       4.6357     215.3341    8044.5242
 5244.5412    5244.5412       8.5000     106.4328       3.9454       5.2744       6.0912       6.5122       6.6140       6.6380       4.6415     156.1953    7988.7906
 5244.3888    5244.3888       8.5000     116.6794       4.1102       5.5251       6.4092       6.8661       6.9797       7.0131       4.6353      20.4306    7854.3623
 5244.2364    5244.2364       8.5000     120.1150       4.2106       5.6966       6.6325       7.1189       7.2429       7.2891       4.6326     -82.3313    7750.6351
 5244.0840    5244.0840       8.5000     119.8109       4.1855       5.6876       6.6374       7.1348       7.2652       7.3245       4.6374     -79.8906    7751.4072
 5243.9316    5243.9316       8.5000     119.3396       4.0429       5.4983       6.4198       6.9075       7.0390       7.1097       4.6387     -25.7722    7804.6943
 5243.7792    5243.7792       8.5000     117.3932       3.9053       5.2993       6.1822       6.6562       6.7878       6.8681       4.6359     -17.8495    7812.4746
 5243.6268    5243.6268       8.5000     109.0296       3.8462       5.1987       6.0566       6.5248       6.6580       6.7474       4.6320     -71.3771    7758.1940
