~VERSION INFORMATION
VERS.           2.0   :CWLS Log ASCII Standard - VERSION 2.0
WRAP.           YES   :Multiple lines per depth step
PROD.  Schlumberger   :LAS Producer
PROG.  DLIS to ASCII 2.3                               :LAS Program name and version
CREA.        2023/07/14 00:15                          :LAS Creation date {YYYY/MM/DD hh:mm}
DLIS_CREA.  2023-Jul-14 00:11                          :DLIS Creation date and time {YYYY-MMM-DD hh:mm}
SOURCE.     LIS_007.dlis                               :DLIS File Name
FILE-ID.     LIS   .003                                :File Identification Number
#--------------------------------------------------
~WELL INFORMATION
#MNEM.UNIT      DATA             DESCRIPTION
#---- ------ --------------   -----------------------------
STRT .M      5238.7500       :START DEPTH     
STOP .M      4241.4444       :STOP DEPTH     
STEP .M        -0.1524       :STEP     
NULL .          -999.25      :NULL VALUE
COMP .        PETROBRAS S.A.                           :COMPANY
WELL .        3-BRSA-293D-SPS                          :WELL
FLD  .        BS-400                                   :FIELD
LOC  .        BASE SAD 69:                             :LOCATION
CNTY .        SANTOS                                   :COUNTY
STAT .        BRASIL                                   :STATE
CTRY .        SANTOS                                   :COUNTRY
API  .                                                 :API NUMBER
UWI  .                                                 :UNIQUE WELL ID
DATE .        23/10/2004                               :LOG DATE
SRVC .        Schlumberger                             :SERVICE COMPANY
LATI .DEG                                              :LATITUDE
LONG .DEG                                              :LONGITUDE
GDAT .                                                 :GeoDetic Datum
#-----------------------------------------------------------------------------
~PARAMETER INFORMATION
#MNEM.UNIT    VALUE                      DESCRIPTION
#---- -----   --------------------       ------------------------
APD  .M               24                 :
BHT  .DEGF           280                 :
BLI  .M             5230                 :
BS   .IN         8.50000                 :
CN   .        PETROBRAS S.A.             :
COUN .        SANTOS                     :
CS   .IN         9.62500                 :
DATE .        23/10/2004                 :
DFD  .LB/G      12.30000                 :
DFL  .C3               2                 :
DFPH .        N/A                        :
DFT  .        SINTETICO                  :
DFV  .S               87                 :
DMF  .        MESA ROTATIVA              :
EDF  .M               24                 :
EGL  .M             -500                 :
EKB  .        N/A                        :
ENGI .        HERNANDEZ/LOCK             :
FL1  .        X   7292392.00 M LAT 24 28 47.189 S :
FL2  .        Y    584087.00 M LON 44 10 12.698 W :
FL3  .        MC  45 GRAUS               :
FN   .        BS-400                     :
LMF  .        MESA ROTATIVA              :
LUL  .        MACAE                      :
MCSS .        PRENSA                     :
MCST .DEGF            80                 :
MFSS .        PRENSA                     :
MFST .DEGF            80                 :
MSS  .        LINHA DE FLUXO             :
MST  .DEGF            80                 :
PDAT .        NIVEL DO MAR               :
R1   .        01. APRESENTAÇÃO DE ACORDO COM REQUERIMENTO DO CLIENTE :
R2   .        02. TEMPERATURA MÁXIMA DO POÇO T1=T2= 260 DEGF @  5180 M :
R3   .        03. INICIO DA CIRCULAÇÃO  13 45 H 21/10/2004 :
R4   .        04. FINAL DA CIRCULAÇÃO   16 00 H 21/10/2004 :
R5   .        05. TEMPO TOTAL DE CIRCULAÇÃO  02 15 H :
R6   .        06. FLUIDO DE PERFURAÇÃO  SINTETICO (BR-MUL  BR-MI)  65% TEOR DO OLEO :
R7   .        07. SALINIDADE DA LAMA  266377 PPM NACL NA FASE DE AGUA :
R8   .        08. INCLINAÇÃO MÁXIMA DO POÇO  37.37 GRAUS @ 5100 M :
R9   .        09. PRIMEIRAS E ULTIMAS LEITURAS  :
RMB  .OHMM    > 10                       :
RMCS .OHMM    > 10                       :
RMFS .OHMM    > 10                       :
RMS  .OHMM    > 10                       :
RUN  .                 1                 :
STAT .        BRASIL                     :
TCS  .        16 00 H                    :
TDD  .M             5230                 :
TDL  .M             5231                 :
TLAB .        N/A                        :
TLI  .M             4277                 :
WITN .        ALCIDIO/VLADIMIR           :
WN   .        3-BRSA-293D-SPS            :
LUN  .              8808                 :
HIDE .        3-SPS-41D                  :
HID2 .        COMPENSATED Z-DENSILOG     :
HID3 .        COMPENSATED NEUTRON LOG    :
HID4 .        GAMMA RAY LOG              :
HID5 .        TTRM SUB                   :
CLAB .        BACIA                      :
SLAB .        PAIS                       :
CMT1 .        ESC  1 1000                :
CMT2 .        PROF. MEDIDA               :
CMT4 .        SONDA  SS-43               :
HDAT .        SAD 69                     :
FL   .        BASE SAD 69                :
OS1  .        HDIL/XMAC/SL/GR            :
OS3  .        MREX/GR                    :
OS5  .        SL/GR                      :
LNAM .        MREX/ZDL/CN/XMAC/HDIL/3DEX/RCI/SL/GR :
TOOL .        MREX/ZDL/CN/XMAC/HDIL/3DEX/RCI/SL/GR :
LSOU .        PETROBRAS                  :
LSRV .        OH WIRELINE                :
LTYP .        RAW                        :
EPD  .M                0                 :
LDAT .        23/10/2004                 :
TRIP .                 1                 :
SON  .            772317                 :
CBDR .M             4277                 :
CBLO .M             4277                 :
CBL1 .M             4277                 :
STEM .DEGF    N/A                        :
BSAL .            266377                 :
BARI .        OFF                        :
DLAB .        21/10/2004                 :
MRT  .DEGF           280                 :
TSTR .        ZDL/CN/GR/TTRM             :
TSTG .        N/A                        :
STUS .        FINAL                      :
LCNM .        BAKER ATLAS                :
LCC  .               150                 :
NATI .        SANTOS                     :
OPMD .        OH.WIRELINE                :
PANA .        HERNANDEZ/LOCK             :
PCON .        BAKER ATLAS                :
R11  .        GR     5222.5 M/4277.0 M   :
R12  .        ZDL    5230.0 M/4277.0 M   :
R13  .        CN     5224.0 M/4277.0 M   :
R15  .        10. PONTO FRACO UTILIZADO  10K :
R17  .        12. DECLINAÇÃO MAGNETICA  -20.9 GRAUS :
R18  .        13. COORDENADAS BASE       :
R21  .        Y    583936.00 M           :
R22  .        MC  45 GRAUS               :
PVER .           4.10000                 :
WDFN .        /space/expusr/3-SPS-41D/i77bf07_4spf.xtf :
OCT  .        i77bf                      :
0S2  .        3DEX/GR                    :
OS4  .        RCI/GR                     :
R16  .        11. CNC CORREGIDO PELO CALIPER E SALINIDADE  PRESENTADO MATRIZ CARBONATO :
R20  .        X   7292512.00 M           :
R24  .        14. CADASTRO ANP  86316021017 :
#-----------------------------------------------------------------------------
~CURVE INFORMATION
#MNEM.UNIT   API CODE                                  DESCRIPTION
#---- -----  --------                                  -----------------------
DEPT .M                                                :DEPTH (BOREHOLE) {F10.4}
DEPT .M                                                : {F13.4}
BIT  .IN                                               : {F13.4}
DEPM .M                                                : {F13.4}
GR   .GAPI                                             : {F13.4}
SPD  .M/MN                                             : {F13.4}
TEN  .LBF                                              : {F13.4}
TTEN .LBF                                              : {F13.4}
CAL  .IN                                               : {F13.4}
CALX .IN                                               : {F13.4}
HRD1 .HZ                                               : {F13.4}
HRD2 .HZ                                               : {F13.4}
PE   .B/E                                              : {F13.4}
SFT2 .HZ                                               : {F13.4}
SOFT .HZ                                               : {F13.4}
SSD  .HZ                                               : {F13.4}
ZCOR .G/C3                                             : {F13.4}
ZDEN .G/C3                                             : {F13.4}
CNC  .PU                                               : {F13.4}
CN   .PU                                               : {F13.4}
LSN  .HZ                                               : {F13.4}
SSN  .HZ                                               : {F13.4}
CNCF .PU                                               : {F13.4}
#-----------------------------------------------------------------------------
# DEPT       
#     DEPT         BIT          DEPM         GR           SPD          TEN          
#     TTEN         CAL          CALX         HRD1         HRD2         PE           
#     SFT2         SOFT         SSD          ZCOR         ZDEN         CNC          
#     CN           LSN          SSN          CNCF         
~A  
# ...
4389.5772
   4389.5771       8.5000    4389.0439      66.0908       6.4541     -31.5880
   5494.4629       8.6267       8.6267     714.6766     935.8887       4.5009
    587.9541     439.7522    6527.1250      -0.0300       2.5221      16.5675
     16.8116    1336.2375    3083.3613      16.5675
4389.4248
   4389.4248       8.5000    4388.8916      68.7713       6.4628      -1.3662
   5524.4404       8.6261       8.6261     715.0818     934.4750       4.5099
    591.5953     443.6750    6491.5820      -0.0347       2.5222      17.3294
     17.5779    1279.8188    3023.2944      17.3294
4389.2724
   4389.2724       8.5000    4388.7382      70.7188       6.4826      32.8024
   5558.8487       8.6270       8.6270     720.9908     927.0621       4.5240
    591.9636     439.8225    6462.9018      -0.0385       2.5231      17.7531
     18.0049    1250.6243    2992.0668      17.7531
4389.1200
   4389.1200       8.5000    4388.5858      70.4748       6.5064      48.6845
   5575.3131       8.6279       8.6279     731.4763     920.8222       4.5271
    593.2435     434.8407    6471.3307      -0.0380       2.5225      17.2163
     17.4654    1271.4861    2993.4408      17.2163
4388.9676
   4388.9676       8.5000    4388.4334      67.7479       6.5051      45.9093
   5573.1801       8.6276       8.6276     745.2566     919.8073       4.5290
    598.3195     427.7959    6511.2656      -0.0345       2.5192      16.3835
     16.6269    1312.1118    3010.2138      16.3835
4388.8152
   4388.8152       8.5000    4388.2810      64.4379       6.4793      38.2019
   5566.0620       8.6268       8.6268     747.2441     931.3652       4.5378
    599.6056     427.3582    6539.2025      -0.0329       2.5156      15.9814
     16.2214    1334.4515    3022.2220      15.9814
4388.6628
   4388.6628       8.5000    4388.1296      63.3661       6.4608      30.7524
   5559.1297       8.6259       8.6259     729.5922     947.2184       4.5484
    593.6923     438.8105    6517.2692      -0.0356       2.5154      15.9263
     16.1654    1335.7835    3019.7850      15.9263
4388.5104
   4388.5104       8.5000    4387.9772      64.3240       6.4610      17.9329
   5546.6639       8.6249       8.6249     712.2154     951.1230       4.5521
    588.3196     444.4609    6472.9696      -0.0396       2.5183      16.2849
     16.5257    1314.0658    3005.0782      16.2849
4388.3580
   4388.3580       8.5000    4387.8248      65.0910       6.4635       2.5441
   5531.3698       8.6241       8.6241     708.6885     937.3409       4.5611
    589.1636     438.1075    6470.1291      -0.0371       2.5223      17.1616
     17.4075    1271.6614    2988.6133      17.1616
4388.2056
   4388.2056       8.5000    4387.6724      64.2810       6.4620      -2.7413
   5526.0228       8.6243       8.6243     707.4096     924.4954       4.5670
    592.6708     438.6300    6532.0606      -0.0262       2.5246      18.0966
     18.3483    1230.6071    2973.8177      18.0966
4388.0532
   4388.0532       8.5000    4387.5200      63.0209       6.4665       7.9970
   5536.7854       8.6258       8.6258     712.9487     928.9287       4.5492
    597.6973     448.9983    6595.9884      -0.0191       2.5214      18.4955
     18.7504    1207.3108    2951.3335      18.4955
4387.9008
   4387.9008       8.5000    4387.3676      62.7721       6.4888      18.4848
   5547.4922       8.6277       8.6277     732.6412     947.9340       4.5223
    602.0688     449.7581    6600.9318      -0.0247       2.5128      18.4784
     18.7347    1194.7224    2919.2569      18.4784
4387.7484
   4387.7484       8.5000    4387.2152      63.7362       6.5158      13.1561
   5542.4164       8.6294       8.6294     747.3257     963.9396       4.5663
    600.6624     439.7683    6553.4568      -0.0361       2.5065      18.3503
     18.6072    1187.3330    2890.6856      18.3503
4387.5960
   4387.5960       8.5000    4387.0628      63.9902       6.5096       9.1071
   5538.5345       8.6302       8.6302     746.7453     957.0791       4.5940
    589.8333     438.6170    6510.6831      -0.0408       2.5076      18.0942
     18.3503    1192.9348    2882.9540      18.0942
4387.4436
   4387.4436       8.5000    4386.9104      63.3716       6.4695      24.7893
   5554.4841       8.6292       8.6292     746.7926     939.5989       4.5941
    573.5750     441.8874    6514.1019      -0.0376       2.5108      17.8007
     18.0543    1212.3103    2904.6220      17.8007
4387.2912
   4387.2912       8.5000    4386.7580      63.2120       6.4401      40.5640
   5570.7621       8.6272       8.6272     750.8526     941.4062       4.6410
    567.9963     435.0864    6547.8665      -0.0338       2.5102      17.7772
     18.0292    1230.3370    2945.6399      17.7772
4387.1388
   4387.1388       8.5000    4386.6056      63.9651       6.4421      35.3735
   5566.1026       8.6261       8.6261     747.8103     958.9529       4.7565
    581.0482     429.9803    6570.1651      -0.0331       2.5079      18.0933
     18.3462    1233.2033    2979.9212      18.0933
4386.9864
   4386.9864       8.5000    4386.4532      64.3113       6.4525      11.7331
   5542.7186       8.6265       8.6265     737.8890     965.5476       4.6772
    601.3794     442.4621    6544.5981      -0.0361       2.5094      18.4866
     18.7420    1222.5365    2987.8386      18.4866
4386.8340
   4386.8340       8.5000    4386.2998      63.5817       6.4569     -16.6752
   5514.1816       8.6273       8.6273     725.1570     949.3507       4.4006
    606.0613     454.5306    6479.9902      -0.0404       2.5159      18.5341
     18.7903    1214.1563    2971.4302      18.5341
4386.6816
   4386.6816       8.5000    4386.1475      63.4595       6.4714     -33.1739
   5497.2910       8.6271       8.6271     716.0552     920.3387       4.2109
    591.9758     451.9203    6440.9014      -0.0396       2.5239      18.3483
     18.6034    1211.5313    2949.2798      18.3483
4386.5292
   4386.5292       8.5000    4385.9950      64.9791       6.5072     -26.8321
   5503.2650       8.6263       8.6263     719.2653     901.3932       4.1627
    583.4045     448.7903    6461.3318      -0.0342       2.5270      18.3087
     18.5630    1208.0396    2937.3859      18.3087
4386.3768
   4386.3768       8.5000    4385.8426      65.6472       6.5340     -14.3962
   5515.5453       8.6264       8.6264     728.3345     910.7342       4.1957
    588.2168     452.9020    6506.8742      -0.0309       2.5237      18.4988
     18.7542    1200.8619    2935.8840      18.4988
4386.2244
   4386.2244       8.5000    4385.6902      63.4614       6.5156     -17.7115
   5512.1331       8.6280       8.6280     727.1534     929.7635       4.2830
    587.7066     451.4189    6529.4771      -0.0307       2.5210      18.5683
     18.8252    1197.5364    2933.6514      18.5683
4386.0720
   4386.0720       8.5000    4385.5388      61.2374       6.4739     -33.1701
   5496.3706       8.6308       8.6308     711.1352     927.7273       4.3901
    580.2768     438.7850    6508.5200      -0.0306       2.5257      18.4166
     18.6749    1198.1879    2922.7553      18.4166
4385.9196
   4385.9196       8.5000    4385.3864      62.1184       6.4526     -40.7509
   5488.2613       8.6332       8.6332     697.0207     902.4306       4.4090
    579.5915     427.5838    6463.1727      -0.0304       2.5343      18.4056
     18.6657    1189.7861    2901.5030      18.4056
4385.7672
   4385.7672       8.5000    4385.2340      65.0325       6.4552     -26.8060
   5501.7284       8.6339       8.6339     697.3529     889.0853       4.4348
    582.5296     426.4230    6446.7375      -0.0305       2.5374      18.5318
     18.7931    1174.6032    2874.8578      18.5318
4385.6148
   4385.6148       8.5000    4385.0816      66.4505       6.4607      -1.5395
   5526.8128       8.6327       8.6327     705.9955     901.9432       4.4666
    580.0162     430.2454    6461.5621      -0.0320       2.5338      18.2892
     18.5484    1174.9166    2855.6480      18.2892
4385.4624
   4385.4624       8.5000    4384.9292      64.2408       6.4636      13.2774
   5541.7322       8.6313       8.6313     710.6935     909.8853       4.5422
    572.1863     426.4799    6460.3484      -0.0343       2.5320      17.4535
     17.7067    1206.5036    2861.1089      17.4535
