~VERSION INFORMATION
VERS.           2.0   :CWLS Log ASCII Standard - VERSION 2.0
WRAP.           YES   :Multiple lines per depth step
PROD.  Schlumberger   :LAS Producer
PROG.  DLIS to ASCII 2.3                               :LAS Program name and version
CREA.        2023/07/14 00:15                          :LAS Creation date {YYYY/MM/DD hh:mm}
DLIS_CREA.  2023-Jul-14 00:11                          :DLIS Creation date and time {YYYY-MMM-DD hh:mm}
SOURCE.     LIS_007.dlis                               :DLIS File Name
FILE-ID.     LIS   .003                                :File Identification Number
#--------------------------------------------------
~WELL INFORMATION
#MNEM.UNIT      DATA             DESCRIPTION
#---- ------ --------------   -----------------------------
STRT .M      5238.7500       :START DEPTH     
STOP .M      4241.4444       :STOP DEPTH     
STEP .M        -0.1524       :STEP     
NULL .          -999.25      :NULL VALUE
COMP .        PETROBRAS S.A.                           :COMPANY
WELL .        3-BRSA-293D-SPS                          :WELL
FLD  .        BS-400                                   :FIELD
LOC  .        BASE SAD 69:                             :LOCATION
CNTY .        SANTOS                                   :COUNTY
STAT .        BRASIL                                   :STATE
CTRY .        SANTOS                                   :COUNTRY
API  .                                                 :API NUMBER
UWI  .                                                 :UNIQUE WELL ID
DATE .        23/10/2004                               :LOG DATE
SRVC .        Schlumberger                             :SERVICE COMPANY
LATI .DEG                                              :LATITUDE
LONG .DEG                                              :LONGITUDE
GDAT .                                                 :GeoDetic Datum
#-----------------------------------------------------------------------------
~PARAMETER INFORMATION
#MNEM.UNIT    VALUE                      DESCRIPTION
#---- -----   --------------------       ------------------------
APD  .M               24                 :
BHT  .DEGF           280                 :
BLI  .M             5230                 :
BS   .IN         8.50000                 :
CN   .        PETROBRAS S.A.             :
COUN .        SANTOS                     :
CS   .IN         9.62500                 :
DATE .        23/10/2004                 :
DFD  .LB/G      12.30000                 :
DFL  .C3               2                 :
DFPH .        N/A                        :
DFT  .        SINTETICO                  :
DFV  .S               87                 :
DMF  .        MESA ROTATIVA              :
EDF  .M               24                 :
EGL  .M             -500                 :
EKB  .        N/A                        :
ENGI .        HERNANDEZ/LOCK             :
FL1  .        X   7292392.00 M LAT 24 28 47.189 S :
FL2  .        Y    584087.00 M LON 44 10 12.698 W :
FL3  .        MC  45 GRAUS               :
FN   .        BS-400                     :
LMF  .        MESA ROTATIVA              :
LUL  .        MACAE                      :
MCSS .        PRENSA                     :
MCST .DEGF            80                 :
MFSS .        PRENSA                     :
MFST .DEGF            80                 :
MSS  .        LINHA DE FLUXO             :
MST  .DEGF            80                 :
PDAT .        NIVEL DO MAR               :
R1   .        01. APRESENTAÇÃO DE ACORDO COM REQUERIMENTO DO CLIENTE :
R2   .        02. TEMPERATURA MÁXIMA DO POÇO T1=T2= 260 DEGF @  5180 M :
R3   .        03. INICIO DA CIRCULAÇÃO  13 45 H 21/10/2004 :
R4   .        04. FINAL DA CIRCULAÇÃO   16 00 H 21/10/2004 :
R5   .        05. TEMPO TOTAL DE CIRCULAÇÃO  02 15 H :
R6   .        06. FLUIDO DE PERFURAÇÃO  SINTETICO (BR-MUL  BR-MI)  65% TEOR DO OLEO :
R7   .        07. SALINIDADE DA LAMA  266377 PPM NACL NA FASE DE AGUA :
R8   .        08. INCLINAÇÃO MÁXIMA DO POÇO  37.37 GRAUS @ 5100 M :
R9   .        09. PRIMEIRAS E ULTIMAS LEITURAS  :
RMB  .OHMM    > 10                       :
RMCS .OHMM    > 10                       :
RMFS .OHMM    > 10                       :
RMS  .OHMM    > 10                       :
RUN  .                 1                 :
STAT .        BRASIL                     :
TCS  .        16 00 H                    :
TDD  .M             5230                 :
TDL  .M             5231                 :
TLAB .        N/A                        :
TLI  .M             4277                 :
WITN .        ALCIDIO/VLADIMIR           :
WN   .        3-BRSA-293D-SPS            :
LUN  .              8808                 :
HIDE .        3-SPS-41D                  :
HID2 .        COMPENSATED Z-DENSILOG     :
HID3 .        COMPENSATED NEUTRON LOG    :
HID4 .        GAMMA RAY LOG              :
HID5 .        TTRM SUB                   :
CLAB .        BACIA                      :
SLAB .        PAIS                       :
CMT1 .        ESC  1 1000                :
CMT2 .        PROF. MEDIDA               :
CMT4 .        SONDA  SS-43               :
HDAT .        SAD 69                     :
FL   .        BASE SAD 69                :
OS1  .        HDIL/XMAC/SL/GR            :
OS3  .        MREX/GR                    :
OS5  .        SL/GR                      :
LNAM .        MREX/ZDL/CN/XMAC/HDIL/3DEX/RCI/SL/GR :
TOOL .        MREX/ZDL/CN/XMAC/HDIL/3DEX/RCI/SL/GR :
LSOU .        PETROBRAS                  :
LSRV .        OH WIRELINE                :
LTYP .        RAW                        :
EPD  .M                0                 :
LDAT .        23/10/2004                 :
TRIP .                 1                 :
SON  .            772317                 :
CBDR .M             4277                 :
CBLO .M             4277                 :
CBL1 .M             4277                 :
STEM .DEGF    N/A                        :
BSAL .            266377                 :
BARI .        OFF                        :
DLAB .        21/10/2004                 :
MRT  .DEGF           280                 :
TSTR .        ZDL/CN/GR/TTRM             :
TSTG .        N/A                        :
STUS .        FINAL                      :
LCNM .        BAKER ATLAS                :
LCC  .               150                 :
NATI .        SANTOS                     :
OPMD .        OH.WIRELINE                :
PANA .        HERNANDEZ/LOCK             :
PCON .        BAKER ATLAS                :
R11  .        GR     5222.5 M/4277.0 M   :
R12  .        ZDL    5230.0 M/4277.0 M   :
R13  .        CN     5224.0 M/4277.0 M   :
R15  .        10. PONTO FRACO UTILIZADO  10K :
R17  .        12. DECLINAÇÃO MAGNETICA  -20.9 GRAUS :
R18  .        13. COORDENADAS BASE       :
R21  .        Y    583936.00 M           :
R22  .        MC  45 GRAUS               :
PVER .           4.10000                 :
WDFN .        /space/expusr/3-SPS-41D/i77bf07_4spf.xtf :
OCT  .        i77bf                      :
0S2  .        3DEX/GR                    :
OS4  .        RCI/GR                     :
R16  .        11. CNC CORREGIDO PELO CALIPER E SALINIDADE  PRESENTADO MATRIZ CARBONATO :
R20  .        X   7292512.00 M           :
R24  .        14. CADASTRO ANP  86316021017 :
#-----------------------------------------------------------------------------
~CURVE INFORMATION
#MNEM.UNIT   API CODE                                  DESCRIPTION
#---- -----  --------                                  -----------------------
DEPT .M                                                :DEPTH (BOREHOLE) {F10.4}
DEPT .M                                                : {F13.4}
BIT  .IN                                               : {F13.4}
DEPM .M                                                : {F13.4}
GR   .GAPI                                             : {F13.4}
SPD  .M/MN                                             : {F13.4}
TEN  .LBF                                              : {F13.4}
TTEN .LBF                                              : {F13.4}
CAL  .IN                                               : {F13.4}
CALX .IN                                               : {F13.4}
HRD1 .HZ                                               : {F13.4}
HRD2 .HZ                                               : {F13.4}
PE   .B/E                                              : {F13.4}
SFT2 .HZ                                               : {F13.4}
SOFT .HZ                                               : {F13.4}
SSD  .HZ                                               : {F13.4}
ZCOR .G/C3                                             : {F13.4}
ZDEN .G/C3                                             : {F13.4}
CNC  .PU                                               : {F13.4}
CN   .PU                                               : {F13.4}
LSN  .HZ                                               : {F13.4}
SSN  .HZ                                               : {F13.4}
CNCF .PU                                               : {F13.4}
#-----------------------------------------------------------------------------
# DEPT       
#     DEPT         BIT          DEPM         GR           SPD          TEN          
#     TTEN         CAL          CALX         HRD1         HRD2         PE           
#     SFT2         SOFT         SSD          ZCOR         ZDEN         CNC          
#     CN           LSN          SSN          CNCF         
~A  
# ...
4585.8684
   4585.8684       8.5000    4585.3352      72.7422       6.4184     -82.2029
   5924.1337       8.6657       8.6657     666.1308     931.8624       5.5760
    550.8107     386.9691    6415.3850      -0.0368       2.5292      19.2017
     19.4917    1080.3235    2696.0343      19.2017
4585.7160
   4585.7160       8.5000    4585.1828      73.2516       6.4178     -40.0814
   5965.5506       8.6661       8.6661     659.1995     916.5361       5.4699
    549.4858     387.7144    6413.3007      -0.0333       2.5346      19.4975
     19.7895    1089.9390    2742.1392      19.4975
4585.5636
   4585.5636       8.5000    4585.0294      74.2714       6.4216     -37.1924
   5967.9892       8.6629       8.6629     658.2428     896.8205       5.5303
    535.5631     374.9505    6352.7723      -0.0383       2.5406      19.3091
     19.5974    1120.1004    2803.3838      19.3091
4585.4112
   4585.4112       8.5000    4584.8770      75.1647       6.4366     -78.5301
   5925.8339       8.6536       8.6536     654.4529     885.1642       5.6112
    515.1717     364.4526    6286.4214      -0.0450       2.5458      18.5457
     18.8224    1167.3103    2859.3716      18.5457
4585.2588
   4585.2588       8.5000    4584.7246      75.2713       6.4620    -126.3848
   5876.5498       8.6424       8.6424     640.1766     879.2217       5.6583
    500.0983     359.7473    6265.6533      -0.0445       2.5509      17.3808
     17.6416    1221.1814    2890.2954      17.3808
4585.1064
   4585.1064       8.5000    4584.5732      74.0962       6.4695    -139.0360
   5862.1631       8.6361       8.6361     631.7523     880.1681       5.7533
    495.2053     355.8535    6278.6846      -0.0413       2.5523      16.5097
     16.7600    1251.7458    2883.7471      16.5097
4584.9540
   4584.9540       8.5000    4584.4198      72.3334       6.4519    -140.1503
   5859.2899       8.6370       8.6370     639.7218     887.7877       5.8151
    498.7295     355.3533    6305.9226      -0.0401       2.5486      16.8485
     17.1019    1222.0722    2845.4029      16.8485
4584.8016
   4584.8016       8.5000    4584.2674      72.3282       6.4398    -165.8666
   5831.5835       8.6457       8.6457     651.7582     891.2680       5.6275
    512.4981     365.2578    6342.4601      -0.0377       2.5446      18.8192
     19.0913    1133.3104    2797.1258      18.8192
4584.6492
   4584.6492       8.5000    4584.1150      75.0144       6.4534    -187.8635
   5807.2346       8.6697       8.6697     657.1087     887.2016       5.2586
    525.0235     382.2242    6349.7659      -0.0368       2.5434      21.2196
     21.5224    1049.2641    2761.0221      21.2196
4584.4968
   4584.4968       8.5000    4583.9636      78.3909       6.4927    -171.8614
   5820.9279       8.7052       8.7052     660.1498     883.5802       5.0542
    524.9128     391.4876    6326.5472      -0.0400       2.5434      22.0231
     22.3594    1024.3877    2751.1391      22.0231
4584.3444
   4584.3444       8.5000    4583.8112      80.0092       6.5269    -124.4860
   5866.4974       8.7317       8.7317     659.5150     879.5204       5.1556
    516.1459     383.3032    6299.2365      -0.0431       2.5452      21.3116
     21.6673    1049.9734    2772.8217      21.3116
4584.1920
   4584.1920       8.5000    4583.6588      80.2156       6.5142     -70.3700
   5919.5058       8.7390       8.7390     648.0290     871.6742       5.3275
    507.7348     367.2392    6283.2532      -0.0420       2.5505      20.4337
     20.7902    1089.9402    2815.4194      20.4337
4584.0396
   4584.0396       8.5000    4583.5064      80.6975       6.4786     -43.9972
   5945.2369       8.7411       8.7411     638.8940     866.2471       5.3384
    504.3362     360.8482    6279.3755      -0.0400       2.5554      19.8086
     20.1625    1124.3718    2857.1328      19.8086
4583.8872
   4583.8872       8.5000    4583.3540      81.7383       6.4690     -70.9687
   5917.5162       8.7554       8.7554     642.0594     864.0565       5.3027
    510.6128     370.0104    6281.4756      -0.0398       2.5563      19.1724
     19.5328    1155.5882    2887.1069      19.1724
4583.7348
   4583.7348       8.5000    4583.2016      82.4959       6.4726    -126.1719
   5860.9618       8.7760       8.7760     649.1365     864.4754       5.2223
    522.8905     379.1692    6284.9499      -0.0407       2.5546      18.6393
     19.0109    1184.1430    2916.0349      18.6393
4583.5824
   4583.5824       8.5000    4583.0492      81.6567       6.4666    -163.7247
   5821.4518       8.7865       8.7865     646.5794     872.6382       5.3416
    531.5342     373.3600    6281.8432      -0.0421       2.5530      18.6408
     19.0205    1199.1869    2953.8796      18.6408
4583.4300
   4583.4300       8.5000    4582.8968      78.5663       6.4614    -174.6745
   5808.2589       8.7844       8.7844     638.6906     880.5672       5.5403
    534.2154     363.2165    6272.2069      -0.0435       2.5525      19.0804
     19.4626    1196.0446    2982.4469      19.0804
4583.2776
   4583.2776       8.5000    4582.7444      75.5213       6.4597    -178.5350
   5802.0628       8.7819       8.7819     637.7580     879.6806       5.4617
    528.5678     366.5783    6274.8330      -0.0428       2.5525      19.1443
     19.5251    1191.4943    2976.1934      19.1443
4583.1252
   4583.1252       8.5000    4582.5920      74.4599       6.4525    -182.1092
   5796.1158       8.7821       8.7821     651.4960     864.3357       5.0926
    526.0655     378.9326    6325.2033      -0.0353       2.5529      18.7393
     19.1165    1193.9233    2948.8156      18.7393
4582.9728
   4582.9728       8.5000    4582.4396      74.5168       6.4423    -179.3407
   5796.5206       8.7806       8.7806     664.1528     844.3407       4.7776
    534.2099     386.9426    6392.7760      -0.0244       2.5541      18.4215
     18.7946    1203.3418    2945.3177      18.4215
4582.8204
   4582.8204       8.5000    4582.2872      75.0399       6.4427    -177.4229
   5796.0774       8.7773       8.7773     666.3927     843.4801       4.7634
    543.0901     387.1002    6402.8015      -0.0233       2.5533      18.3019
     18.6713    1223.9006    2985.1692      18.3019
4582.6680
   4582.6680       8.5000    4582.1348      76.1590       6.4821    -174.2135
   5796.9326       8.7744       8.7744     663.0010     868.8629       4.9797
    545.3716     384.1711    6355.4102      -0.0339       2.5481      18.2842
     18.6512    1248.4590    3043.3291      18.2842
4582.5156
   4582.5156       8.5000    4581.9814      76.7403       6.5280    -144.5570
   5824.5410       8.7734       8.7734     660.2227     892.3495       5.0694
    550.4275     384.8691    6319.8555      -0.0425       2.5433      18.2268
     18.5926    1270.6001    3092.1167      18.2268
4582.3632
   4582.3632       8.5000    4581.8290      76.0409       6.5004     -92.9384
   5874.7528       8.7737       8.7737     656.0670     893.4446       5.0484
    549.6146     392.3191    6311.5065      -0.0432       2.5430      17.6677
     18.0282    1307.9293    3131.3157      17.6677
4582.2108
   4582.2108       8.5000    4581.6766      74.5597       6.4349     -66.0877
   5900.6820       8.7739       8.7739     659.4900     890.6804       5.0492
    539.8222     399.9215    6315.1129      -0.0428       2.5424      16.9581
     17.3113    1351.4166    3166.7861      16.9581
4582.0584
   4582.0584       8.5000    4581.5242      74.2052       6.4642     -91.5928
   5874.1718       8.7734       8.7734     668.1174     901.9277       5.0314
    540.4527     399.0497    6323.6123      -0.0450       2.5382      16.7645
     17.1152    1367.7694    3185.9457      16.7645
4581.9060
   4581.9060       8.5000    4581.3728      75.1826       6.5446    -136.8406
   5827.4203       8.7730       8.7730     668.1861     914.4287       5.0103
    549.6835     393.5991    6345.5117      -0.0440       2.5353      16.7600
     17.1104    1362.3944    3172.9535      16.7600
4581.7536
   4581.7536       8.5000    4581.2204      75.1871       6.5478    -151.2326
   5811.1250       8.7736       8.7736     662.8637     906.6480       5.0025
    546.6188     391.7173    6361.4123      -0.0396       2.5370      16.5604
     16.9090    1354.7606    3135.6022      16.5604
