~VERSION INFORMATION
VERS.           2.0   :CWLS Log ASCII Standard - VERSION 2.0
WRAP.           NO    :One Line per depth step
PROD.  Schlumberger   :LAS Producer
PROG.  DLIS to ASCII 2.3                               :LAS Program name and version
CREA.        2023/07/14 00:15                          :LAS Creation date {YYYY/MM/DD hh:mm}
DLIS_CREA.  2023-Jul-14 00:11                          :DLIS Creation date and time {YYYY-MMM-DD hh:mm}
SOURCE.     LIS_005.dlis                               :DLIS File Name
FILE-ID.     LIS   .001                                :File Identification Number
#--------------------------------------------------
~WELL INFORMATION
#MNEM.UNIT      DATA             DESCRIPTION
#---- ------ --------------   -----------------------------
STRT .M      5238.7500       :START DEPTH     
STOP .M      5087.2644       :STOP DEPTH     
STEP .M        -0.1524       :STEP     
NULL .          -999.25      :NULL VALUE
COMP .        PETROBRAS S.A.                           :COMPANY
WELL .        3-BRSA-293D-SPS                          :WELL
FLD  .        BS-400                                   :FIELD
LOC  .        BASE SAD 69:                             :LOCATION
CNTY .        SANTOS                                   :COUNTY
STAT .        BRASIL                                   :STATE
CTRY .        SANTOS                                   :COUNTRY
API  .                                                 :API NUMBER
UWI  .                                                 :UNIQUE WELL ID
DATE .        23/10/2004                               :LOG DATE
SRVC .        Schlumberger                             :SERVICE COMPANY
LATI .DEG                                              :LATITUDE
LONG .DEG                                              :LONGITUDE
GDAT .                                                 :GeoDetic Datum
#-----------------------------------------------------------------------------
~PARAMETER INFORMATION
#MNEM.UNIT    VALUE                      DESCRIPTION
#---- -----   --------------------       ------------------------
APD  .M               24                 :
BHT  .DEGF           280                 :
BLI  .M             5230                 :
BS   .IN         8.50000                 :
CN   .        PETROBRAS S.A.             :
COUN .        SANTOS                     :
CS   .IN         9.62500                 :
DATE .        23/10/2004                 :
DFD  .LB/G      12.30000                 :
DFL  .C3               2                 :
DFPH .        N/A                        :
DFT  .        SINTETICO                  :
DFV  .S               87                 :
DMF  .        MESA ROTATIVA              :
EDF  .M               24                 :
EGL  .M             -500                 :
EKB  .        N/A                        :
ENGI .        HERNANDEZ/LOCK             :
FL1  .        X   7292392.00 M LAT 24 28 47.189 S :
FL2  .        Y    584087.00 M LON 44 10 12.698 W :
FL3  .        MC  45 GRAUS               :
FN   .        BS-400                     :
LMF  .        MESA ROTATIVA              :
LUL  .        MACAE                      :
MCSS .        PRENSA                     :
MCST .DEGF            80                 :
MFSS .        PRENSA                     :
MFST .DEGF            80                 :
MSS  .        LINHA DE FLUXO             :
MST  .DEGF            80                 :
PDAT .        NIVEL DO MAR               :
R1   .        01. APRESENTAÇÃO DE ACORDO COM REQUERIMENTO DO CLIENTE :
R2   .        02. TEMPERATURA MÁXIMA DO POÇO T1=T2= 260 DEGF @  5180 M :
R3   .        03. INICIO DA CIRCULAÇÃO  13 45 H 21/10/2004 :
R4   .        04. FINAL DA CIRCULAÇÃO   16 00 H 21/10/2004 :
R5   .        05. TEMPO TOTAL DE CIRCULAÇÃO  02 15 H :
R6   .        06. FLUIDO DE PERFURAÇÃO  SINTETICO (BR-MUL  BR-MI)  65% TEOR DO OLEO :
R7   .        07. SALINIDADE DA LAMA  266377 PPM NACL NA FASE DE AGUA :
R8   .        08. INCLINAÇÃO MÁXIMA DO POÇO  37.37 GRAUS @ 5100 M :
R9   .        09. PRIMEIRAS E ULTIMAS LEITURAS  :
RMB  .OHMM    > 10                       :
RMCS .OHMM    > 10                       :
RMFS .OHMM    > 10                       :
RMS  .OHMM    > 10                       :
RUN  .                 1                 :
STAT .        BRASIL                     :
TCS  .        16 00 H                    :
TDD  .M             5230                 :
TDL  .M             5231                 :
TLAB .        N/A                        :
TLI  .M             4277                 :
WITN .        ALCIDIO/VLADIMIR           :
WN   .        3-BRSA-293D-SPS            :
LUN  .              8808                 :
HIDE .        3-SPS-41D                  :
HID2 .        COMPENSATED Z-DENSILOG     :
HID3 .        COMPENSATED NEUTRON LOG    :
HID4 .        GAMMA RAY LOG              :
HID5 .        TTRM SUB                   :
CLAB .        BACIA                      :
SLAB .        PAIS                       :
CMT1 .        ESC  1 1000                :
CMT2 .        PROF. MEDIDA               :
CMT4 .        SONDA  SS-43               :
HDAT .        SAD 69                     :
FL   .        BASE SAD 69                :
OS1  .        HDIL/XMAC/SL/GR            :
OS3  .        MREX/GR                    :
OS5  .        SL/GR                      :
LNAM .        MREX/ZDL/CN/XMAC/HDIL/3DEX/RCI/SL/GR :
TOOL .        MREX/ZDL/CN/XMAC/HDIL/3DEX/RCI/SL/GR :
LSOU .        PETROBRAS                  :
LSRV .        OH WIRELINE                :
LTYP .        RAW                        :
EPD  .M                0                 :
LDAT .        23/10/2004                 :
TRIP .                 1                 :
SON  .            772317                 :
CBDR .M             4277                 :
CBLO .M             4277                 :
CBL1 .M             4277                 :
STEM .DEGF    N/A                        :
BSAL .            266377                 :
BARI .        OFF                        :
DLAB .        21/10/2004                 :
MRT  .DEGF           280                 :
TSTR .        ZDL/CN/GR/TTRM             :
TSTG .        N/A                        :
STUS .        FINAL                      :
LCNM .        BAKER ATLAS                :
LCC  .               150                 :
NATI .        SANTOS                     :
OPMD .        OH.WIRELINE                :
PANA .        HERNANDEZ/LOCK             :
PCON .        BAKER ATLAS                :
R11  .        GR     5222.5 M/4277.0 M   :
R12  .        ZDL    5230.0 M/4277.0 M   :
R13  .        CN     5224.0 M/4277.0 M   :
R15  .        10. PONTO FRACO UTILIZADO  10K :
R17  .        12. DECLINAÇÃO MAGNETICA  -20.9 GRAUS :
R18  .        13. COORDENADAS BASE       :
R21  .        Y    583936.00 M           :
R22  .        MC  45 GRAUS               :
PVER .           4.10000                 :
WDFN .        /space/expusr/3-SPS-41D/i77bf06_8spf.xtf :
OCT  .        i77bf                      :
0S2  .        3DEX/GR                    :
OS4  .        RCI/GR                     :
R16  .        11. CNC CORREGIDO PELO CALIPER E SALINIDADE  PRESENTADO MATRIZ CARBONATO :
R20  .        X   7292512.00 M           :
R24  .        14. CADASTRO ANP  86316021017 :
#-----------------------------------------------------------------------------
~CURVE INFORMATION
#MNEM.UNIT   API CODE                                  DESCRIPTION
#---- -----  --------                                  -----------------------
DEPT .M                                                :DEPTH (BOREHOLE) {F10.4}
DEPT .M                                                : {F13.4}
BIT  .IN                                               : {F13.4}
GR   .GAPI                                             : {F13.4}
TEN  .LBF                                              : {F13.4}
TTEN .LBF                                              : {F13.4}
CAL  .IN                                               : {F13.4}
CALX .IN                                               : {F13.4}
HRD1 .HZ                                               : {F13.4}
HRD2 .HZ                                               : {F13.4}
PE   .B/E                                              : {F13.4}
SFT2 .HZ                                               : {F13.4}
SOFT .HZ                                               : {F13.4}
SSD  .HZ                                               : {F13.4}
ZCOR .G/C3                                             : {F13.4}
ZDEN .G/C3                                             : {F13.4}
#-----------------------------------------------------------------------------
# 
#     DEPT        DEPT         BIT          GR           TEN          TTEN         CAL          CALX         HRD1         HRD2         PE           SFT2         SOFT         SSD          ZCOR         ZDEN
#
~A  
# ...
 5226.8628    5226.8628       8.5000      79.1760     141.4615    6786.9164       8.5001       8.5001     606.5160     806.7550       5.2208     491.7714     352.6418    6150.4707      -0.0416       2.5801
 5226.7104    5226.7104       8.5000      79.1714     120.6269    6768.4472       8.5016       8.5016     613.8195     807.6152       5.3095     487.5799     344.9422    6113.3101      -0.0487       2.5775
 5226.5580    5226.5580       8.5000      78.0211     109.1119    6758.9295       8.4983       8.4983     615.4440     817.4165       5.4207     482.6393     341.4068    6118.5962      -0.0500       2.5752
 5226.4056    5226.4056       8.5000      76.1918     143.1089    6795.1526       8.4932       8.4932     610.2099     830.8791       5.4408     478.7360     347.1289    6149.0312      -0.0471       2.5740
 5226.2532    5226.2532       8.5000      75.3763     206.9796    6862.1138       8.4907       8.4907     604.3053     830.2559       5.4645     475.4927     350.9586    6175.5105      -0.0420       2.5759
 5226.1008    5226.1008       8.5000      76.1890     262.9240    6922.1130       8.4915       8.4915     611.3963     814.2540       5.5157     475.1748     341.1590    6175.5247      -0.0403       2.5784
 5225.9484    5225.9484       8.5000      77.6919     302.2000    6966.2871       8.4983       8.4983     627.9905     800.7298       5.6256     476.7326     327.4383    6143.1857      -0.0456       2.5785
 5225.7960    5225.7960       8.5000      77.8607     340.3439    7010.1149       8.5098       8.5098     633.0027     798.9511       5.6710     478.3944     325.4609    6108.1662      -0.0514       2.5781
 5225.6436    5225.6436       8.5000      77.0965     369.4081    7045.4255       8.5193       8.5193     626.2722     797.7813       5.5125     482.1329     332.2076    6107.8436      -0.0500       2.5800
 5225.4912    5225.4912       8.5000      76.9241     321.3858    7003.3641       8.5233       8.5233     620.7472     788.9092       5.2286     484.1805     339.9978    6145.4059      -0.0417       2.5838
 5225.3388    5225.3388       8.5000      77.4484     155.1814    6841.1504       8.5235       8.5235     615.0504     777.3014       4.9250     482.4798     347.9989    6189.3088      -0.0320       2.5889
 5225.1864    5225.1864       8.5000      77.8720     -47.0125    6639.7087       8.5227       8.5227     602.4310     768.2800       4.6632     482.9960     355.4381    6203.5115      -0.0257       2.5953
 5225.0340    5225.0340       8.5000      78.0555    -169.4219    6515.3271       8.5228       8.5228     592.6107     758.9046       4.4984     489.3053     360.7943    6185.2960      -0.0245       2.6010
 5224.8816    5224.8816       8.5000      78.3726    -193.8775    6487.8014       8.5234       8.5234     592.2544     755.6249       4.5533     490.6143     360.4765    6170.4045      -0.0260       2.6022
 5224.7292    5224.7292       8.5000      79.0671    -168.0778    6510.6130       8.5212       8.5212     596.1615     765.4163       4.7085     484.6895     355.2622    6167.5893      -0.0291       2.5980
 5224.5768    5224.5768       8.5000      79.2619    -125.0330    6551.2240       8.5170       8.5170     597.6357     790.6491       4.8779     483.2669     351.9379    6162.3553      -0.0351       2.5895
 5224.4244    5224.4244       8.5000      78.4167     -84.2501    6590.2795       8.5156       8.5156     608.7535     827.3704       5.0518     496.1816     360.4449    6167.9215      -0.0434       2.5748
 5224.2720    5224.2720       8.5000      77.5910     -63.8075    6609.5346       8.5181       8.5181     646.0776     872.7727       4.9545     527.1371     387.5163    6219.2169      -0.0510       2.5520
 5224.1196    5224.1196       8.5000      77.9921     -69.0399    6603.2387       8.5212       8.5212     693.5739     916.9749       4.7396     563.5432     421.9938    6315.0676      -0.0531       2.5274
 5223.9672    5223.9672       8.5000      78.7657     -71.2217    6599.8945       8.5228       8.5228     721.1554     949.9400       4.8246     581.4435     433.5748    6427.4722      -0.0472       2.5092
 5223.8148    5223.8148       8.5000      78.5265     -40.9535    6629.2117       8.5228       8.5228     725.2480     975.2808       5.3502     573.4796     415.3480    6511.1389      -0.0402       2.4981
 5223.6624    5223.6624       8.5000      77.1757       8.5061    6678.4214       8.5215       8.5215     725.6214     999.4152       6.0636     556.7609     390.2581    6540.7582      -0.0400       2.4900
 5223.5100    5223.5100       8.5000      75.8426      27.9413    6698.2024       8.5222       8.5222     725.5231    1016.1080       6.5259     548.5674     376.1351    6530.8380      -0.0439       2.4856
 5223.3576    5223.3576       8.5000      75.0602      -5.0557    6665.3525       8.5280       8.5280     714.7707    1005.8825       6.3433     550.6731     378.3040    6503.9663      -0.0444       2.4908
 5223.2052    5223.2052       8.5000      74.7140     -56.4617    6613.2572       8.5365       8.5365     691.6314     958.2771       5.4729     553.7282     400.3593    6440.0746      -0.0419       2.5071
 5223.0528    5223.0528       8.5000      75.3283     -87.7852    6580.5030       8.5425       8.5425     674.8048     903.0497       4.4921     557.3493     431.6251    6332.2484      -0.0451       2.5252
 5222.9004    5222.9004       8.5000      76.7310    -104.1514    6562.3032       8.5444       8.5444     670.6271     878.2226       4.0106     560.6342     448.1158    6225.9123      -0.0554       2.5354
 5222.7480    5222.7480       8.5000      77.3918    -120.0501    6544.2453       8.5445       8.5445     667.3665     873.0870       4.0782     552.5710     438.2677    6165.6516      -0.0626       2.5388
 5222.5956    5222.5956       8.5000      76.3195    -128.5512    6533.3795       8.5450       8.5450     667.3117     881.2627       4.3661     546.0010     420.3197    6176.9242      -0.0624       2.5345
 5222.4432    5222.4432       8.5000      74.7972    -122.0257    6537.6470       8.5462       8.5462     698.0593     920.6992       4.4021     581.5839     434.8189    6300.3899      -0.0565       2.5153
 5222.2908    5222.2908       8.5000      73.8364    -100.4948    6557.3025       8.5468       8.5468     761.0970     976.9908       4.0367     654.2761     490.1737    6500.9881      -0.0475       2.4869
 5222.1384    5222.1384       8.5000      74.1033     -76.8368    6579.4896       8.5457       8.5457     814.9002    1019.5630       3.6550     708.9976     544.4060    6659.0286      -0.0404       2.4647
 5221.9860    5221.9860       8.5000      75.8955     -64.6634    6590.4157       8.5432       8.5432     832.5894    1047.0954       3.5357     722.9698     565.4171    6737.1630      -0.0365       2.4541
 5221.8336    5221.8336       8.5000      77.2103     -65.2750    6588.6514       8.5413       8.5413     829.3629    1061.1343       3.5254     720.7284     570.8418    6771.6801      -0.0334       2.4520
 5221.6812    5221.6812       8.5000      76.8500     -68.3434    6584.4809       8.5408       8.5408     817.8863    1058.8393       3.5107     714.1474     575.2026    6751.6287      -0.0341       2.4563
 5221.5288    5221.5288       8.5000      75.0667     -59.4645    6592.3730       8.5404       8.5404     797.9352    1042.7205       3.5195     690.5598     566.6744    6654.4431      -0.0420       2.4664
 5221.3764    5221.3764       8.5000      71.0549     -26.3938    6624.8582       8.5397       8.5397     773.9287    1014.4405       3.6758     653.5731     537.6551    6528.4002      -0.0514       2.4801
 5221.2240    5221.2240       8.5000      66.0478      16.9452    6668.3341       8.5399       8.5399     753.6247     991.6621       3.9536     626.3442     501.4729    6474.4238      -0.0523       2.4907
 5221.0716    5221.0716       8.5000      64.1571      24.0335    6675.9893       8.5412       8.5412     753.4362    1000.1146       4.0906     631.5133     492.7398    6555.0150      -0.0425       2.4893
