~VERSION INFORMATION
VERS.           2.0   :CWLS Log ASCII Standard - VERSION 2.0
WRAP.           YES   :Multiple lines per depth step
PROD.  Schlumberger   :LAS Producer
PROG.  DLIS to ASCII 2.3                               :LAS Program name and version
CREA.        2023/07/14 00:15                          :LAS Creation date {YYYY/MM/DD hh:mm}
DLIS_CREA.  2023-Jul-14 00:11                          :DLIS Creation date and time {YYYY-MMM-DD hh:mm}
SOURCE.     LIS_007.dlis                               :DLIS File Name
FILE-ID.     LIS   .003                                :File Identification Number
#--------------------------------------------------
~WELL INFORMATION
#MNEM.UNIT      DATA             DESCRIPTION
#---- ------ --------------   -----------------------------
STRT .M      5238.7500       :START DEPTH     
STOP .M      4241.4444       :STOP DEPTH     
STEP .M        -0.1524       :STEP     
NULL .          -999.25      :NULL VALUE
COMP .        PETROBRAS S.A.                           :COMPANY
WELL .        3-BRSA-293D-SPS                          :WELL
FLD  .        BS-400                                   :FIELD
LOC  .        BASE SAD 69:                             :LOCATION
CNTY .        SANTOS                                   :COUNTY
STAT .        BRASIL                                   :STATE
CTRY .        SANTOS                                   :COUNTRY
API  .                                                 :API NUMBER
UWI  .                                                 :UNIQUE WELL ID
DATE .        23/10/2004                               :LOG DATE
SRVC .        Schlumberger                             :SERVICE COMPANY
LATI .DEG                                              :LATITUDE
LONG .DEG                                              :LONGITUDE
GDAT .                                                 :GeoDetic Datum
#-----------------------------------------------------------------------------
~PARAMETER INFORMATION
#MNEM.UNIT    VALUE                      DESCRIPTION
#---- -----   --------------------       ------------------------
APD  .M               24                 :
BHT  .DEGF           280                 :
BLI  .M             5230                 :
BS   .IN         8.50000                 :
CN   .        PETROBRAS S.A.             :
COUN .        SANTOS                     :
CS   .IN         9.62500                 :
DATE .        23/10/2004                 :
DFD  .LB/G      12.30000                 :
DFL  .C3               2                 :
DFPH .        N/A                        :
DFT  .        SINTETICO                  :
DFV  .S               87                 :
DMF  .        MESA ROTATIVA              :
EDF  .M               24                 :
EGL  .M             -500                 :
EKB  .        N/A                        :
ENGI .        HERNANDEZ/LOCK             :
FL1  .        X   7292392.00 M LAT 24 28 47.189 S :
FL2  .        Y    584087.00 M LON 44 10 12.698 W :
FL3  .        MC  45 GRAUS               :
FN   .        BS-400                     :
LMF  .        MESA ROTATIVA              :
LUL  .        MACAE                      :
MCSS .        PRENSA                     :
MCST .DEGF            80                 :
MFSS .        PRENSA                     :
MFST .DEGF            80                 :
MSS  .        LINHA DE FLUXO             :
MST  .DEGF            80                 :
PDAT .        NIVEL DO MAR               :
R1   .        01. APRESENTAÇÃO DE ACORDO COM REQUERIMENTO DO CLIENTE :
R2   .        02. TEMPERATURA MÁXIMA DO POÇO T1=T2= 260 DEGF @  5180 M :
R3   .        03. INICIO DA CIRCULAÇÃO  13 45 H 21/10/2004 :
R4   .        04. FINAL DA CIRCULAÇÃO   16 00 H 21/10/2004 :
R5   .        05. TEMPO TOTAL DE CIRCULAÇÃO  02 15 H :
R6   .        06. FLUIDO DE PERFURAÇÃO  SINTETICO (BR-MUL  BR-MI)  65% TEOR DO OLEO :
R7   .        07. SALINIDADE DA LAMA  266377 PPM NACL NA FASE DE AGUA :
R8   .        08. INCLINAÇÃO MÁXIMA DO POÇO  37.37 GRAUS @ 5100 M :
R9   .        09. PRIMEIRAS E ULTIMAS LEITURAS  :
RMB  .OHMM    > 10                       :
RMCS .OHMM    > 10                       :
RMFS .OHMM    > 10                       :
RMS  .OHMM    > 10                       :
RUN  .                 1                 :
STAT .        BRASIL                     :
TCS  .        16 00 H                    :
TDD  .M             5230                 :
TDL  .M             5231                 :
TLAB .        N/A                        :
TLI  .M             4277                 :
WITN .        ALCIDIO/VLADIMIR           :
WN   .        3-BRSA-293D-SPS            :
LUN  .              8808                 :
HIDE .        3-SPS-41D                  :
HID2 .        COMPENSATED Z-DENSILOG     :
HID3 .        COMPENSATED NEUTRON LOG    :
HID4 .        GAMMA RAY LOG              :
HID5 .        TTRM SUB                   :
CLAB .        BACIA                      :
SLAB .        PAIS                       :
CMT1 .        ESC  1 1000                :
CMT2 .        PROF. MEDIDA               :
CMT4 .        SONDA  SS-43               :
HDAT .        SAD 69                     :
FL   .        BASE SAD 69                :
OS1  .        HDIL/XMAC/SL/GR            :
OS3  .        MREX/GR                    :
OS5  .        SL/GR                      :
LNAM .        MREX/ZDL/CN/XMAC/HDIL/3DEX/RCI/SL/GR :
TOOL .        MREX/ZDL/CN/XMAC/HDIL/3DEX/RCI/SL/GR :
LSOU .        PETROBRAS                  :
LSRV .        OH WIRELINE                :
LTYP .        RAW                        :
EPD  .M                0                 :
LDAT .        23/10/2004                 :
TRIP .                 1                 :
SON  .            772317                 :
CBDR .M             4277                 :
CBLO .M             4277                 :
CBL1 .M             4277                 :
STEM .DEGF    N/A                        :
BSAL .            266377                 :
BARI .        OFF                        :
DLAB .        21/10/2004                 :
MRT  .DEGF           280                 :
TSTR .        ZDL/CN/GR/TTRM             :
TSTG .        N/A                        :
STUS .        FINAL                      :
LCNM .        BAKER ATLAS                :
LCC  .               150                 :
NATI .        SANTOS                     :
OPMD .        OH.WIRELINE                :
PANA .        HERNANDEZ/LOCK             :
PCON .        BAKER ATLAS                :
R11  .        GR     5222.5 M/4277.0 M   :
R12  .        ZDL    5230.0 M/4277.0 M   :
R13  .        CN     5224.0 M/4277.0 M   :
R15  .        10. PONTO FRACO UTILIZADO  10K :
R17  .        12. DECLINAÇÃO MAGNETICA  -20.9 GRAUS :
R18  .        13. COORDENADAS BASE       :
R21  .        Y    583936.00 M           :
R22  .        MC  45 GRAUS               :
PVER .           4.10000                 :
WDFN .        /space/expusr/3-SPS-41D/i77bf07_4spf.xtf :
OCT  .        i77bf                      :
0S2  .        3DEX/GR                    :
OS4  .        RCI/GR                     :
R16  .        11. CNC CORREGIDO PELO CALIPER E SALINIDADE  PRESENTADO MATRIZ CARBONATO :
R20  .        X   7292512.00 M           :
R24  .        14. CADASTRO ANP  86316021017 :
#-----------------------------------------------------------------------------
~CURVE INFORMATION
#MNEM.UNIT   API CODE                                  DESCRIPTION
#---- -----  --------                                  -----------------------
DEPT .M                                                :DEPTH (BOREHOLE) {F10.4}
DEPT .M                                                : {F13.4}
BIT  .IN                                               : {F13.4}
DEPM .M                                                : {F13.4}
GR   .GAPI                                             : {F13.4}
SPD  .M/MN                                             : {F13.4}
TEN  .LBF                                              : {F13.4}
TTEN .LBF                                              : {F13.4}
CAL  .IN                                               : {F13.4}
CALX .IN                                               : {F13.4}
HRD1 .HZ                                               : {F13.4}
HRD2 .HZ                                               : {F13.4}
PE   .B/E                                              : {F13.4}
SFT2 .HZ                                               : {F13.4}
SOFT .HZ                                               : {F13.4}
SSD  .HZ                                               : {F13.4}
ZCOR .G/C3                                             : {F13.4}
ZDEN .G/C3                                             : {F13.4}
CNC  .PU                                               : {F13.4}
CN   .PU                                               : {F13.4}
LSN  .HZ                                               : {F13.4}
SSN  .HZ                                               : {F13.4}
CNCF .PU                                               : {F13.4}
#-----------------------------------------------------------------------------
# DEPT       
#     DEPT         BIT          DEPM         GR           SPD          TEN          
#     TTEN         CAL          CALX         HRD1         HRD2         PE           
#     SFT2         SOFT         SSD          ZCOR         ZDEN         CNC          
#     CN           LSN          SSN          CNCF         
~A  
# ...
4910.1756
   4910.1756       8.5000    4909.6414      69.0548       6.1776      53.0580
   6269.9058       8.6607       8.6607     627.4913     830.1216       5.4811
    513.1737     339.0488    6225.3478      -0.0391       2.5628      18.6839
     18.9669    1293.6064    3181.6726      18.6839
4910.0232
   4910.0232       8.5000    4909.4900      68.4077       6.1754      86.4618
   6304.3572       8.6591       8.6591     633.9732     835.1153       5.4592
    509.7159     344.2360    6215.8403      -0.0426       2.5610      18.9088
     19.1919    1272.1648    3148.6517      18.9088
4909.8708
   4909.8708       8.5000    4909.3376      67.0328       6.1558      78.2023
   6297.2443       8.6603       8.6603     629.3843     850.0768       5.4605
    491.0678     356.6201    6191.2430      -0.0480       2.5596      18.6722
     18.9549    1277.7454    3141.5971      18.6722
4909.7184
   4909.7184       8.5000    4909.1852      65.9325       6.1420      20.1799
   6239.7695       8.6637       8.6637     614.3704     848.5333       5.4440
    473.6578     355.8854    6165.5196      -0.0487       2.5641      18.2303
     18.5128    1295.2938    3145.0187      18.2303
4909.5660
   4909.5660       8.5000    4909.0328      66.3346       6.1346     -38.1053
   6181.1796       8.6660       8.6660     607.2962     824.4957       5.4067
    464.4685     348.4162    6150.3586      -0.0452       2.5719      18.1495
     18.4332    1295.5785    3138.5122      18.1495
4909.4136
   4909.4136       8.5000    4908.8804      68.4866       6.1220     -49.6370
   6168.9592       8.6654       8.6654     613.4629     807.6515       5.3670
    462.6255     345.4957    6157.9893      -0.0420       2.5751      18.6350
     18.9214    1272.5681    3125.9244      18.6350
4909.2612
   4909.2612       8.5000    4908.7280      69.9140       6.1150     -18.3082
   6199.8595       8.6638       8.6638     621.2429     812.6973       5.3369
    471.4434     346.7267    6173.8724      -0.0421       2.5722      19.3108
     19.5999    1242.9880    3111.1522      19.3108
4909.1088
   4909.1088       8.5000    4908.5756      69.8545       6.1286      28.6890
   6247.0221       8.6634       8.6634     621.2060     825.2782       5.3225
    481.5048     348.8347    6176.5450      -0.0441       2.5685      19.4699
     19.7595    1231.6352    3096.1180      19.4699
4908.9564
   4908.9564       8.5000    4908.4232      69.0297       6.1524      69.2888
   6288.3761       8.6641       8.6641     620.0837     827.4902       5.3187
    483.2902     353.9365    6186.2843      -0.0429       2.5664      19.2060
     19.4947    1236.7205    3086.5939      19.2060
4908.8040
   4908.8040       8.5000    4908.2708      67.8675       6.1585      75.0045
   6295.0823       8.6647       8.6647     631.3239     828.3157       5.3072
    488.7300     361.0336    6225.3395      -0.0395       2.5620      19.2672
     19.5567    1229.0853    3072.7411      19.2672
4908.6516
   4908.6516       8.5000    4908.1184      67.1532       6.1409      31.8234
   6252.5154       8.6641       8.6641     645.9887     843.9611       5.2704
    501.1429     363.1423    6252.4851      -0.0411       2.5543      19.7190
     20.0104    1200.8941    3039.2585      19.7190
4908.4992
   4908.4992       8.5000    4907.9660      68.4424       6.1202     -28.5752
   6191.9794       8.6631       8.6631     641.4845     865.9379       5.2462
    506.5552     364.5951    6242.7713      -0.0456       2.5503      20.0907
     20.3832    1174.8740    3002.8947      20.0907
4908.3468
   4908.3468       8.5000    4907.8136      71.5830       6.1086     -65.4878
   6154.3043       8.6627       8.6627     623.6708     865.4311       5.2538
    507.7441     372.8120    6230.5686      -0.0441       2.5539      20.1834
     20.4761    1169.5057    2996.4497      20.1834
4908.1944
   4908.1944       8.5000    4907.6612      74.3219       6.1113     -71.1633
   6147.6222       8.6628       8.6628     618.8174     849.8938       5.2264
    513.0565     379.1120    6205.2471      -0.0440       2.5585      20.0220
     20.3139    1184.9000    3023.0071      20.0220
4908.0420
   4908.0420       8.5000    4907.5078      75.1511       6.1234     -58.7400
   6159.0811       8.6631       8.6631     624.5616     844.5651       5.2033
    508.4069     372.0920    6159.9063      -0.0507       2.5593      19.6869
     19.9773    1208.2473    3055.1680      19.6869
4907.8896
   4907.8896       8.5000    4907.3555      75.2703       6.1328     -43.1000
   6173.9531       8.6634       8.6634     629.5735     834.8127       5.3993
    491.1987     352.3815    6134.1768      -0.0536       2.5616      19.4872
     19.7770    1221.5706    3072.2681      19.4872
4907.7372
   4907.7372       8.5000    4907.2030      76.0630       6.1408     -31.5074
   6185.0247       8.6634       8.6634     629.7234     806.2404       5.6514
    473.9574     330.5589    6127.6376      -0.0493       2.5692      19.4079
     19.6972    1223.3993    3070.2311      19.4079
4907.5848
   4907.5848       8.5000    4907.0506      76.7515       6.1437     -27.7759
   6188.3999       8.6630       8.6630     621.5075     788.1770       5.8380
    465.8043     317.3930    6111.2367      -0.0467       2.5764      19.4532
     19.7424    1214.6919    3052.1189      19.4532
4907.4324
   4907.4324       8.5000    4906.8982      76.8348       6.1307     -40.2538
   6175.4885       8.6622       8.6622     608.9485     799.3435       6.0195
    464.9641     315.0530    6102.0245      -0.0478       2.5777      19.9713
     20.2625    1191.0874    3034.6767      19.9713
4907.2800
   4907.2800       8.5000    4906.7468      76.7071       6.1110     -64.6647
   6150.3416       8.6612       8.6612     598.4120     813.7979       6.1642
    468.2434     315.6956    6098.6806      -0.0491       2.5768      20.9009
     21.1953    1165.0160    3040.5854      20.9009
4907.1276
   4907.1276       8.5000    4906.5944      76.2957       6.1028     -76.1363
   6137.8798       8.6607       8.6607     587.6488     820.1786       6.2775
    470.4223     314.0063    6084.1455      -0.0504       2.5772      21.5290
     21.8252    1156.5086    3066.0593      21.5290
4906.9752
   4906.9752       8.5000    4906.4420      75.2827       6.1072     -54.9483
   6158.1787       8.6607       8.6607     579.6926     825.9864       6.3518
    467.5388     311.7384    6078.2700      -0.0508       2.5774      21.1047
     21.3995    1176.9666    3087.5759      21.1047
4906.8228
   4906.8228       8.5000    4906.2896      74.6232       6.1147     -15.1376
   6197.5530       8.6608       8.6608     578.7927     825.3840       6.3520
    461.0395     311.2424    6091.3265      -0.0486       2.5778      19.9469
     20.2368    1215.8278    3095.6089      19.9469
4906.6704
   4906.6704       8.5000    4906.1372      74.3856       6.1160       8.6609
   6221.3542       8.6619       8.6619     577.1241     817.4760       6.2042
    457.1179     315.6070    6120.2006      -0.0425       2.5800      19.1909
     19.4778    1239.9846    3093.3044      19.1909
4906.5180
   4906.5180       8.5000    4905.9848      74.2958       6.1147       1.2910
   6214.0613       8.6639       8.6639     575.5432     812.5496       5.9601
    460.2237     324.9067    6163.3068      -0.0349       2.5812      19.4526
     19.7425    1225.7025    3079.7899      19.4526
4906.3656
   4906.3656       8.5000    4905.8324      74.2897       6.1005     -19.3827
   6193.2330       8.6647       8.6647     581.9114     817.9923       5.9532
    463.7526     329.1812    6176.6614      -0.0353       2.5775      19.9974
     20.2907    1198.9950    3057.0998      19.9974
4906.2132
   4906.2132       8.5000    4905.6800      74.6000       6.0645     -26.9721
   6185.3013       8.6625       8.6625     598.9301     828.8005       6.0445
    469.7231     323.5086    6154.2474      -0.0438       2.5700      19.8313
     20.1221    1197.0925    3038.6657      19.8313
4906.0608
   4906.0608       8.5000    4905.5276      74.6563       6.0346     -21.4541
   6190.4884       8.6599       8.6599     614.6580     837.6890       6.0292
    482.1367     320.9745    6139.0663      -0.0507       2.5637      19.2545
     19.5402    1216.4874    3039.8715      19.2545
