~VERSION INFORMATION
VERS.           2.0   :CWLS Log ASCII Standard - VERSION 2.0
WRAP.           NO    :One Line per depth step
PROD.  Schlumberger   :LAS Producer
PROG.  DLIS to ASCII 2.3                               :LAS Program name and version
CREA.        2023/07/14 00:15                          :LAS Creation date {YYYY/MM/DD hh:mm}
DLIS_CREA.  2023-Jul-14 00:11                          :DLIS Creation date and time {YYYY-MMM-DD hh:mm}
SOURCE.     LIS_003.dlis                               :DLIS File Name
FILE-ID.     LIS   .003                                :File Identification Number
#--------------------------------------------------
~WELL INFORMATION
#MNEM.UNIT      DATA             DESCRIPTION
#---- ------ --------------   -----------------------------
STRT .M      5239.8168       :START DEPTH     
STOP .M      3827.6784       :STOP DEPTH     
STEP .M        -0.1524       :STEP     
NULL .          -999.25      :NULL VALUE
COMP .        PETROBRAS S.A.                           :COMPANY
WELL .        3-BRSA-293D-SPS                          :WELL
FLD  .        BS-400                                   :FIELD
LOC  .        BASE SAD 69:                             :LOCATION
CNTY .        SANTOS                                   :COUNTY
STAT .        BRASIL                                   :STATE
CTRY .        BRASIL                                   :COUNTRY
API  .                                                 :API NUMBER
UWI  .                                                 :UNIQUE WELL ID
DATE .        22/10/2004                               :LOG DATE
SRVC .        Schlumberger                             :SERVICE COMPANY
LATI .DEG                                              :LATITUDE
LONG .DEG                                              :LONGITUDE
GDAT .                                                 :GeoDetic Datum
#-----------------------------------------------------------------------------
~PARAMETER INFORMATION
#MNEM.UNIT    VALUE                      DESCRIPTION
#---- -----   --------------------       ------------------------
APD  .M               24                 :
BHT  .DEGF           260                 :
BLI  .M       5227.50000                 :
BS   .IN         8.50000                 :
CN   .        PETROBRAS S.A.             :
COUN .        SANTOS                     :
CS   .IN         9.62500                 :
DATE .        22/10/2004                 :
DFD  .LB/G      12.30000                 :
DFL  .C3               2                 :
DFPH .        N/A                        :
DFT  .        SINTETICO                  :
DFV  .S               87                 :
DMF  .        MESA ROTATIVA              :
EDF  .M               24                 :
EGL  .M             -500                 :
EKB  .        N/A                        :
ENGI .        HERNANDEZ/LOCK             :
FL1  .        X   7292392.00 M LAT 24 28 47.189 S :
FL2  .        Y    584087.00 M LON 44 10 12.698 W :
FL3  .        MC  45 GRAUS               :
FN   .        BS-400                     :
LMF  .        MESA ROTATIVA              :
LUL  .        MACAE                      :
MCSS .        PRENSA                     :
MCST .DEGF            80                 :
MFSS .        PRENSA                     :
MFST .DEGF            80                 :
MSS  .        LINHA DE FLUXO             :
MST  .DEGF            80                 :
PDAT .        NIVEL DO MAR               :
R1   .        01. APRESENTAÇÃO DE ACORDO COM REQUERIMENTO DO CLIENTE :
R2   .        02. TEMPERATURA MÁXIMA DO POÇO T1=T2= 260 DEGF @  5180 M :
R3   .        03. INICIO DA CIRCULAÇÃO  13 45 H 21/10/2004 :
R4   .        04. FINAL DA CIRCULAÇÃO   16 00 H 21/10/2004 :
R5   .        05. TEMPO TOTAL DE CIRCULAÇÃO  02 15 H :
R6   .        06. FLUIDO DE PERFURAÇÃO  SINTETICO (BR-MUL  BR-MI)  65% TEOR DO OLEO :
R7   .        07. SALINIDADE DA LAMA  266377 PPM NACL NA FASE DE AGUA :
R8   .        08. INCLINAÇÃO MÁXIMA DO POÇO  37.37 GRAUS @ 5100 M :
R9   .        09. PRIMEIRAS E ULTIMAS LEITURAS  :
RMB  .OHMM    > 10                       :
RMCS .OHMM    > 10                       :
RMFS .OHMM    > 10                       :
RMS  .OHMM    > 10                       :
RUN  .                 1                 :
STAT .        BRASIL                     :
TCS  .        16 00 H                    :
TDD  .M             5230                 :
TDL  .M             5231                 :
TLAB .        N/A                        :
TLI  .M             3850                 :
WITN .        ALCIDIO/VLADIMIR           :
WN   .        3-BRSA-293D-SPS            :
LUN  .              8808                 :
HIDE .        3-SPS-41D                  :
HID2 .        HIGH DEFINITION INDUCTION LOG :
HID3 .        X-MULTIPOLE ARRAY ACOUSTILOG :
HID4 .        GAMMA RAY LOG              :
HID5 .        TTRM SUB                   :
CLAB .        BACIA                      :
SLAB .        PAIS                       :
CMT1 .        ESC  1 1000                :
CMT2 .        PROF. MEDIDA               :
CMT4 .        SONDA  SS-43               :
HDAT .        SAD 69                     :
FL   .        BASE SAD 69                :
OS1  .        GR/CN/ZDL                  :
OS2  .        MREX/GR                    :
OS3  .        RCI/GR                     :
0S4  .        3DEX/GR                    :
OS5  .        SL/GR                      :
LNAM .        MREX/ZDL/CN/XMAC/HDIL/RCI/3DEX/SL/GR :
TOOL .        MREX/ZDL/CN/XMAC/HDIL/RCI/3DEX/SL/GR :
LSOU .        PETROBRAS                  :
LSRV .        OH WIRELINE                :
LTYP .        RAW                        :
EPD  .M                0                 :
LDAT .        22/10/2004                 :
TRIP .                 1                 :
SON  .            772317                 :
CBDR .M             4277                 :
CBLO .M             4277                 :
CBL1 .M             4277                 :
STEM .DEGF    N/A                        :
BSAL .            266377                 :
BARI .        OFF                        :
DLAB .        21/10/2004                 :
MRT  .DEGF           260                 :
TSTR .        HDIL/XMAC/GR/TTRM          :
TSTG .        N/A                        :
STUS .        FINAL                      :
LCNM .        BAKER ATLAS                :
LCC  .               150                 :
NATI .        BRASIL                     :
OPMD .        OH.WIRELINE                :
PANA .        HERNANDEZ/LOCK             :
PCON .        BAKER ATLAS                :
R11  .        SL     5196.0 M/4960.0 M   :
R12  .        GR     4960.0 M/4277.0 M   :
R13  .        XMAC   5202.0 M/3850.0 M   :
R14  .        HDIL   5227.5 M/4277.0 M   :
R15  .        3DEX   5217.0 M/4960.0 M   :
R17  .        10. PONTO FRACO UTILIZADO  10K :
R18  .        11. DECLINAÇÃO MAGNETICA  -20.9 GRAUS :
R19  .        12. COORDENADAS ARATU      :
R21  .        X   7292512.00 M           :
R22  .        Y    583936.00 M           :
R23  .        MC  45 GRAUS               :
R25  .        13. CADASTRO ANP  86316021017 :
PVER .           4.10000                 :
WDFN .        /space/expusr/3-SPS-41D/i77bf03_2spf.xtf :
OCT  .        i77bf                      :
#-----------------------------------------------------------------------------
~CURVE INFORMATION
#MNEM.UNIT   API CODE                                  DESCRIPTION
#---- -----  --------                                  -----------------------
DEPT .M                                                :DEPTH (BOREHOLE) {F10.4}
DEPT .M                                                : {F13.4}
DT   .US/F                                             : {F13.4}
SFN1 .US                                               : {F13.4}
SFN2 .US                                               : {F13.4}
SFN3 .US                                               : {F13.4}
SFN4 .US                                               : {F13.4}
TT   .MS                                               : {F13.4}
#-----------------------------------------------------------------------------
# 
#     DEPT        DEPT         DT           SFN1         SFN2         SFN3         SFN4         TT
#
~A  
# ...
 4397.0448    4397.0448      70.1710     753.5005     786.6255     820.7507     854.0003     183.4853
 4396.8924    4396.8924      70.5443     754.1257     787.2506     821.6259     854.3806     183.5205
 4396.7400    4396.7400      71.1343     754.7521     787.7506     822.3808     859.1258     183.5561
 4396.5876    4396.5876      71.7344     756.1262     788.1286     826.1269     859.6267     183.5920
 4396.4352    4396.4352      72.2576     756.7494     789.9997     827.1270     860.5003     183.6282
 4396.2828    4396.2828      72.7051     756.5009     789.8755     827.9967     860.6245     183.6643
 4396.1304    4396.1304      73.0440     757.3720     790.2487     828.6229     862.1199     183.7008
 4395.9780    4395.9780      73.2416     762.2352     794.3625     828.5004     865.8637     183.7375
 4395.8256    4395.8256      73.2234     757.6373     795.7463     829.3727     865.9997     183.7741
 4395.6732    4395.6732      72.8603     762.2394     794.6276     829.7491     866.6236     183.8105
 4395.5208    4395.5208      72.1322     757.3844     795.6231     829.3757     868.4964     183.8466
 4395.3684    4395.3684      71.1464     757.1254     794.6265     829.7494     867.6264     183.8822
 4395.2160    4395.2160      70.1864     756.8753     790.2552     828.7512     868.1244     183.9173
 4395.0636    4395.0636      69.6650     747.7574     786.5030     820.8814     859.3821     183.9522
 4394.9112    4394.9112      69.7551     754.9968     787.9993     827.2472     859.9997     183.9870
 4394.7588    4394.7588      70.2282     754.3750     788.1250     826.2500     860.3750     184.0222
 4394.6064    4394.6064      70.7821     755.7500     788.1250     827.2500     860.6250     184.0576
 4394.4540    4394.4540      71.3012     756.2496     789.4997     827.8750     861.6247     184.0932
 4394.3016    4394.3016      71.8485     755.6258     789.0001     827.8751     861.1256     184.1292
 4394.1492    4394.1492      72.5884     756.3752     789.1327     828.0011     861.7570     184.1655
 4393.9968    4393.9968      73.4437     756.5009     794.6259     828.7520     866.7524     184.2022
 4393.8444    4393.8444      74.0829     757.0003     795.1250     829.8750     868.1269     184.2393
 4393.6920    4393.6920      74.3110     757.1245     795.1250     829.8750     868.9966     184.2762
 4393.5396    4393.5396      74.1160     757.3741     795.6232     834.6082     869.1246     184.3133
 4393.3872    4393.3872      73.5813     757.4996     795.3758     834.8742     869.4988     184.3501
 4393.2348    4393.2348      72.9032     757.3753     795.2503     834.5010     869.0014     184.3866
 4393.0824    4393.0824      72.3003     757.6244     795.0006     834.2506     868.7506     184.4227
 4392.9300    4392.9300      71.9344     762.3653     795.2495     829.7592     868.2510     184.4587
 4392.7776    4392.7776      71.8749     756.3851     795.3748     829.9996     868.1252     184.4947
 4392.6252    4392.6252      71.9791     757.1240     790.3816     834.4941     868.2498     184.5307
 4392.4728    4392.4728      71.9658     763.8686     794.4961     829.0052     868.6246     184.5666
 4392.3204    4392.3204      71.6742     763.9999     796.7487     828.7501     862.2537     184.6025
 4392.1680    4392.1680      71.1979     764.6250     797.5000     835.3750     866.5000     184.6381
 4392.0156    4392.0156      70.8568     763.5000     796.8750     835.0000     868.1250     184.6736
 4391.8632    4391.8632      70.8647     763.8747     798.2494     836.4999     869.8752     184.7090
 4391.7108    4391.7108      71.1071     763.3745     797.1245     836.3738     870.2498     184.7446
 4391.5584    4391.5584      71.3659     762.8740     796.6242     834.9997     869.9986     184.7803
 4391.4060    4391.4060      71.5761     762.1178     795.9986     834.7498     868.8740     184.8161
 4391.2536    4391.2536      71.8696     757.7458     795.1138     834.6125     868.2475     184.8520
 4391.1012    4391.1012      72.3825     755.6335     789.5225     828.4000     867.0050     184.8880
 4390.9488    4390.9488      72.9587     757.6177     795.3535     834.6021     869.2418     184.9245
 4390.7964    4390.7964      73.0687     762.1102     795.8734     835.3725     869.4992     184.9610
 4390.6440    4390.6440      72.2327     762.8728     795.6257     835.2504     869.6246     184.9972
 4390.4916    4390.4916      70.4977     763.6231     796.8718     835.3747     869.8744     185.0324
 4390.3392    4390.3392      68.4872     763.3755     796.2514     834.6266     868.3783     185.0667
 4390.1868    4390.1868      67.1072     758.1345     794.0041     829.3845     866.8777     185.1003
 4390.0344    4390.0344      66.9701     753.5067     787.2598     822.7596     859.5107     185.1337
 4389.8820    4389.8820      67.9405     750.1286     787.0003     822.5003     859.2503     185.1677
 4389.7296    4389.7296      69.3533     749.6254     787.4996     826.2473     859.7496     185.2024
 4389.5772    4389.5771      70.5567     749.5000     786.3750     821.7500     859.8750     185.2377
 4389.4248    4389.4248      71.2445     754.6250     786.7500     821.5000     860.0000     185.2733
 4389.2724    4389.2724      71.4371     754.8749     787.7500     822.5016     859.5001     185.3091
 4389.1200    4389.1200      71.3052     754.4998     787.8747     826.5001     859.7508     185.3448
 4388.9676    4388.9676      70.9995     754.2436     787.5000     826.6249     860.7497     185.3803
 4388.8152    4388.8152      70.6396     748.6239     787.4896     826.4917     860.4979     185.4156
 4388.6628    4388.6628      70.4446     747.8762     780.6259     820.9967     859.1234     185.4508
 4388.5104    4388.5104      70.6180     748.4994     781.1264     819.2508     858.2383     185.4862
 4388.3580    4388.3580      71.1353     748.2509     781.7476     819.6236     853.0198     185.5215
 4388.2056    4388.2056      71.7987     747.8763     781.3763     820.4970     853.3737     185.5574
 4388.0532    4388.0532      72.3754     747.2519     780.8765     819.8769     858.4843     185.5936
 4387.9008    4387.9008      72.6903     746.6267     780.7503     819.8750     858.2507     185.6300
 4387.7484    4387.7484      72.6980     746.5003     780.3759     819.6256     853.8851     185.6664
 4387.5960    4387.5960      72.4974     749.3694     780.8740     819.1260     853.5007     185.7026
 4387.4436    4387.4436      72.2433     756.4887     786.7407     819.4994     853.6248     185.7388
 4387.2912    4387.2912      72.0732     756.5000     790.6203     821.8721     853.8747     185.7748
 4387.1388    4387.1388      72.0478     757.3743     790.2503     828.7442     859.3704     185.8109
 4386.9864    4386.9864      72.1436     757.9997     794.3731     828.5001     862.6235     185.8469
 4386.8340    4386.8340      72.3078     762.6250     795.5000     829.6250     866.3750     185.8831
 4386.6816    4386.6816      72.5009     762.6250     796.1250     834.3750     867.7500     185.9194
 4386.5292    4386.5292      72.6754     762.2471     795.6250     834.4998     868.1255     185.9557
 4386.3768    4386.3768      72.7715     757.7549     795.6250     834.1256     868.8750     185.9921
 4386.2244    4386.2244      72.7546     762.6265     795.6260     834.7503     868.8755     186.0285
 4386.0720    4386.0720      72.7077     763.7498     796.3757     834.9996     869.2487     186.0649
 4385.9196    4385.9196      72.8411     763.6271     796.7613     834.7542     868.5031     186.1013
 4385.7672    4385.7672      73.2225     764.6211     802.1040     836.7422     869.9941     186.1377
 4385.6148    4385.6148      73.6149     764.8741     802.1250     837.1237     874.8576     186.1745
 4385.4624    4385.4624      73.6770     765.8718     803.2464     838.1218     875.7472     186.2114
 4385.3100    4385.3100      73.3171     770.3623     804.1225     842.1137     875.9993     186.2480
 4385.1576    4385.1576      72.8494     765.0132     803.1275     842.3744     875.5012     186.2845
