~VERSION INFORMATION
VERS.           2.0   :CWLS Log ASCII Standard - VERSION 2.0
WRAP.           YES   :Multiple lines per depth step
PROD.  Schlumberger   :LAS Producer
PROG.  DLIS to ASCII 2.3                               :LAS Program name and version
CREA.        2023/07/14 00:15                          :LAS Creation date {YYYY/MM/DD hh:mm}
DLIS_CREA.  2023-Jul-14 00:11                          :DLIS Creation date and time {YYYY-MMM-DD hh:mm}
SOURCE.     LIS_007.dlis                               :DLIS File Name
FILE-ID.     LIS   .003                                :File Identification Number
#--------------------------------------------------
~WELL INFORMATION
#MNEM.UNIT      DATA             DESCRIPTION
#---- ------ --------------   -----------------------------
STRT .M      5238.7500       :START DEPTH     
STOP .M      4241.4444       :STOP DEPTH     
STEP .M        -0.1524       :STEP     
NULL .          -999.25      :NULL VALUE
COMP .        PETROBRAS S.A.                           :COMPANY
WELL .        3-BRSA-293D-SPS                          :WELL
FLD  .        BS-400                                   :FIELD
LOC  .        BASE SAD 69:                             :LOCATION
CNTY .        SANTOS                                   :COUNTY
STAT .        BRASIL                                   :STATE
CTRY .        SANTOS                                   :COUNTRY
API  .                                                 :API NUMBER
UWI  .                                                 :UNIQUE WELL ID
DATE .        23/10/2004                               :LOG DATE
SRVC .        Schlumberger                             :SERVICE COMPANY
LATI .DEG                                              :LATITUDE
LONG .DEG                                              :LONGITUDE
GDAT .                                                 :GeoDetic Datum
#-----------------------------------------------------------------------------
~PARAMETER INFORMATION
#MNEM.UNIT    VALUE                      DESCRIPTION
#---- -----   --------------------       ------------------------
APD  .M               24                 :
BHT  .DEGF           280                 :
BLI  .M             5230                 :
BS   .IN         8.50000                 :
CN   .        PETROBRAS S.A.             :
COUN .        SANTOS                     :
CS   .IN         9.62500                 :
DATE .        23/10/2004                 :
DFD  .LB/G      12.30000                 :
DFL  .C3               2                 :
DFPH .        N/A                        :
DFT  .        SINTETICO                  :
DFV  .S               87                 :
DMF  .        MESA ROTATIVA              :
EDF  .M               24                 :
EGL  .M             -500                 :
EKB  .        N/A                        :
ENGI .        HERNANDEZ/LOCK             :
FL1  .        X   7292392.00 M LAT 24 28 47.189 S :
FL2  .        Y    584087.00 M LON 44 10 12.698 W :
FL3  .        MC  45 GRAUS               :
FN   .        BS-400                     :
LMF  .        MESA ROTATIVA              :
LUL  .        MACAE                      :
MCSS .        PRENSA                     :
MCST .DEGF            80                 :
MFSS .        PRENSA                     :
MFST .DEGF            80                 :
MSS  .        LINHA DE FLUXO             :
MST  .DEGF            80                 :
PDAT .        NIVEL DO MAR               :
R1   .        01. APRESENTAÇÃO DE ACORDO COM REQUERIMENTO DO CLIENTE :
R2   .        02. TEMPERATURA MÁXIMA DO POÇO T1=T2= 260 DEGF @  5180 M :
R3   .        03. INICIO DA CIRCULAÇÃO  13 45 H 21/10/2004 :
R4   .        04. FINAL DA CIRCULAÇÃO   16 00 H 21/10/2004 :
R5   .        05. TEMPO TOTAL DE CIRCULAÇÃO  02 15 H :
R6   .        06. FLUIDO DE PERFURAÇÃO  SINTETICO (BR-MUL  BR-MI)  65% TEOR DO OLEO :
R7   .        07. SALINIDADE DA LAMA  266377 PPM NACL NA FASE DE AGUA :
R8   .        08. INCLINAÇÃO MÁXIMA DO POÇO  37.37 GRAUS @ 5100 M :
R9   .        09. PRIMEIRAS E ULTIMAS LEITURAS  :
RMB  .OHMM    > 10                       :
RMCS .OHMM    > 10                       :
RMFS .OHMM    > 10                       :
RMS  .OHMM    > 10                       :
RUN  .                 1                 :
STAT .        BRASIL                     :
TCS  .        16 00 H                    :
TDD  .M             5230                 :
TDL  .M             5231                 :
TLAB .        N/A                        :
TLI  .M             4277                 :
WITN .        ALCIDIO/VLADIMIR           :
WN   .        3-BRSA-293D-SPS            :
LUN  .              8808                 :
HIDE .        3-SPS-41D                  :
HID2 .        COMPENSATED Z-DENSILOG     :
HID3 .        COMPENSATED NEUTRON LOG    :
HID4 .        GAMMA RAY LOG              :
HID5 .        TTRM SUB                   :
CLAB .        BACIA                      :
SLAB .        PAIS                       :
CMT1 .        ESC  1 1000                :
CMT2 .        PROF. MEDIDA               :
CMT4 .        SONDA  SS-43               :
HDAT .        SAD 69                     :
FL   .        BASE SAD 69                :
OS1  .        HDIL/XMAC/SL/GR            :
OS3  .        MREX/GR                    :
OS5  .        SL/GR                      :
LNAM .        MREX/ZDL/CN/XMAC/HDIL/3DEX/RCI/SL/GR :
TOOL .        MREX/ZDL/CN/XMAC/HDIL/3DEX/RCI/SL/GR :
LSOU .        PETROBRAS                  :
LSRV .        OH WIRELINE                :
LTYP .        RAW                        :
EPD  .M                0                 :
LDAT .        23/10/2004                 :
TRIP .                 1                 :
SON  .            772317                 :
CBDR .M             4277                 :
CBLO .M             4277                 :
CBL1 .M             4277                 :
STEM .DEGF    N/A                        :
BSAL .            266377                 :
BARI .        OFF                        :
DLAB .        21/10/2004                 :
MRT  .DEGF           280                 :
TSTR .        ZDL/CN/GR/TTRM             :
TSTG .        N/A                        :
STUS .        FINAL                      :
LCNM .        BAKER ATLAS                :
LCC  .               150                 :
NATI .        SANTOS                     :
OPMD .        OH.WIRELINE                :
PANA .        HERNANDEZ/LOCK             :
PCON .        BAKER ATLAS                :
R11  .        GR     5222.5 M/4277.0 M   :
R12  .        ZDL    5230.0 M/4277.0 M   :
R13  .        CN     5224.0 M/4277.0 M   :
R15  .        10. PONTO FRACO UTILIZADO  10K :
R17  .        12. DECLINAÇÃO MAGNETICA  -20.9 GRAUS :
R18  .        13. COORDENADAS BASE       :
R21  .        Y    583936.00 M           :
R22  .        MC  45 GRAUS               :
PVER .           4.10000                 :
WDFN .        /space/expusr/3-SPS-41D/i77bf07_4spf.xtf :
OCT  .        i77bf                      :
0S2  .        3DEX/GR                    :
OS4  .        RCI/GR                     :
R16  .        11. CNC CORREGIDO PELO CALIPER E SALINIDADE  PRESENTADO MATRIZ CARBONATO :
R20  .        X   7292512.00 M           :
R24  .        14. CADASTRO ANP  86316021017 :
#-----------------------------------------------------------------------------
~CURVE INFORMATION
#MNEM.UNIT   API CODE                                  DESCRIPTION
#---- -----  --------                                  -----------------------
DEPT .M                                                :DEPTH (BOREHOLE) {F10.4}
DEPT .M                                                : {F13.4}
BIT  .IN                                               : {F13.4}
DEPM .M                                                : {F13.4}
GR   .GAPI                                             : {F13.4}
SPD  .M/MN                                             : {F13.4}
TEN  .LBF                                              : {F13.4}
TTEN .LBF                                              : {F13.4}
CAL  .IN                                               : {F13.4}
CALX .IN                                               : {F13.4}
HRD1 .HZ                                               : {F13.4}
HRD2 .HZ                                               : {F13.4}
PE   .B/E                                              : {F13.4}
SFT2 .HZ                                               : {F13.4}
SOFT .HZ                                               : {F13.4}
SSD  .HZ                                               : {F13.4}
ZCOR .G/C3                                             : {F13.4}
ZDEN .G/C3                                             : {F13.4}
CNC  .PU                                               : {F13.4}
CN   .PU                                               : {F13.4}
LSN  .HZ                                               : {F13.4}
SSN  .HZ                                               : {F13.4}
CNCF .PU                                               : {F13.4}
#-----------------------------------------------------------------------------
# DEPT       
#     DEPT         BIT          DEPM         GR           SPD          TEN          
#     TTEN         CAL          CALX         HRD1         HRD2         PE           
#     SFT2         SOFT         SSD          ZCOR         ZDEN         CNC          
#     CN           LSN          SSN          CNCF         
~A  
# ...
4782.1596
   4782.1596       8.5000    4781.6264      80.2999       6.1711     -52.4057
   6017.7547       8.6644       8.6644     596.2092     809.3280       5.2451
    488.4193     349.9767    6167.1170      -0.0377       2.5835      18.0082
     18.2898    1310.3371    3161.1350      18.0082
4782.0072
   4782.0072       8.5000    4781.4740      79.6599       6.1219     -67.0697
   6002.2632       8.6621       8.6621     589.5924     833.6358       5.7073
    486.1930     339.1912    6167.7579      -0.0410       2.5790      17.7571
     18.0353    1305.3595    3125.8146      17.7571
4781.8548
   4781.8548       8.5000    4781.3216      78.8370       6.0799     -69.8031
   5998.5233       8.6611       8.6611     593.4509     848.4205       6.0084
    482.5054     332.0168    6179.9597      -0.0427       2.5750      17.6609
     17.9377    1298.1728    3099.6799      17.6609
4781.7024
   4781.7024       8.5000    4781.1692      78.8054       6.0795     -56.6737
   6010.6923       8.6616       8.6616     593.7180     834.7133       5.8708
    479.4159     332.9704    6177.9183      -0.0405       2.5783      17.7488
     18.0265    1293.9880    3097.7871      17.7488
4781.5500
   4781.5500       8.5000    4781.0168      79.1612       6.0951     -41.5768
   6025.0413       8.6627       8.6627     590.9206     806.6646       5.4593
    483.4407     339.4291    6165.6504      -0.0364       2.5858      17.7607
     18.0392    1304.2169    3123.4409      17.7607
4781.3976
   4781.3976       8.5000    4780.8644      78.2527       6.0981     -36.9582
   6029.0807       8.6629       8.6629     592.8476     791.6969       5.1542
    494.4828     346.6599    6137.7707      -0.0380       2.5889      17.7554
     18.0342    1318.8958    3158.1260      17.7554
4781.2452
   4781.2452       8.5000    4780.7110      76.7213       6.0939     -37.1487
   6028.3530       8.6624       8.6624     597.7927     800.2854       5.1825
    500.6347     349.2171    6100.7120      -0.0460       2.5848      17.9020
     18.1813    1319.0329    3172.0897      17.9020
4781.0928
   4781.0928       8.5000    4780.5586      76.8840       6.1202     -39.0825
   6025.8613       8.6620       8.6620     602.5560     823.3912       5.5412
    494.5579     342.9570    6113.7178      -0.0494       2.5766      18.1345
     18.4151    1300.7434    3149.3843      18.1345
4780.9404
   4780.9404       8.5000    4780.4063      78.9747       6.1646     -49.2895
   6014.9824       8.6623       8.6623     609.4551     843.9922       5.9885
    487.2961     332.5229    6182.7432      -0.0445       2.5687      18.5349
     18.8182    1266.1738    3101.1807      18.5349
4780.7880
   4780.7880       8.5000    4780.2538      80.3864       6.1741     -57.5783
   6005.8481       8.6619       8.6619     614.4229     853.5217       6.1836
    486.9753     328.7076    6249.4605      -0.0375       2.5644      19.2366
     19.5238    1224.1548    3057.6596      19.2366
4780.6356
   4780.6356       8.5000    4780.1014      80.5696       6.1514     -49.3929
   6013.2223       8.6605       8.6605     616.2320     850.7197       6.0086
    491.3421     335.0065    6265.6532      -0.0350       2.5640      19.7774
     20.0662    1198.7621    3038.3819      19.7774
4780.4832
   4780.4832       8.5000    4779.9490      81.1898       6.1370     -47.7362
   6014.2204       8.6613       8.6613     620.3153     843.4502       5.6485
    497.3279     346.7999    6228.3035      -0.0398       2.5647      19.7661
     20.0555    1198.0803    3035.7884      19.7661
4780.3308
   4780.3308       8.5000    4779.7976      82.0765       6.1266     -63.2173
   5998.0025       8.6642       8.6642     624.8036     839.4528       5.3630
    503.6093     358.2510    6171.1283      -0.0482       2.5654      19.8637
     20.1559    1198.8731    3045.9196      19.8637
4780.1784
   4780.1784       8.5000    4779.6452      80.7937       6.1122     -61.1038
   5999.2489       8.6652       8.6652     615.5996     839.2200       5.3293
    501.0618     360.9104    6131.9578      -0.0522       2.5683      20.6734
     20.9702    1190.8010    3090.1825      20.6734
4780.0260
   4780.0260       8.5000    4779.4928      76.9963       6.1155     -20.3580
   6039.4180       8.6636       8.6636     604.8111     835.4761       5.3937
    491.1629     353.8190    6137.2223      -0.0487       2.5717      20.8721
     21.1685    1217.6652    3175.8471      20.8721
4779.8736
   4779.8736       8.5000    4779.3404      73.7266       6.1509      33.9945
   6093.9045       8.6620       8.6620     619.3058     826.9483       5.4059
    485.0790     348.7987    6198.0160      -0.0409       2.5702      19.5934
     19.8825    1293.5216    3262.4715      19.5934
4779.7212
   4779.7212       8.5000    4779.1880      72.9028       6.1899      60.8461
   6121.4602       8.6604       8.6604     646.5917     826.0753       5.4263
    485.0822     353.3234    6273.1605      -0.0350       2.5639      18.4032
     18.6843    1354.1182    3303.9920      18.4032
4779.5688
   4779.5688       8.5000    4779.0356      72.9098       6.1836      46.0314
   6107.3149       8.6590       8.6590     655.1993     840.4986       5.4476
    487.5658     359.0433    6290.2614      -0.0367       2.5580      18.1829
     18.4615    1361.3702    3300.5879      18.1829
4779.4164
   4779.4164       8.5000    4778.8832      72.6624       6.1395      20.5530
   6082.1169       8.6595       8.6595     648.8088     856.9326       5.5170
    494.1594     356.2216    6258.2883      -0.0431       2.5557      18.3274
     18.6073    1346.8240    3278.9981      18.3274
4779.2640
   4779.2640       8.5000    4778.7308      73.0548       6.1110      27.4941
   6089.2728       8.6607       8.6607     644.7581     852.8664       5.5920
    502.4072     348.2375    6240.9136      -0.0441       2.5581      18.3469
     18.6278    1335.7627    3253.9746      18.3469
4779.1116
   4779.1116       8.5000    4778.5784      73.8415       6.1108      50.5006
   6112.8464       8.6610       8.6610     638.4928     836.5238       5.5961
    505.5442     345.8871    6253.9769      -0.0382       2.5641      18.1769
     18.4570    1337.6285    3242.6036      18.1769
4778.9592
   4778.9592       8.5000    4778.4260      74.2095       6.1132      36.7639
   6099.7676       8.6612       8.6612     628.0018     830.0329       5.5928
    501.1611     346.7625    6265.0901      -0.0334       2.5689      17.6548
     17.9316    1372.4059    3276.3437      17.6548
4778.8068
   4778.8068       8.5000    4778.2726      74.5031       6.1176     -15.2960
   6047.8369       8.6628       8.6628     623.3200     835.0328       5.7158
    493.6511     341.4059    6254.5752      -0.0350       2.5699      16.7294
     17.0006    1451.3253    3368.6370      16.7294
4778.6544
   4778.6544       8.5000    4778.1202      74.0095       6.1395     -57.2285
   6005.3490       8.6642       8.6642     620.3854     838.2711       5.9111
    486.3113     332.7094    6231.2984      -0.0384       2.5699      15.7110
     15.9749    1554.0913    3491.7079      15.7110
4778.5020
   4778.5020       8.5000    4777.9688      72.0269       6.1797     -71.1669
   5990.4951       8.6638       8.6638     610.3907     841.5018       6.0081
    482.7306     330.2407    6218.7842      -0.0390       2.5715      15.0554
     15.3133    1636.5576    3597.3491      15.0554
4778.3496
   4778.3496       8.5000    4777.8164      69.2270       6.2021     -76.2131
   5984.4121       8.6611       8.6611     594.0930     843.0338       5.9960
    483.7883     332.0258    6221.7637      -0.0358       2.5760      15.0023
     15.2579    1655.5535    3632.3188      15.0023
4778.1972
   4778.1972       8.5000    4777.6630      67.3608       6.1734     -73.6523
   5985.9068       8.6551       8.6551     575.3284     827.5969       5.7716
    479.8244     334.4903    6198.4310      -0.0327       2.5858      15.2658
     15.5197    1603.7926    3549.7717      15.2658
4778.0448
   4778.0448       8.5000    4777.5106      70.7681       6.1294     -57.6782
   6000.9262       8.6479       8.6479     564.2927     796.8226       5.4362
    461.6977     336.9015    6139.9435      -0.0331       2.5972      15.7557
     16.0086    1496.1169    3365.1365      15.7557
