~VERSION INFORMATION
VERS.           2.0   :CWLS Log ASCII Standard - VERSION 2.0
WRAP.           NO    :One Line per depth step
PROD.  Schlumberger   :LAS Producer
PROG.  DLIS to ASCII 2.3                               :LAS Program name and version
CREA.        2023/07/14 00:15                          :LAS Creation date {YYYY/MM/DD hh:mm}
DLIS_CREA.  2023-Jul-14 00:11                          :DLIS Creation date and time {YYYY-MMM-DD hh:mm}
SOURCE.     LIS_009.dlis                               :DLIS File Name
FILE-ID.     LIS   .002                                :File Identification Number
#--------------------------------------------------
~WELL INFORMATION
#MNEM.UNIT      DATA             DESCRIPTION
#---- ------ --------------   -----------------------------
STRT .M      5301.9960       :START DEPTH     
STOP .M      5058.6132       :STOP DEPTH     
STEP .M        -0.1524       :STEP     
NULL .          -999.25      :NULL VALUE
COMP .        PETROBRAS S.A.                           :COMPANY
WELL .        3-BRSA-293D-SPS                          :WELL
FLD  .        BS-400                                   :FIELD
LOC  .        BASE SAD 69:                             :LOCATION
CNTY .        SANTOS                                   :COUNTY
STAT .        BRASIL                                   :STATE
CTRY .        BRASIL                                   :COUNTRY
API  .                                                 :API NUMBER
UWI  .                                                 :UNIQUE WELL ID
DATE .        15/11/2004                               :LOG DATE
SRVC .        Schlumberger                             :SERVICE COMPANY
LATI .DEG                                              :LATITUDE
LONG .DEG                                              :LONGITUDE
GDAT .                                                 :GeoDetic Datum
#-----------------------------------------------------------------------------
~PARAMETER INFORMATION
#MNEM.UNIT    VALUE                      DESCRIPTION
#---- -----   --------------------       ------------------------
APD  .M               24                 :
BHT  .DEGF           260                 :
BLI  .M             5289                 :
BS   .IN         8.50000                 :
CN   .        PETROBRAS S.A.             :
COUN .        SANTOS                     :
CS   .IN         9.62500                 :
DATE .        15/11/2004                 :
DFD  .LB/G      12.30000                 :
DFL  .C3               2                 :
DFPH .        N/A                        :
DFT  .        SINTETICO                  :
DFV  .S               95                 :
DMF  .        MESA ROTATIVA              :
EDF  .M               24                 :
EGL  .M             -500                 :
EKB  .        N/A                        :
ENGI .        HERNANDEZ / LOCK           :
FL1  .        X   7292392.00 M LAT 24 28 47.189 S :
FL2  .        Y    584087.00 M LON 44 10 12.698 W :
FL3  .        MC  45 GRAUS               :
FN   .        BS-400                     :
LMF  .        MESA ROTATIVA              :
LUL  .        MACAE                      :
MCSS .        PRENSA                     :
MCST .DEGF            80                 :
MFSS .        PRENSA                     :
MFST .DEGF            80                 :
MSS  .        LINHA DE FLUXO             :
MST  .DEGF            80                 :
PDAT .        NIVEL DO MAR               :
R1   .        01. APRESENTAÇÃO DE ACORDO COM REQUERIMENTO DO CLIENTE :
R2   .        02. TEMPERATURA MÁXIMA DO POÇO T1=T2= 290 DEGF @  5275 M :
R3   .        03. INICIO DA CIRCULAÇÃO  12/11/2004 09 00 H :
R4   .        04. FINAL DA CIRCULAÇÃO   12/11/2004 18 00 H :
R5   .        05. TEMPO TOTAL DE CIRCULAÇÃO   09 00 H :
R6   .        06. FLUIDO DE PERFURAÇÃO  SINTETICO (BR-MUL  BR-MI)  60% TEOR DO OLEO :
R7   .        07. SALINIDADE DA LAMA  254762 PPM NACL NA FASE DE AGUA :
R8   .        08. INCLINAÇÃO MÁXIMA DO POÇO  37.37 GRAUS @ 5100 M :
R9   .        09. PRIMEIRAS E ULTIMAS LEITURAS  :
RMB  .OHMM    > 10                       :
RMCS .OHMM    > 10                       :
RMFS .OHMM    > 10                       :
RMS  .OHMM    >10                        :
RUN  .                 2                 :
STAT .        BRASIL                     :
TCS  .        18 00 H                    :
TDD  .M             5288                 :
TDL  .M             5293                 :
TLAB .        N/A                        :
TLI  .M             5000                 :
WITN .        ERNANI / ZE MARIA          :
WN   .        3-BRSA-293D-SPS            :
LUN  .              8808                 :
HIDE .        3-SPS-41D                  :
HID2 .        HIGH DEFINITION INDUCTION LOG :
HID3 .        X-MULTIPOLE ARRAY ACOUSTILOG :
HID4 .        GAMMA RAY LOG              :
HID5 .        TTRM SUB                   :
CLAB .        BACIA                      :
SLAB .        PAIS                       :
CMT1 .        ESC  1 200                 :
CMT2 .        PROF. MEDIDA               :
CMT4 .        SONDA  SS-43               :
HDAT .        SAD 69                     :
FL   .        BASE SAD 69                :
OS1  .        RCI/GR                     :
OS2  .        CHECK SHOT                 :
OS3  .        GR/CN/ZDL                  :
OS5  .        RCOR/GR                    :
LNAM .        ZDL/CN/XMAC/HDIL/EARTH IMAGER/RCI/RCOR/CHECK SHOT/GR :
TOOL .        ZDL/CN/XMAC/HDIL/EARTH IMAGER/RCI/RCOR/CHECK SHOT/GR :
LSOU .        PETROBRAS                  :
LSRV .        OH WIRELINE                :
LTYP .        RAW                        :
EPD  .M                0                 :
LDAT .        15/11/2004                 :
TRIP .                 3                 :
SON  .            786588                 :
CBDR .M             4277                 :
CBLO .        NR                         :
CBL1 .        NR                         :
STEM .DEGF    N/A                        :
BSAL .            254762                 :
BARI .        OFF                        :
DLAB .        12/11/2004                 :
MRT  .DEGF           290                 :
TSTR .        HDIL/XMAC/GR/TTRM          :
TSTG .        N/A                        :
STUS .        FINAL                      :
LCNM .        BAKER ATLAS                :
LCC  .               150                 :
NATI .        BRASIL                     :
OPMD .        OH.WIRELINE                :
PANA .        HERNANDEZ / LOCK           :
PCON .        BAKER ATLAS                :
R11  .        SL     5268.3 M / 5000.0 M :
R12  .        GR     5268.3 M / 5000.0 M :
R13  .        XMAC   5279.5 M / 5000.0 M :
R14  .        HDIL   5289.0 M / 5000.0 M :
R17  .        11. DECLINAÇÃO MAGNETICA  -20.9 GRAUS :
R18  .        12. COORDENADAS BASE       :
R21  .        Y    583936.00 M           :
R22  .        MC  45 GRAUS               :
PVER .           4.10000                 :
WDFN .        /space/expusr/3-SPS-41D_RUN2/i77bf01_4spf.xtf :
OCT  .        i77bf                      :
OS4  .        EARTH IMAGER               :
R16  .        10. PONTO FRACO UTILIZADO  10K :
R20  .        X   7292512.00 M           :
R24  .        13. CADASTRO ANP  86316021017 :
#-----------------------------------------------------------------------------
~CURVE INFORMATION
#MNEM.UNIT   API CODE                                  DESCRIPTION
#---- -----  --------                                  -----------------------
DEPT .M                                                :DEPTH (BOREHOLE) {F10.4}
DEPT .M                                                : {F13.4}
BIT  .IN                                               : {F13.4}
GR   .GAPI                                             : {F13.4}
M2R1 .OHMM                                             : {F13.4}
M2R2 .OHMM                                             : {F13.4}
M2R3 .OHMM                                             : {F13.4}
M2R6 .OHMM                                             : {F13.4}
M2R9 .OHMM                                             : {F13.4}
M2RX .OHMM                                             : {F13.4}
SPD  .M/MN                                             : {F13.4}
TEN  .LBF                                              : {F13.4}
TTEN .LBF                                              : {F13.4}
#-----------------------------------------------------------------------------
# 
#     DEPT        DEPT         BIT          GR           M2R1         M2R2         M2R3         M2R6         M2R9         M2RX         SPD          TEN          TTEN
#
~A  
# ...
 5280.0504    5280.0504       8.5000    -999.2500       4.3441       5.2646       5.7965       6.2175       6.3305       6.4890       4.6318     332.1033    7813.2778
 5279.8980    5279.8980       8.5000    -999.2500       4.5476       5.3806       5.8835       6.3065       6.4186       6.5753       4.6350     358.8353    7846.6225
 5279.7456    5279.7456       8.5000    -999.2500       4.6245       5.3927       5.8886       6.3167       6.4267       6.5799       4.6305     387.2266    7882.0985
 5279.5932    5279.5932       8.5000    -999.2500       4.6560       5.4342       5.9656       6.4168       6.5267       6.6794       4.6280     373.1627    7875.0191
 5279.4408    5279.4408       8.5000    -999.2500       4.7002       5.5924       6.2106       6.7105       6.8229       6.9803       4.6290     305.2031    7813.1531
 5279.2884    5279.2884       8.5000    -999.2500       4.6478       5.7121       6.4445       7.0041       7.1182       7.2805       4.6276     231.9142    7744.6897
 5279.1360    5279.1360       8.5000    -999.2500       4.3240       5.4960       6.3051       6.8946       7.0022       7.1596       4.6230     194.1608    7710.7829
 5278.9836    5278.9836       8.5000    -999.2500       3.8696       5.0433       5.8686       6.4517       6.5463       6.6909       4.6182     187.8035    7707.8499
 5278.8312    5278.8312       8.5000    -999.2500       3.5421       4.6868       5.5037       6.0698       6.1507       6.2829       4.6228     192.6025    7716.1410
 5278.6788    5278.6788       8.5000    -999.2500       3.3762       4.5042       5.3091       5.8584       5.9267       6.0494       4.6377     185.6204    7712.8158
 5278.5264    5278.5264       8.5000    -999.2500       3.2887       4.4018       5.1823       5.7047       5.7591       5.8722       4.6476     171.9055    7702.6123
 5278.3740    5278.3740       8.5000    -999.2500       3.2107       4.2944       5.0331       5.5137       5.5535       5.6554       4.6445     165.3877    7699.2881
 5278.2216    5278.2216       8.5000    -999.2500       3.1429       4.1892       4.8780       5.3086       5.3336       5.4233       4.6371     159.1708    7696.0082
 5278.0692    5278.0692       8.5000    -999.2500       3.1627       4.1938       4.8462       5.2388       5.2509       5.3305       4.6318     143.3972    7682.9474
 5277.9168    5277.9168       8.5000    -999.2500       3.2981       4.3441       4.9856       5.3508       5.3515       5.4228       4.6304     122.6387    7664.6086
 5277.7644    5277.7644       8.5000    -999.2500       3.4813       4.5474       5.1894       5.5353       5.5271       5.5901       4.6329     108.2473    7652.3617
 5277.6120    5277.6120       8.5000    -999.2500       3.6765       4.7618       5.4116       5.7446       5.7299       5.7842       4.6357     111.3555    7657.5483
 5277.4596    5277.4596       8.5000    -999.2500       3.8712       4.9888       5.6589       5.9881       5.9703       6.0162       4.6390     123.0537    7671.5311
 5277.3072    5277.3072       8.5000    -999.2500       3.9544       5.1092       5.7992       6.1239       6.1065       6.1432       4.6456     118.8851    7669.7633
 5277.1548    5277.1548       8.5000     109.7448       3.8358       5.0168       5.7130       6.0250       6.0118       6.0393       4.6517     108.7155    7661.8123
 5277.0024    5277.0024       8.5000     104.3455       3.6472       4.8677       5.5710       5.8677       5.8610       5.8814       4.6542     121.0687    7676.3860
 5276.8500    5276.8500       8.5000     104.8596       3.5734       4.8873       5.6237       5.9142       5.9157       5.9326       4.6518     143.8087    7701.6849
 5276.6976    5276.6976       8.5000     105.1635       3.6639       5.1284       5.9265       6.2212       6.2329       6.2497       4.6436     151.6579    7712.3389
 5276.5452    5276.5452       8.5000     105.0714       3.8744       5.5069       6.3804       6.6875       6.7132       6.7340       4.6342     155.7732    7719.3306
 5276.3928    5276.3928       8.5000     105.3625       4.1112       5.8485       6.7823       7.1057       7.1485       7.1769       4.6333     171.5830    7738.1872
 5276.2404    5276.2404       8.5000     105.8280       4.2900       6.0104       6.9717       7.3167       7.3792       7.4177       4.6384     187.4284    7757.3847
 5276.0880    5276.0880       8.5000     105.5177       4.4351       6.0612       7.0338       7.4130       7.4962       7.5463       4.6416     203.4630    7777.1806
 5275.9356    5275.9355       8.5000     104.6956       4.5440       6.0694       7.0521       7.4809       7.5853       7.6475       4.6413     229.6650    7807.7168
 5275.7832    5275.7832       8.5000     104.6826       4.4907       5.9305       6.9050       7.3814       7.5029       7.5744       4.6412     255.0249    7837.9854
 5275.6308    5275.6309       8.5000     105.6155       4.2692       5.6491       6.5933       7.1003       7.2313       7.3078       4.6415     266.8922    7855.1172
 5275.4784    5275.4784       8.5000     106.4935       3.9588       5.2868       6.1849       6.6928       6.8243       6.9010       4.6408     249.3035    7842.7159
 5275.3260    5275.3260       8.5000     106.7471       3.6179       4.8644       5.6874       6.1742       6.2974       6.3697       4.6364     198.0345    7795.8698
 5275.1736    5275.1736       8.5000     107.1203       3.3348       4.4687       5.2077       5.6561       5.7654       5.8311       4.6278     150.0249    7751.2265
 5275.0212    5275.0212       8.5000     107.5099       3.1802       4.1993       4.8666       5.2776       5.3728       5.4324       4.6226     136.2760    7740.2264
 5274.8688    5274.8688       8.5000     108.0496       3.1934       4.1338       4.7605       5.1498       5.2342       5.2900       4.6310     134.5606    7741.1511
 5274.7164    5274.7164       8.5000     109.2289       3.4093       4.3489       4.9832       5.3777       5.4567       5.5126       4.6475     126.3197    7735.4613
 5274.5640    5274.5640       8.5000     110.2317       3.7911       4.8366       5.5331       5.9622       6.0414       6.1020       4.6546     127.3275    7738.8729
 5274.4116    5274.4116       8.5000     110.0537       4.0867       5.2924       6.0669       6.5363       6.6176       6.6844       4.6498     140.6568    7754.6806
 5274.2592    5274.2592       8.5000     109.2109       4.0235       5.3179       6.1227       6.6026       6.6830       6.7530       4.6410     138.8823    7755.5349
 5274.1068    5274.1068       8.5000     107.3844       3.7256       4.9882       5.7692       6.2330       6.3115       6.3824       4.6351     105.5333    7724.4983
 5273.9544    5273.9544       8.5000     105.3339       3.5012       4.6843       5.4330       5.8836       5.9642       6.0385       4.6320      75.1947    7695.8462
 5273.8020    5273.8020       8.5000     105.2725       3.4590       4.5724       5.3076       5.7625       5.8509       5.9330       4.6298      85.1853    7707.3957
 5273.6496    5273.6496       8.5000     106.0885       3.5966       4.6678       5.4150       5.8954       5.9978       6.0933       4.6313     105.4215    7729.5087
 5273.4972    5273.4972       8.5000     106.1324       3.9232       4.9990       5.7933       6.3262       6.4508       6.5670       4.6425      92.3808    7718.2705
 5273.3448    5273.3448       8.5000     106.2840       4.3907       5.5236       6.3984       7.0104       7.1655       7.3101       4.6550      69.0079    7696.2700
 5273.1924    5273.1924       8.5000     107.5585       4.7326       5.9301       6.8747       7.5600       7.7457       7.9180       4.6565      62.3492    7690.7959
 5273.0400    5273.0400       8.5000     108.6014       4.6820       5.9078       6.8680       7.5818       7.7855       7.9729       4.6498      60.0339    7689.6650
 5272.8876    5272.8876       8.5000     108.8655       4.3587       5.5972       6.5402       7.2461       7.4554       7.6457       4.6430      59.9066    7690.7289
