~VERSION INFORMATION
VERS.           2.0   :CWLS Log ASCII Standard - VERSION 2.0
WRAP.           NO    :One Line per depth step
PROD.  Schlumberger   :LAS Producer
PROG.  DLIS to ASCII 2.3                               :LAS Program name and version
CREA.        2023/07/14 00:15                          :LAS Creation date {YYYY/MM/DD hh:mm}
DLIS_CREA.  2023-Jul-14 00:11                          :DLIS Creation date and time {YYYY-MMM-DD hh:mm}
SOURCE.     LIS_008.dlis                               :DLIS File Name
FILE-ID.     LIS   .001                                :File Identification Number
#--------------------------------------------------
~WELL INFORMATION
#MNEM.UNIT      DATA             DESCRIPTION
#---- ------ --------------   -----------------------------
STRT .M      5286.4512       :START DEPTH     
STOP .M      5066.6904       :STOP DEPTH     
STEP .M        -0.1524       :STEP     
NULL .          -999.25      :NULL VALUE
COMP .        PETROBRAS S.A.                           :COMPANY
WELL .        3-BRSA-293D-SPS                          :WELL
FLD  .        BS-400                                   :FIELD
LOC  .        BASE SAD 69:                             :LOCATION
CNTY .        SANTOS                                   :COUNTY
STAT .        BRASIL                                   :STATE
CTRY .        BRASIL                                   :COUNTRY
API  .                                                 :API NUMBER
UWI  .                                                 :UNIQUE WELL ID
DATE .        15/11/2004                               :LOG DATE
SRVC .        Schlumberger                             :SERVICE COMPANY
LATI .DEG                                              :LATITUDE
LONG .DEG                                              :LONGITUDE
GDAT .                                                 :GeoDetic Datum
#-----------------------------------------------------------------------------
~PARAMETER INFORMATION
#MNEM.UNIT    VALUE                      DESCRIPTION
#---- -----   --------------------       ------------------------
APD  .M               24                 :
BHT  .DEGF           260                 :
BLI  .M             5289                 :
BS   .IN         8.50000                 :
CN   .        PETROBRAS S.A.             :
COUN .        SANTOS                     :
CS   .IN         9.62500                 :
DATE .        15/11/2004                 :
DFD  .LB/G      12.30000                 :
DFL  .C3               2                 :
DFPH .        N/A                        :
DFT  .        SINTETICO                  :
DFV  .S               95                 :
DMF  .        MESA ROTATIVA              :
EDF  .M               24                 :
EGL  .M             -500                 :
EKB  .        N/A                        :
ENGI .        HERNANDEZ / LOCK           :
FL1  .        X   7292392.00 M LAT 24 28 47.189 S :
FL2  .        Y    584087.00 M LON 44 10 12.698 W :
FL3  .        MC  45 GRAUS               :
FN   .        BS-400                     :
LMF  .        MESA ROTATIVA              :
LUL  .        MACAE                      :
MCSS .        PRENSA                     :
MCST .DEGF            80                 :
MFSS .        PRENSA                     :
MFST .DEGF            80                 :
MSS  .        LINHA DE FLUXO             :
MST  .DEGF            80                 :
PDAT .        NIVEL DO MAR               :
R1   .        01. APRESENTAÇÃO DE ACORDO COM REQUERIMENTO DO CLIENTE :
R2   .        02. TEMPERATURA MÁXIMA DO POÇO T1=T2= 290 DEGF @  5275 M :
R3   .        03. INICIO DA CIRCULAÇÃO  12/11/2004 09 00 H :
R4   .        04. FINAL DA CIRCULAÇÃO   12/11/2004 18 00 H :
R5   .        05. TEMPO TOTAL DE CIRCULAÇÃO   09 00 H :
R6   .        06. FLUIDO DE PERFURAÇÃO  SINTETICO (BR-MUL  BR-MI)  60% TEOR DO OLEO :
R7   .        07. SALINIDADE DA LAMA  254762 PPM NACL NA FASE DE AGUA :
R8   .        08. INCLINAÇÃO MÁXIMA DO POÇO  37.37 GRAUS @ 5100 M :
R9   .        09. PRIMEIRAS E ULTIMAS LEITURAS  :
RMB  .OHMM    > 10                       :
RMCS .OHMM    > 10                       :
RMFS .OHMM    > 10                       :
RMS  .OHMM    >10                        :
RUN  .                 2                 :
STAT .        BRASIL                     :
TCS  .        18 00 H                    :
TDD  .M             5288                 :
TDL  .M             5293                 :
TLAB .        N/A                        :
TLI  .M             5000                 :
WITN .        ERNANI / ZE MARIA          :
WN   .        3-BRSA-293D-SPS            :
LUN  .              8808                 :
HIDE .        3-SPS-41D                  :
HID2 .        HIGH DEFINITION INDUCTION LOG :
HID3 .        X-MULTIPOLE ARRAY ACOUSTILOG :
HID4 .        GAMMA RAY LOG              :
HID5 .        TTRM SUB                   :
CLAB .        BACIA                      :
SLAB .        PAIS                       :
CMT1 .        ESC  1 200                 :
CMT2 .        PROF. MEDIDA               :
CMT4 .        SONDA  SS-43               :
HDAT .        SAD 69                     :
FL   .        BASE SAD 69                :
OS1  .        RCI/GR                     :
OS2  .        CHECK SHOT                 :
OS3  .        GR/CN/ZDL                  :
OS5  .        RCOR/GR                    :
LNAM .        ZDL/CN/XMAC/HDIL/EARTH IMAGER/RCI/RCOR/CHECK SHOT/GR :
TOOL .        ZDL/CN/XMAC/HDIL/EARTH IMAGER/RCI/RCOR/CHECK SHOT/GR :
LSOU .        PETROBRAS                  :
LSRV .        OH WIRELINE                :
LTYP .        RAW                        :
EPD  .M                0                 :
LDAT .        15/11/2004                 :
TRIP .                 3                 :
SON  .            786588                 :
CBDR .M             4277                 :
CBLO .        NR                         :
CBL1 .        NR                         :
STEM .DEGF    N/A                        :
BSAL .            254762                 :
BARI .        OFF                        :
DLAB .        12/11/2004                 :
MRT  .DEGF           290                 :
TSTR .        HDIL/XMAC/GR/TTRM          :
TSTG .        N/A                        :
STUS .        FINAL                      :
LCNM .        BAKER ATLAS                :
LCC  .               150                 :
NATI .        BRASIL                     :
OPMD .        OH.WIRELINE                :
PANA .        HERNANDEZ / LOCK           :
PCON .        BAKER ATLAS                :
R11  .        SL     5268.3 M / 5000.0 M :
R12  .        GR     5268.3 M / 5000.0 M :
R13  .        XMAC   5279.5 M / 5000.0 M :
R14  .        HDIL   5289.0 M / 5000.0 M :
R17  .        11. DECLINAÇÃO MAGNETICA  -20.9 GRAUS :
R18  .        12. COORDENADAS BASE       :
R21  .        Y    583936.00 M           :
R22  .        MC  45 GRAUS               :
PVER .           4.10000                 :
WDFN .        /space/expusr/3-SPS-41D_RUN2/i77bf01_2spf.xtf :
OCT  .        i77bf                      :
OS4  .        EARTH IMAGER               :
R16  .        10. PONTO FRACO UTILIZADO  10K :
R20  .        X   7292512.00 M           :
R24  .        13. CADASTRO ANP  86316021017 :
#-----------------------------------------------------------------------------
~CURVE INFORMATION
#MNEM.UNIT   API CODE                                  DESCRIPTION
#---- -----  --------                                  -----------------------
DEPT .M                                                :DEPTH (BOREHOLE) {F10.4}
DEPT .M                                                : {F13.4}
DT   .US/F                                             : {F13.4}
SFN1 .US                                               : {F13.4}
SFN2 .US                                               : {F13.4}
SFN3 .US                                               : {F13.4}
SFN4 .US                                               : {F13.4}
TT   .MS                                               : {F13.4}
#-----------------------------------------------------------------------------
# 
#     DEPT        DEPT         DT           SFN1         SFN2         SFN3         SFN4         TT
#
~A  
# ...
 5117.8968    5117.8968      66.8943     692.5000     723.3747     760.0000     792.0000      36.4038
 5117.7444    5117.7444      67.6400     689.1307     723.3750     760.0000     791.7504      36.4376
 5117.5920    5117.5920      68.5541     692.4955     720.0045     760.0000     791.3755      36.4719
 5117.4396    5117.4396      69.4167     698.2445     727.9923     757.8770     791.3750      36.5066
 5117.2872    5117.2872      69.9258     697.3755     729.2493     765.2456     794.1234      36.5416
 5117.1348    5117.1348      69.8756     697.5000     728.7500     767.5000     797.2500      36.5766
 5116.9824    5116.9824      69.3191     698.2500     728.7500     767.6250     799.5000      36.6112
 5116.8300    5116.8300      68.5447     696.0000     728.8746     767.3751     799.0004      36.6455
 5116.6776    5116.6776      67.8535     696.0000     727.9998     767.6222     799.8747      36.6795
 5116.5252    5116.5252      67.3602     695.9991     727.7484     764.4981     799.4961      36.7131
 5116.3728    5116.3728      67.0022     695.2536     726.5059     763.0071     796.3899      36.7464
 5116.2204    5116.2204      66.7143     695.6233     727.1222     762.3778     796.9972      36.7798
 5116.0680    5116.0680      66.5575     695.9985     726.5025     761.1301     794.5101      36.8131
 5115.9156    5115.9156      66.6578     695.2528     726.5000     761.2495     793.2546      36.8464
 5115.7632    5115.7632      67.1050     695.1254     725.5033     760.7517     793.6238      36.8800
 5115.6108    5115.6108      67.8537     694.7511     725.8739     761.3732     794.1235      36.9139
 5115.4584    5115.4584      68.7683     695.9968     726.1244     761.0010     793.7510      36.9483
 5115.3060    5115.3060      69.7032     696.0000     726.8733     761.4989     793.3758      36.9832
 5115.1536    5115.1536      70.4711     695.8752     727.9979     767.9881     799.1144      37.0185
 5115.0012    5115.0012      70.8845     695.7502     729.2482     768.0000     800.6228      37.0539
 5114.8488    5114.8488      70.8605     696.1246     729.6246     768.0000     800.0007      37.0894
 5114.6964    5114.6964      70.4083     696.0001     731.1239     768.0000     800.3747      37.1246
 5114.5440    5114.5439      69.6566     691.5000     727.5000     768.0000     800.1250      37.1594
 5114.3916    5114.3916      68.8259     689.3750     722.5000     763.1250     800.0000      37.1938
 5114.2392    5114.2393      68.0898     689.6250     720.8750     760.0000     795.1250      37.2279
 5114.0868    5114.0868      67.5631     689.5001     721.3750     758.6251     791.9991      37.2617
 5113.9344    5113.9344      67.3187     689.6249     721.3746     758.7499     790.7501      37.2954
 5113.7820    5113.7820      67.3177     689.5006     721.0018     758.6256     790.8744      37.3288
 5113.6296    5113.6296      67.4148     688.6290     721.1244     758.6250     790.9994      37.3625
 5113.4772    5113.4772      67.5240     690.4922     720.2537     758.3760     790.8755      37.3963
 5113.3248    5113.3248      67.6614     689.6283     721.1217     759.1221     790.6260      37.4302
 5113.1724    5113.1724      67.9478     689.7496     720.8759     758.3776     790.0022      37.4641
 5113.0200    5113.0200      68.5290     689.6254     720.7504     757.7519     789.7508      37.4984
 5112.8676    5112.8676      69.3694     689.7497     720.7500     759.9939     792.3679      37.5331
 5112.7152    5112.7152      70.2763     689.6253     720.7500     760.1247     796.9892      37.5683
 5112.5628    5112.5628      71.0381     689.0012     720.7500     760.2498     797.0000      37.6038
 5112.4104    5112.4104      71.5270     688.5008     721.9980     761.2484     797.0000      37.6396
 5112.2580    5112.2580      71.7515     688.3752     722.7491     762.1239     797.3745      37.6755
 5112.1056    5112.1056      71.7847     688.4999     722.8749     762.9992     797.8746      37.7114
 5111.9532    5111.9532      71.6622     688.5000     722.8750     763.0000     797.3752      37.7472
 5111.8008    5111.8008      71.3731     691.1250     722.8750     763.0000     797.3750      37.7829
 5111.6484    5111.6484      70.8809     690.3750     727.0000     763.1250     797.3750      37.8184
 5111.4960    5111.4960      70.2650     695.9992     722.7529     765.3717     797.1252      37.8535
 5111.3436    5111.3436      69.8604     694.6264     727.4999     760.0047     797.4946      37.8885
 5111.1912    5111.1912      69.9941     696.0000     727.3758     764.7476     792.0092      37.9235
 5111.0388    5111.0388      70.6726     696.0000     727.9971     763.0082     798.8430      37.9586
 5110.8864    5110.8864      71.4947     696.0000     728.0000     764.2446     796.8836      37.9944
 5110.7340    5110.7340      71.8438     696.0000     728.0000     764.7480     797.3730      38.0303
 5110.5816    5110.5816      71.4472     696.0000     727.7509     764.8746     798.2469      38.0660
 5110.4292    5110.4292      70.6349     696.0000     727.7500     764.5012     798.6238      38.1014
 5110.2768    5110.2768      70.0122     696.0000     728.2486     766.4943     798.5004      38.1364
 5110.1244    5110.1244      69.9313     696.0000     728.1253     767.2481     799.9963      38.1714
 5109.9720    5109.9720      70.2931     696.0000     728.1250     767.2500     800.7484      38.2065
 5109.8196    5109.8196      70.6765     696.0000     728.0002     767.3748     801.6235      38.2419
 5109.6672    5109.6672      70.7387     696.0000     728.1248     767.3750     801.6250      38.2773
 5109.5148    5109.5148      70.4403     696.0000     728.0001     767.2501     801.5001      38.3125
 5109.3624    5109.3624      69.7867     696.0000     728.1249     767.3749     801.6249      38.3474
 5109.2100    5109.2100      68.7844     696.0000     728.1250     767.3750     801.6250      38.3818
 5109.0576    5109.0576      67.5757     696.0000     728.1250     767.3750     801.6250      38.4156
 5108.9052    5108.9052      66.4828     696.0000     728.2500     767.3751     801.5001      38.4489
 5108.7528    5108.7528      65.9387     696.0000     728.2500     767.4999     801.6250      38.4818
 5108.6004    5108.6004      66.1158     696.0000     728.2498     767.3750     801.6250      38.5149
 5108.4480    5108.4480      66.6913     696.0000     728.1256     767.3750     801.6250      38.5481
 5108.2956    5108.2956      67.1463     696.0000     728.1250     767.3750     801.5006      38.5816
 5108.1432    5108.1432      67.2229     689.0286     728.1250     767.3750     801.5000      38.6153
 5107.9908    5107.9908      67.0916     401.0730     717.7885     767.3750     801.3755      38.6488
 5107.8384    5107.8384      67.0986     679.0638     711.1472     748.3139     802.1225      38.6824
 5107.6860    5107.6860      67.4128     680.0000     710.2526     750.7426     781.4367      38.7161
 5107.5336    5107.5336      67.9273     680.0000     711.7461     747.7578     405.7312      38.7501
 5107.3812    5107.3812      68.4810     679.0022     711.3758     748.3736     781.9048      38.7843
 5107.2288    5107.2288      68.9989     676.2551     710.6264     748.4998     783.2491      38.8188
 5107.0764    5107.0764      69.3919     675.1267     708.7528     745.8789     783.3748      38.8536
 5106.9240    5106.9240      69.5055     674.5007     709.9986     747.3733     783.9993      38.8883
 5106.7716    5106.7716      69.2501     676.3736     707.5019     745.7512     782.2513      38.9230
 5106.6192    5106.6191      68.7085     676.5000     708.5000     744.0000     780.3750      38.9573
 5106.4668    5106.4668      68.0757     675.5000     708.3750     744.2500     778.1250      38.9914
 5106.3144    5106.3145      67.5134     678.1250     708.7500     744.0000     777.1250      39.0251
 5106.1620    5106.1620      67.0831     689.2539     708.7589     744.5004     777.6255      39.0587
 5106.0096    5106.0096      66.8055     694.7477     721.1282     745.1401     778.3734      39.0921
