~VERSION INFORMATION
VERS.           2.0   :CWLS Log ASCII Standard - VERSION 2.0
WRAP.           NO    :One Line per depth step
PROD.  Schlumberger   :LAS Producer
PROG.  DLIS to ASCII 2.3                               :LAS Program name and version
CREA.        2023/07/14 00:15                          :LAS Creation date {YYYY/MM/DD hh:mm}
DLIS_CREA.  2023-Jul-14 00:11                          :DLIS Creation date and time {YYYY-MMM-DD hh:mm}
SOURCE.     LIS_003.dlis                               :DLIS File Name
FILE-ID.     LIS   .003                                :File Identification Number
#--------------------------------------------------
~WELL INFORMATION
#MNEM.UNIT      DATA             DESCRIPTION
#---- ------ --------------   -----------------------------
STRT .M      5239.8168       :START DEPTH     
STOP .M      3827.6784       :STOP DEPTH     
STEP .M        -0.1524       :STEP     
NULL .          -999.25      :NULL VALUE
COMP .        PETROBRAS S.A.                           :COMPANY
WELL .        3-BRSA-293D-SPS                          :WELL
FLD  .        BS-400                                   :FIELD
LOC  .        BASE SAD 69:                             :LOCATION
CNTY .        SANTOS                                   :COUNTY
STAT .        BRASIL                                   :STATE
CTRY .        BRASIL                                   :COUNTRY
API  .                                                 :API NUMBER
UWI  .                                                 :UNIQUE WELL ID
DATE .        22/10/2004                               :LOG DATE
SRVC .        Schlumberger                             :SERVICE COMPANY
LATI .DEG                                              :LATITUDE
LONG .DEG                                              :LONGITUDE
GDAT .                                                 :GeoDetic Datum
#-----------------------------------------------------------------------------
~PARAMETER INFORMATION
#MNEM.UNIT    VALUE                      DESCRIPTION
#---- -----   --------------------       ------------------------
APD  .M               24                 :
BHT  .DEGF           260                 :
BLI  .M       5227.50000                 :
BS   .IN         8.50000                 :
CN   .        PETROBRAS S.A.             :
COUN .        SANTOS                     :
CS   .IN         9.62500                 :
DATE .        22/10/2004                 :
DFD  .LB/G      12.30000                 :
DFL  .C3               2                 :
DFPH .        N/A                        :
DFT  .        SINTETICO                  :
DFV  .S               87                 :
DMF  .        MESA ROTATIVA              :
EDF  .M               24                 :
EGL  .M             -500                 :
EKB  .        N/A                        :
ENGI .        HERNANDEZ/LOCK             :
FL1  .        X   7292392.00 M LAT 24 28 47.189 S :
FL2  .        Y    584087.00 M LON 44 10 12.698 W :
FL3  .        MC  45 GRAUS               :
FN   .        BS-400                     :
LMF  .        MESA ROTATIVA              :
LUL  .        MACAE                      :
MCSS .        PRENSA                     :
MCST .DEGF            80                 :
MFSS .        PRENSA                     :
MFST .DEGF            80                 :
MSS  .        LINHA DE FLUXO             :
MST  .DEGF            80                 :
PDAT .        NIVEL DO MAR               :
R1   .        01. APRESENTAÇÃO DE ACORDO COM REQUERIMENTO DO CLIENTE :
R2   .        02. TEMPERATURA MÁXIMA DO POÇO T1=T2= 260 DEGF @  5180 M :
R3   .        03. INICIO DA CIRCULAÇÃO  13 45 H 21/10/2004 :
R4   .        04. FINAL DA CIRCULAÇÃO   16 00 H 21/10/2004 :
R5   .        05. TEMPO TOTAL DE CIRCULAÇÃO  02 15 H :
R6   .        06. FLUIDO DE PERFURAÇÃO  SINTETICO (BR-MUL  BR-MI)  65% TEOR DO OLEO :
R7   .        07. SALINIDADE DA LAMA  266377 PPM NACL NA FASE DE AGUA :
R8   .        08. INCLINAÇÃO MÁXIMA DO POÇO  37.37 GRAUS @ 5100 M :
R9   .        09. PRIMEIRAS E ULTIMAS LEITURAS  :
RMB  .OHMM    > 10                       :
RMCS .OHMM    > 10                       :
RMFS .OHMM    > 10                       :
RMS  .OHMM    > 10                       :
RUN  .                 1                 :
STAT .        BRASIL                     :
TCS  .        16 00 H                    :
TDD  .M             5230                 :
TDL  .M             5231                 :
TLAB .        N/A                        :
TLI  .M             3850                 :
WITN .        ALCIDIO/VLADIMIR           :
WN   .        3-BRSA-293D-SPS            :
LUN  .              8808                 :
HIDE .        3-SPS-41D                  :
HID2 .        HIGH DEFINITION INDUCTION LOG :
HID3 .        X-MULTIPOLE ARRAY ACOUSTILOG :
HID4 .        GAMMA RAY LOG              :
HID5 .        TTRM SUB                   :
CLAB .        BACIA                      :
SLAB .        PAIS                       :
CMT1 .        ESC  1 1000                :
CMT2 .        PROF. MEDIDA               :
CMT4 .        SONDA  SS-43               :
HDAT .        SAD 69                     :
FL   .        BASE SAD 69                :
OS1  .        GR/CN/ZDL                  :
OS2  .        MREX/GR                    :
OS3  .        RCI/GR                     :
0S4  .        3DEX/GR                    :
OS5  .        SL/GR                      :
LNAM .        MREX/ZDL/CN/XMAC/HDIL/RCI/3DEX/SL/GR :
TOOL .        MREX/ZDL/CN/XMAC/HDIL/RCI/3DEX/SL/GR :
LSOU .        PETROBRAS                  :
LSRV .        OH WIRELINE                :
LTYP .        RAW                        :
EPD  .M                0                 :
LDAT .        22/10/2004                 :
TRIP .                 1                 :
SON  .            772317                 :
CBDR .M             4277                 :
CBLO .M             4277                 :
CBL1 .M             4277                 :
STEM .DEGF    N/A                        :
BSAL .            266377                 :
BARI .        OFF                        :
DLAB .        21/10/2004                 :
MRT  .DEGF           260                 :
TSTR .        HDIL/XMAC/GR/TTRM          :
TSTG .        N/A                        :
STUS .        FINAL                      :
LCNM .        BAKER ATLAS                :
LCC  .               150                 :
NATI .        BRASIL                     :
OPMD .        OH.WIRELINE                :
PANA .        HERNANDEZ/LOCK             :
PCON .        BAKER ATLAS                :
R11  .        SL     5196.0 M/4960.0 M   :
R12  .        GR     4960.0 M/4277.0 M   :
R13  .        XMAC   5202.0 M/3850.0 M   :
R14  .        HDIL   5227.5 M/4277.0 M   :
R15  .        3DEX   5217.0 M/4960.0 M   :
R17  .        10. PONTO FRACO UTILIZADO  10K :
R18  .        11. DECLINAÇÃO MAGNETICA  -20.9 GRAUS :
R19  .        12. COORDENADAS ARATU      :
R21  .        X   7292512.00 M           :
R22  .        Y    583936.00 M           :
R23  .        MC  45 GRAUS               :
R25  .        13. CADASTRO ANP  86316021017 :
PVER .           4.10000                 :
WDFN .        /space/expusr/3-SPS-41D/i77bf03_2spf.xtf :
OCT  .        i77bf                      :
#-----------------------------------------------------------------------------
~CURVE INFORMATION
#MNEM.UNIT   API CODE                                  DESCRIPTION
#---- -----  --------                                  -----------------------
DEPT .M                                                :DEPTH (BOREHOLE) {F10.4}
DEPT .M                                                : {F13.4}
DT   .US/F                                             : {F13.4}
SFN1 .US                                               : {F13.4}
SFN2 .US                                               : {F13.4}
SFN3 .US                                               : {F13.4}
SFN4 .US                                               : {F13.4}
TT   .MS                                               : {F13.4}
#-----------------------------------------------------------------------------
# 
#     DEPT        DEPT         DT           SFN1         SFN2         SFN3         SFN4         TT
#
~A  
# ...
 5035.1436    5035.1436      68.4624     706.3750     741.7500     777.0000     810.5000      39.3348
 5034.9912    5034.9912      68.2755     704.0000     736.3750     775.2500     808.0000      39.3690
 5034.8388    5034.8388      68.3765     704.0000     737.9991     775.9995     808.2499      39.4032
 5034.6864    5034.6864      68.5879     703.9995     736.0000     774.8738     808.0000      39.4375
 5034.5340    5034.5340      68.7201     703.3757     736.0000     773.3756     808.0000      39.4718
 5034.3816    5034.3816      68.7134     704.0000     736.0000     773.8752     807.9994      39.5062
 5034.2292    5034.2292      68.6155     703.9995     735.9983     773.9957     807.6202      39.5405
 5034.0768    5034.0768      68.5171     703.7510     735.1286     771.7592     805.1352      39.5746
 5033.9244    5033.9244      68.4486     703.9991     735.9967     773.1198     807.1175      39.6088
 5033.7720    5033.7720      68.3844     704.0000     736.4983     774.3708     806.6267      39.6430
 5033.6196    5033.6196      68.3504     704.0000     736.0015     774.6242     807.2481      39.6772
 5033.4672    5033.4672      68.3996     704.0000     736.0000     774.1263     807.9980      39.7114
 5033.3148    5033.3148      68.5303     704.0000     736.0000     774.4991     807.3764      39.7457
 5033.1624    5033.1624      68.6991     704.0000     736.0000     774.3752     807.6245      39.7801
 5033.0100    5033.0100      68.8471     704.0000     736.0000     774.3750     807.6250      39.8145
 5032.8576    5032.8576      68.9213     704.0000     736.0000     774.2501     807.6250      39.8490
 5032.7052    5032.7052      68.9270     704.0000     736.0000     774.1251     807.6250      39.8835
 5032.5528    5032.5528      68.9213     704.0000     736.0000     774.0001     807.6250      39.9179
 5032.4004    5032.4004      68.9565     704.0000     736.0000     774.3750     807.7500      39.9524
 5032.2480    5032.2480      69.0400     704.0000     736.0000     774.3750     807.7500      39.9869
 5032.0956    5032.0956      69.0984     703.9979     736.0000     774.2500     807.5001      40.0215
 5031.9432    5031.9432      69.0257     700.8757     735.5305     774.2499     807.6250      40.0560
 5031.7908    5031.7908      68.8182     701.5035     287.8852     773.9677     807.6248      40.0905
 5031.6384    5031.6384      68.6047     703.9989     736.0000     663.1914     807.4938      40.1248
 5031.4860    5031.4860      68.5406     703.3761     735.9989     770.2521     804.0072      40.1591
 5031.3336    5031.3336      68.7361     703.8731     735.5019     771.2461     807.3620      40.1932
 5031.1812    5031.1812      69.1974     701.8820     734.3790     771.0009     806.6276      40.2278
 5031.0288    5031.0288      69.8093     703.7441     735.4965     771.1246     805.7528      40.2628
 5030.8764    5030.8764      70.4114     703.9993     735.5000     769.7538     803.8802      40.2980
 5030.7240    5030.7240      70.8146     704.2494     737.9940     775.1120     807.4913      40.3334
 5030.5716    5030.5716      70.8581     706.8696     739.8712     775.9982     809.2464      40.3688
 5030.4192    5030.4192      70.5442     707.9981     741.6221     776.0000     809.1252      40.4041
 5030.2668    5030.2668      70.0864     708.7490     742.2492     777.7477     811.3721      40.4392
 5030.1144    5030.1144      69.7510     708.7500     741.5007     777.6251     813.2482      40.4741
 5029.9620    5029.9620      69.6830     707.7506     741.5000     776.0009     810.6265      40.5089
 5029.8096    5029.8096      69.8403     707.8750     740.7500     777.1250     810.3750      40.5439
 5029.6572    5029.6572      70.0245     711.5000     743.6250     778.8750     814.2500      40.5789
 5029.5048    5029.5048      70.0540     711.8734     743.9999     779.7499     814.3745      40.6139
 5029.3524    5029.3524      69.8729     708.8769     743.7494     779.6252     813.3761      40.6489
 5029.2000    5029.2000      69.5403     711.0000     743.1261     779.8734     814.6252      40.6836
 5029.0476    5029.0476      69.2044     711.0012     743.9986     778.6244     814.7453      40.7183
 5028.8952    5028.8952      69.0326     711.7467     743.1268     778.2505     811.8783      40.7528
 5028.7428    5028.7428      69.0911     710.1315     743.9965     778.4990     813.4935      40.7871
 5028.5904    5028.5904      69.3184     710.0005     743.7509     781.3645     813.8736      40.8218
 5028.4380    5028.4380      69.5930     708.6295     743.2516     780.2537     815.2455      40.8566
 5028.2856    5028.2856      69.7994     709.9960     743.6239     779.1283     814.3775      40.8915
 5028.1332    5028.1332      69.8654     706.7583     743.1263     779.3744     814.2503      40.9265
 5027.9808    5027.9808      69.7902     706.2511     742.0024     780.7470     814.7489      40.9614
 5027.8284    5027.8284      69.6481     707.8721     741.2514     778.0050     814.7500      40.9962
 5027.6760    5027.6760      69.5347     708.1246     741.9989     776.7518     812.7529      41.0310
 5027.5236    5027.5236      69.5371     706.2520     741.2508     776.9997     811.3765      41.0658
 5027.3712    5027.3712      69.7056     705.8753     740.5005     777.0000     812.2494      41.1006
 5027.2188    5027.2188      69.9986     707.3750     741.1250     777.1250     812.2500      41.1357
 5027.0664    5027.0664      70.3231     706.8750     742.0000     776.6250     811.8750      41.1708
 5026.9140    5026.9140      70.6215     708.1252     742.1254     777.8756     812.1261      41.2061
 5026.7616    5026.7616      70.8651     708.5007     743.1246     779.2499     814.8745      41.2416
 5026.6092    5026.6092      71.0353     709.3737     742.6251     779.1260     814.2516      41.2771
 5026.4568    5026.4568      71.1170     708.2551     742.7519     780.0015     815.6248      41.3127
 5026.3044    5026.3044      71.0623     711.6257     744.0000     781.0002     815.4998      41.3482
 5026.1520    5026.1520      70.8113     711.9985     744.0000     781.1245     815.3755      41.3834
 5025.9996    5025.9996      70.3756     712.0000     744.0000     781.7476     815.4995      41.4186
 5025.8472    5025.8472      69.8594     712.0000     744.9966     783.6186     815.9983      41.4536
 5025.6948    5025.6948      69.4153     712.0000     744.0030     782.3788     816.0000      41.4883
 5025.5424    5025.5424      69.2057     711.3767     744.0000     780.7544     815.2520      41.5229
 5025.3900    5025.3900      69.2588     710.5020     743.3764     780.2512     815.9983      41.5575
 5025.2376    5025.2376      69.4455     711.9971     743.9988     781.9966     816.0000      41.5923
 5025.0852    5025.0852      69.6221     711.5008     744.0000     781.1264     816.0000      41.6271
 5024.9328    5024.9328      69.7176     711.9994     744.0000     783.1226     816.0000      41.6620
 5024.7804    5024.7804      69.7421     712.0000     744.6245     783.8744     816.2498      41.6969
 5024.6280    5024.6280      69.7545     712.0000     744.6250     783.5002     816.0001      41.7317
 5024.4756    5024.4756      69.7810     712.0000     744.7500     784.0000     816.0000      41.7666
 5024.3232    5024.3232      69.7599     712.0000     744.5000     783.6250     816.6250      41.8015
 5024.1708    5024.1708      69.6308     711.4990     744.6243     783.3745     816.0000      41.8364
 5024.0184    5024.0184      69.3992     709.8759     743.5005     782.6235     816.0000      41.8711
 5023.8660    5023.8660      69.1411     710.7427     743.9990     781.1228     815.9979      41.9057
 5023.7136    5023.7136      69.0086     705.5055     743.2482     779.4965     814.4956      41.9402
 5023.5612    5023.5612      69.1115     708.6200     742.2482     777.4989     812.0063      41.9747
 5023.4088    5023.4088      69.4334     706.2592     741.3784     777.0019     814.9883      42.0093
 5023.2564    5023.2564      69.8475     708.8657     741.0013     779.8648     814.5018      42.0442
