~VERSION INFORMATION
VERS.           2.0   :CWLS Log ASCII Standard - VERSION 2.0
WRAP.           NO    :One Line per depth step
PROD.  Schlumberger   :LAS Producer
PROG.  DLIS to ASCII 2.3                               :LAS Program name and version
CREA.        2023/07/14 00:15                          :LAS Creation date {YYYY/MM/DD hh:mm}
DLIS_CREA.  2023-Jul-14 00:11                          :DLIS Creation date and time {YYYY-MMM-DD hh:mm}
SOURCE.     LIS_001.dlis                               :DLIS File Name
FILE-ID.     LIS   .001                                :File Identification Number
#--------------------------------------------------
~WELL INFORMATION
#MNEM.UNIT      DATA             DESCRIPTION
#---- ------ --------------   -----------------------------
STRT .M      5244.5412       :START DEPTH     
STOP .M      5059.0704       :STOP DEPTH     
STEP .M        -0.1524       :STEP     
NULL .          -999.25      :NULL VALUE
COMP .        PETROBRAS S.A.                           :COMPANY
WELL .        3-BRSA-293D-SPS                          :WELL
FLD  .        BS-400                                   :FIELD
LOC  .        BASE SAD 69:                             :LOCATION
CNTY .        SANTOS                                   :COUNTY
STAT .        BRASIL                                   :STATE
CTRY .        BRASIL                                   :COUNTRY
API  .                                                 :API NUMBER
UWI  .                                                 :UNIQUE WELL ID
DATE .        22/10/2004                               :LOG DATE
SRVC .        Schlumberger                             :SERVICE COMPANY
LATI .DEG                                              :LATITUDE
LONG .DEG                                              :LONGITUDE
GDAT .                                                 :GeoDetic Datum
#-----------------------------------------------------------------------------
~PARAMETER INFORMATION
#MNEM.UNIT    VALUE                      DESCRIPTION
#---- -----   --------------------       ------------------------
APD  .M               24                 :
BHT  .DEGF           260                 :
BLI  .M       5227.50000                 :
BS   .IN         8.50000                 :
CN   .        PETROBRAS S.A.             :
COUN .        SANTOS                     :
CS   .IN         9.62500                 :
DATE .        22/10/2004                 :
DFD  .LB/G      12.30000                 :
DFL  .C3               2                 :
DFPH .        N/A                        :
DFT  .        SINTETICO                  :
DFV  .S               87                 :
DMF  .        MESA ROTATIVA              :
EDF  .M               24                 :
EGL  .M             -500                 :
EKB  .        N/A                        :
ENGI .        HERNANDEZ/LOCK             :
FL1  .        X   7292392.00 M LAT 24 28 47.189 S :
FL2  .        Y    584087.00 M LON 44 10 12.698 W :
FL3  .        MC  45 GRAUS               :
FN   .        BS-400                     :
LMF  .        MESA ROTATIVA              :
LUL  .        MACAE                      :
MCSS .        PRENSA                     :
MCST .DEGF            80                 :
MFSS .        PRENSA                     :
MFST .DEGF            80                 :
MSS  .        LINHA DE FLUXO             :
MST  .DEGF            80                 :
PDAT .        NIVEL DO MAR               :
R1   .        01. APRESENTAÇÃO DE ACORDO COM REQUERIMENTO DO CLIENTE :
R2   .        02. TEMPERATURA MÁXIMA DO POÇO T1=T2= 260 DEGF @  5180 M :
R3   .        03. INICIO DA CIRCULAÇÃO  13 45 H 21/10/2004 :
R4   .        04. FINAL DA CIRCULAÇÃO   16 00 H 21/10/2004 :
R5   .        05. TEMPO TOTAL DE CIRCULAÇÃO  02 15 H :
R6   .        06. FLUIDO DE PERFURAÇÃO  SINTETICO (BR-MUL  BR-MI)  65% TEOR DO OLEO :
R7   .        07. SALINIDADE DA LAMA  266377 PPM NACL NA FASE DE AGUA :
R8   .        08. INCLINAÇÃO MÁXIMA DO POÇO  37.37 GRAUS @ 5100 M :
R9   .        09. PRIMEIRAS E ULTIMAS LEITURAS  :
RMB  .OHMM    > 10                       :
RMCS .OHMM    > 10                       :
RMFS .OHMM    > 10                       :
RMS  .OHMM    > 10                       :
RUN  .                 1                 :
STAT .        BRASIL                     :
TCS  .        16 00 H                    :
TDD  .M             5230                 :
TDL  .M             5231                 :
TLAB .        N/A                        :
TLI  .M             3850                 :
WITN .        ALCIDIO/VLADIMIR           :
WN   .        3-BRSA-293D-SPS            :
LUN  .              8808                 :
HIDE .        3-SPS-41D                  :
HID2 .        HIGH DEFINITION INDUCTION LOG :
HID3 .        X-MULTIPOLE ARRAY ACOUSTILOG :
HID4 .        GAMMA RAY LOG              :
HID5 .        TTRM SUB                   :
CLAB .        BACIA                      :
SLAB .        PAIS                       :
CMT1 .        ESC  1 1000                :
CMT2 .        PROF. MEDIDA               :
CMT4 .        SONDA  SS-43               :
HDAT .        SAD 69                     :
FL   .        BASE SAD 69                :
OS1  .        GR/CN/ZDL                  :
OS2  .        MREX/GR                    :
OS3  .        RCI/GR                     :
0S4  .        3DEX/GR                    :
OS5  .        SL/GR                      :
LNAM .        MREX/ZDL/CN/XMAC/HDIL/RCI/3DEX/SL/GR :
TOOL .        MREX/ZDL/CN/XMAC/HDIL/RCI/3DEX/SL/GR :
LSOU .        PETROBRAS                  :
LSRV .        OH WIRELINE                :
LTYP .        RAW                        :
EPD  .M                0                 :
LDAT .        22/10/2004                 :
TRIP .                 1                 :
SON  .            772317                 :
CBDR .M             4277                 :
CBLO .M             4277                 :
CBL1 .M             4277                 :
STEM .DEGF    N/A                        :
BSAL .            266377                 :
BARI .        OFF                        :
DLAB .        21/10/2004                 :
MRT  .DEGF           260                 :
TSTR .        HDIL/XMAC/GR/TTRM          :
TSTG .        N/A                        :
STUS .        FINAL                      :
LCNM .        BAKER ATLAS                :
LCC  .               150                 :
NATI .        BRASIL                     :
OPMD .        OH.WIRELINE                :
PANA .        HERNANDEZ/LOCK             :
PCON .        BAKER ATLAS                :
R11  .        SL     5196.0 M/4960.0 M   :
R12  .        GR     4960.0 M/4277.0 M   :
R13  .        XMAC   5202.0 M/3850.0 M   :
R14  .        HDIL   5227.5 M/4277.0 M   :
R15  .        3DEX   5217.0 M/4960.0 M   :
R17  .        10. PONTO FRACO UTILIZADO  10K :
R18  .        11. DECLINAÇÃO MAGNETICA  -20.9 GRAUS :
R19  .        12. COORDENADAS ARATU      :
R21  .        X   7292512.00 M           :
R22  .        Y    583936.00 M           :
R23  .        MC  45 GRAUS               :
R25  .        13. CADASTRO ANP  86316021017 :
PVER .           4.10000                 :
WDFN .        /space/expusr/3-SPS-41D/i77bf02_2spf.xtf :
OCT  .        i77bf                      :
#-----------------------------------------------------------------------------
~CURVE INFORMATION
#MNEM.UNIT   API CODE                                  DESCRIPTION
#---- -----  --------                                  -----------------------
DEPT .M                                                :DEPTH (BOREHOLE) {F10.4}
DEPT .M                                                : {F13.4}
DT   .US/F                                             : {F13.4}
SFN1 .US                                               : {F13.4}
SFN2 .US                                               : {F13.4}
SFN3 .US                                               : {F13.4}
SFN4 .US                                               : {F13.4}
TT   .MS                                               : {F13.4}
#-----------------------------------------------------------------------------
# 
#     DEPT        DEPT         DT           SFN1         SFN2         SFN3         SFN4         TT
#
~A  
# ...
 5100.0660    5100.0660      64.9734     690.6253     712.0000     749.7513     783.5940      25.8095
 5099.9136    5099.9136      64.9515     690.7492     712.0000     750.2496     352.5661      25.8420
 5099.7612    5099.7612      65.0086     690.5000     712.0000     750.1271     784.7496      25.8745
 5099.6088    5099.6088      65.1085     690.5000     712.0000     750.7484     784.6253      25.9068
 5099.4564    5099.4564      65.2602     690.5000     712.0000     750.8747     784.0014      25.9395
 5099.3040    5099.3040      65.5391     690.7495     712.0000     750.5007     784.4991      25.9723
 5099.1516    5099.1516      66.0441     690.5004     712.0000     750.6248     784.5000      26.0053
 5098.9992    5098.9992      66.7734     695.7439     712.0000     750.5001     784.6249      26.0387
 5098.8468    5098.8468      67.5570     688.0061     648.0505     750.5000     784.6250      26.0725
 5098.6944    5098.6944      68.1719     688.0000     720.3446     762.2451     784.7499      26.1066
 5098.5420    5098.5420      68.5127     688.0000     720.3750     758.5000     682.3750      26.1409
 5098.3896    5098.3896      68.6317     688.0000     720.3750     758.5000     791.6250      26.1752
 5098.2372    5098.2372      68.6370     688.0003     720.2502     758.6249     791.6250      26.2095
 5098.0848    5098.0848      68.6123     688.3770     720.5008     758.5000     791.6250      26.2438
 5097.9324    5097.9324      68.5695     690.2488     721.2534     758.5007     791.6252      26.2781
 5097.7800    5097.7800      68.4863     689.3757     723.6219     759.0018     791.7504      26.3124
 5097.6276    5097.6276      68.3758     689.7511     721.8777     760.0000     792.0000      26.3466
 5097.4752    5097.4752      68.2618     690.2494     723.1263     760.0000     792.0000      26.3807
 5097.3228    5097.3228      68.1632     690.0000     723.6250     760.0000     792.0007      26.4148
 5097.1704    5097.1704      68.0914     690.0000     723.6246     760.0000     792.2492      26.4489
 5097.0180    5097.0180      68.0454     690.0000     723.5003     760.0000     792.0007      26.4827
 5096.8656    5096.8656      68.0171     690.1247     723.6247     760.0000     792.0000      26.5167
 5096.7132    5096.7132      68.0012     690.0003     723.5003     760.0000     792.0000      26.5507
 5096.5608    5096.5608      67.9947     690.0000     723.5000     760.0000     792.0000      26.5847
 5096.4084    5096.4084      67.9914     690.0000     723.5000     760.0000     792.0000      26.6187
 5096.2560    5096.2560      67.9894     690.0000     723.5000     760.0000     792.0000      26.6528
 5096.1036    5096.1036      67.9901     690.0000     723.5000     760.0000     792.0000      26.6868
 5095.9512    5095.9512      67.9935     690.0000     723.5000     760.0000     792.0000      26.7208
 5095.7988    5095.7988      68.0005     690.1250     723.3750     760.0000     792.0000      26.7548
 5095.6464    5095.6464      68.0105     689.8751     723.5000     760.0000     792.0000      26.7888
 5095.4940    5095.4940      68.0205     689.9999     723.4999     760.0000     792.0000      26.8228
 5095.3416    5095.3416      68.0279     689.8752     723.3752     760.0000     792.0000      26.8568
 5095.1892    5095.1892      68.0289     690.0000     723.5000     760.0000     792.0000      26.8909
 5095.0368    5095.0368      68.0219     690.0000     723.5000     760.0000     792.0000      26.9249
 5094.8844    5094.8844      68.0086     690.0003     723.5000     760.0000     792.0000      26.9589
 5094.7320    5094.7320      67.9965     690.1247     723.5000     760.0000     792.0000      26.9929
 5094.5796    5094.5796      67.9941     689.9996     723.5004     760.0000     792.0000      27.0269
 5094.4272    5094.4272      68.0382     689.8754     723.6246     760.0000     792.0000      27.0610
 5094.2748    5094.2748      68.2223     689.9997     723.5003     760.0000     792.0000      27.0949
 5094.1224    5094.1224      68.6122     690.0000     723.5000     760.0000     792.0000      27.1292
 5093.9700    5093.9700      69.1415     689.8752     723.5000     760.0000     792.0000      27.1638
 5093.8176    5093.8176      69.6073     689.9998     723.5000     760.0000     792.0000      27.1986
 5093.6652    5093.6652      69.7761     690.1249     723.5000     760.0000     792.0000      27.2335
 5093.5128    5093.5128      69.5799     690.1250     723.5000     760.0000     792.0000      27.2683
 5093.3604    5093.3604      69.1841     690.0000     723.3750     760.0000     792.0000      27.3029
 5093.2080    5093.2080      68.8387     689.8750     723.3750     760.0000     792.0000      27.3373
 5093.0556    5093.0556      68.6667     689.9999     723.4999     760.0000     792.0000      27.3717
 5092.9032    5092.9032      68.6254     689.8751     723.3751     760.0000     792.0000      27.4060
 5092.7508    5092.7508      68.5974     689.9999     723.5000     760.0000     792.0000      27.4403
 5092.5984    5092.5984      68.5045     689.8752     723.5000     760.0000     792.0000      27.4746
 5092.4460    5092.4460      68.3644     690.0000     723.5000     760.0000     792.0000      27.5088
 5092.2936    5092.2936      68.2261     690.0000     723.5000     760.0000     792.0000      27.5429
 5092.1412    5092.1412      68.1192     690.0003     723.4997     760.0000     792.0000      27.5770
 5091.9888    5091.9888      68.0717     690.1246     723.3754     760.0000     792.0000      27.6110
 5091.8364    5091.8364      68.0892     689.9996     723.5000     760.0000     792.0000      27.6451
 5091.6840    5091.6840      68.0849     689.8753     723.5000     760.0000     792.0000      27.6789
 5091.5316    5091.5316      67.9152     690.1244     723.3753     760.0000     792.0000      27.7129
 5091.3792    5091.3792      67.5202     688.3784     723.3750     760.0000     792.0000      27.7467
 5091.2268    5091.2268      67.0160     484.5682     288.6787     760.0000     792.0000      27.7802
 5091.0744    5091.0744      66.6693     695.7481     434.0760     319.0253     792.0000      27.8135
 5090.9220    5090.9220      66.7222     696.0000     727.7590     766.8818     350.3627      27.8469
 5090.7696    5090.7696      67.1900     696.0000     728.0000     766.5003     719.8330      27.8805
 5090.6172    5090.6172      67.8626     696.0000     728.0000     766.5000     799.8750      27.9145
 5090.4648    5090.4648      68.4921     696.0000     728.0000     766.5000     799.7500      27.9487
 5090.3124    5090.3124      68.9432     696.0000     728.1249     766.6250     799.6252      27.9832
 5090.1600    5090.1600      69.2317     696.0000     728.0000     766.6249     799.8750      28.0178
 5090.0076    5090.0076      69.4533     696.0000     728.0000     766.4991     799.8752      28.0526
 5089.8552    5089.8552      69.6547     696.0000     728.0009     765.8757     799.9998      28.0874
 5089.7028    5089.7028      69.8006     696.0005     728.5024     766.2524     799.8753      28.1223
 5089.5504    5089.5504      69.8309     696.2528     729.6259     767.3766     800.0000      28.1572
 5089.3980    5089.3980      69.7001     697.3786     730.0029     767.9993     800.0000      28.1921
 5089.2456    5089.2456      69.4453     698.6218     731.0020     767.7508     800.0000      28.2268
 5089.0932    5089.0932      69.2340     697.6237     731.6210     768.0000     800.0000      28.2615
 5088.9408    5088.9408      69.2243     697.2509     730.5027     768.0000     800.0000      28.2959
 5088.7884    5088.7884      69.4226     697.6242     730.0010     768.0000     800.0000      28.3306
 5088.6360    5088.6360      69.6566     697.7498     730.6239     768.0000     800.0000      28.3654
 5088.4836    5088.4836      69.6711     700.2467     731.4988     768.0000     800.0000      28.4003
 5088.3312    5088.3312      69.3640     699.0012     732.6239     768.0000     800.0000      28.4350
 5088.1788    5088.1788      68.9093     701.8733     733.4995     768.2499     800.6246      28.4695
