~VERSION INFORMATION
VERS.           2.0   :CWLS Log ASCII Standard - VERSION 2.0
WRAP.           YES   :Multiple lines per depth step
PROD.  Schlumberger   :LAS Producer
PROG.  DLIS to ASCII 2.3                               :LAS Program name and version
CREA.        2023/07/14 00:15                          :LAS Creation date {YYYY/MM/DD hh:mm}
DLIS_CREA.  2023-Jul-14 00:11                          :DLIS Creation date and time {YYYY-MMM-DD hh:mm}
SOURCE.     LIS_012.dlis                               :DLIS File Name
FILE-ID.     LIS   .001                                :File Identification Number
#--------------------------------------------------
~WELL INFORMATION
#MNEM.UNIT      DATA             DESCRIPTION
#---- ------ --------------   -----------------------------
STRT .M      5265.1152       :START DEPTH     
STOP .M      5185.4100       :STOP DEPTH     
STEP .M        -0.1524       :STEP     
NULL .          -999.25      :NULL VALUE
COMP .        PETROBRAS S.A.                           :COMPANY
WELL .        3-BRSA-293D-SPS                          :WELL
FLD  .        BS-400                                   :FIELD
LOC  .        BASE SAD 69:                             :LOCATION
CNTY .        SANTOS                                   :COUNTY
STAT .        BRASIL                                   :STATE
CTRY .        BRASIL                                   :COUNTRY
API  .                                                 :API NUMBER
UWI  .                                                 :UNIQUE WELL ID
DATE .        15/11/2004                               :LOG DATE
SRVC .        Schlumberger                             :SERVICE COMPANY
LATI .DEG                                              :LATITUDE
LONG .DEG                                              :LONGITUDE
GDAT .                                                 :GeoDetic Datum
#-----------------------------------------------------------------------------
~PARAMETER INFORMATION
#MNEM.UNIT    VALUE                      DESCRIPTION
#---- -----   --------------------       ------------------------
APD  .M               24                 :
BHT  .DEGF           260                 :
BLI  .M             5289                 :
BS   .IN         8.50000                 :
CN   .        PETROBRAS S.A.             :
COUN .        SANTOS                     :
CS   .IN         9.62500                 :
DATE .        15/11/2004                 :
DFD  .LB/G      12.30000                 :
DFL  .C3               2                 :
DFPH .        N/A                        :
DFT  .        SINTETICO                  :
DFV  .S               95                 :
DMF  .        MESA ROTATIVA              :
EDF  .M               24                 :
EGL  .M             -500                 :
EKB  .        N/A                        :
ENGI .        HERNANDEZ / LOCK           :
FL1  .        X   7292392.00 M LAT 24 28 47.189 S :
FL2  .        Y    584087.00 M LON 44 10 12.698 W :
FL3  .        MC  45 GRAUS               :
FN   .        BS-400                     :
LMF  .        MESA ROTATIVA              :
LUL  .        MACAE                      :
MCSS .        PRENSA                     :
MCST .DEGF            80                 :
MFSS .        PRENSA                     :
MFST .DEGF            80                 :
MSS  .        LINHA DE FLUXO             :
MST  .DEGF            80                 :
PDAT .        NIVEL DO MAR               :
R1   .        01. APRESENTAÇÃO DE ACORDO COM REQUERIMENTO DO CLIENTE :
R2   .        02. TEMPERATURA MÁXIMA DO POÇO T1=T2= 292 DEGF @  5277 M :
R3   .        03. INICIO DA CIRCULAÇÃO  12/11/2004 09 00 H :
R4   .        04. FINAL DA CIRCULAÇÃO   12/11/2004 18 00 H :
R5   .        05. TEMPO TOTAL DE CIRCULAÇÃO   09 00 H :
R6   .        06. FLUIDO DE PERFURAÇÃO  SINTETICO (BR-MUL  BR-MI)  60% TEOR DO OLEO :
R7   .        07. SALINIDADE DA LAMA  254762 PPM NACL NA FASE DE AGUA :
R8   .        08. INCLINAÇÃO MÁXIMA DO POÇO  37.37 GRAUS @ 5100 M :
R9   .        09. PRIMEIRAS E ULTIMAS LEITURAS  :
RMB  .OHMM    > 10                       :
RMCS .OHMM    > 10                       :
RMFS .OHMM    > 10                       :
RMS  .OHMM    >10                        :
RUN  .                 2                 :
STAT .        BRASIL                     :
TCS  .        18 00 H                    :
TDD  .M             5288                 :
TDL  .M             5293                 :
TLAB .        N/A                        :
TLI  .M             4277                 :
WITN .        ERNANI / ZE MARIA          :
WN   .        3-BRSA-293D-SPS            :
LUN  .              8808                 :
HIDE .        3-SPS-41D                  :
HID2 .        COMPENSATED Z-DENSILOG     :
HID3 .        COMPENSATED NEUTRON LOG    :
HID4 .        GAMMA RAY LOG              :
HID5 .        TTRM SUB                   :
CLAB .        BACIA                      :
SLAB .        PAIS                       :
CMT1 .        ESC  1 1000                :
CMT2 .        PROF. MEDIDA               :
CMT4 .        SONDA  SS-43               :
HDAT .        SAD 69                     :
FL   .        BASE SAD 69                :
OS1  .        RCI/GR                     :
OS2  .        CHECK SHOT                 :
OS3  .        GR/XMAC/HDIL               :
OS5  .        RCOR/GR                    :
LNAM .        ZDL/CN/XMAC/HDIL/EARTH IMAGER/RCI/RCOR/CHECK SHOT/GR :
TOOL .        ZDL/CN/XMAC/HDIL/EARTH IMAGER/RCI/RCOR/CHECK SHOT/GR :
LSOU .        PETROBRAS                  :
LSRV .        OH WIRELINE                :
LTYP .        RAW                        :
EPD  .M                0                 :
LDAT .        15/11/2004                 :
TRIP .                 4                 :
SON  .            786588                 :
CBDR .M             4277                 :
CBLO .        NR                         :
CBL1 .        NR                         :
STEM .DEGF    N/A                        :
BSAL .            254762                 :
BARI .        OFF                        :
DLAB .        12/11/2004                 :
MRT  .DEGF           292                 :
TSTR .        ZDL/CN/GR/TTRM             :
TSTG .        N/A                        :
STUS .        FINAL                      :
LCNM .        BAKER ATLAS                :
LCC  .               150                 :
NATI .        BRASIL                     :
OPMD .        OH.WIRELINE                :
PANA .        HERNANDEZ / LOCK           :
PCON .        BAKER ATLAS                :
R11  .        GR     5268.3 M / 4277.0 M :
R12  .        CN     5286.5 M / 5128.0 M (FERRAMENTA PERDEU LEITURA ACIMA DE 5128M) :
R13  .        ZDL    5292.0 M / 4277.0 M :
R15  .        10. PONTO FRACO UTILIZADO  10K :
R17  .        12. COORDENADAS BASE       :
R19  .        X   7292512.00 M           :
R21  .        MC  45 GRAUS               :
R23  .        13. CADASTRO ANP  86316021017 :
PVER .           4.10000                 :
WDFN .        /space/expusr/3-SPS-41D_RUN2/i77bf03_8spf.xtf :
OCT  .        i77bf                      :
OS4  .        EARTH IMAGER               :
R16  .        11. DECLINAÇÃO MAGNETICA  -20.9 GRAUS :
R20  .        Y    583936.00 M           :
#-----------------------------------------------------------------------------
~CURVE INFORMATION
#MNEM.UNIT   API CODE                                  DESCRIPTION
#---- -----  --------                                  -----------------------
DEPT .M                                                :DEPTH (BOREHOLE) {F10.4}
DEPT .M                                                : {F13.4}
BIT  .IN                                               : {F13.4}
DEPM .M                                                : {F13.4}
GR   .GAPI                                             : {F13.4}
SPD  .M/MN                                             : {F13.4}
TTEN .LBF                                              : {F13.4}
CAL  .IN                                               : {F13.4}
CALX .IN                                               : {F13.4}
HRD1 .HZ                                               : {F13.4}
HRD2 .HZ                                               : {F13.4}
PE   .B/E                                              : {F13.4}
SFT2 .HZ                                               : {F13.4}
SOFT .HZ                                               : {F13.4}
SSD  .HZ                                               : {F13.4}
ZCOR .G/C3                                             : {F13.4}
ZDEN .G/C3                                             : {F13.4}
CNC  .PU                                               : {F13.4}
CN   .PU                                               : {F13.4}
LSN  .HZ                                               : {F13.4}
SSN  .HZ                                               : {F13.4}
CNCF .PU                                               : {F13.4}
MMRK .MN                                               : {F13.4}
#-----------------------------------------------------------------------------
# DEPT       
#     DEPT         BIT          DEPM         GR           SPD          TTEN         
#     CAL          CALX         HRD1         HRD2         PE           SFT2         
#     SOFT         SSD          ZCOR         ZDEN         CNC          CN           
#     LSN          SSN          CNCF         MMRK         
~A  
# ...
5243.7792
   5243.7792       8.5000    5243.4862     109.8393       6.1011    7385.2427
      8.7886       8.7854     563.6921     748.3691       4.8012     474.5060
    337.3234    6627.5310      -0.0198       2.6101      17.5958      18.1506
   1544.7682    3724.3763      17.5958       0.0000
5243.6268
   5243.6268       8.5000    5243.3329     110.2334       6.0843    7409.2149
      8.7890       8.7896     567.0346     755.1417       4.8407     477.3235
    344.4529    6602.4301      -0.0191       2.6066      16.2778      16.7996
   1576.4946    3625.9670      16.2778       0.0000
5243.4744
   5243.4744       8.5000    5243.1805     110.0515       6.0435    7440.2107
      8.7856       8.7880     603.2837     769.2905       4.8174     478.8535
    349.2143    6582.9196      -0.0351       2.5918      14.9696      15.4119
   1686.7165    3688.6574      14.9696       0.3495
5243.3220
   5243.3220       8.5000    5243.0281     108.8544       6.0771    7453.3418
      8.7773       8.7811     622.1831     768.5839       4.5544     475.1206
    369.0088    6620.6114      -0.0342       2.5846      14.8459      15.2164
   1791.8356    3892.5510      14.8459       0.0000
5243.1696
   5243.1696       8.5000    5242.8766     104.1443       6.0751    7442.3736
      8.7773       8.7759     626.8005     762.6971       4.5353     490.0188
    357.0563    6592.6272      -0.0346       2.5883      13.7491      14.2319
   1988.1561    4144.1242      13.7491       0.0000
5243.0172
   5243.0172       8.5000    5242.7242      96.5206       6.1178    7415.0387
      8.7772       8.7786     615.1827     690.2642       4.3302     458.9335
    340.6360    6562.4403      -0.0227       2.6123      14.0585      14.1585
   2034.0589    4348.4158      14.0585       0.0000
5242.8648
   5242.8648       8.5000    5242.5718      91.0637       6.1525    7394.3189
      8.7745       8.7747     579.9236     725.7452       4.2822     471.6246
    353.6941    6478.9388      -0.0329       2.6176      16.3978      16.6007
   1910.2039    4431.0336      16.3978       0.0000
5242.7124
   5242.7124       8.5000    5242.4194      90.8497       6.1003    7408.0086
      8.7800       8.7774     590.9296     680.7061       3.9202     459.6599
    353.2819    6523.7678      -0.0262       2.6276      16.3291      16.8023
   1879.6479    4361.3578      16.3291       0.0000
5242.5600
   5242.5600       8.5000    5242.2670      93.3204       6.0788    7456.4851
      8.7766       8.7790     593.5758     711.4040       3.8954     487.8295
    371.0717    6674.5725      -0.0137       2.6155      14.8169      15.3062
   1867.6586    4138.4261      14.8169       0.0000
5242.4076
   5242.4076       8.5000    5242.1146      95.6408       6.1209    7520.3072
      8.7764       8.7760     594.3297     734.8491       4.2441     484.3575
    361.8399    6707.5805      -0.0070       2.6080      15.2786      15.4287
   1700.8160    3856.7155      15.2786       0.0000
5242.2552
   5242.2552       8.5000    5241.9622      96.3696       6.1368    7587.3943
      8.7765       8.7758     565.6327     731.8107       4.5976     481.3593
    345.1988    6623.8563      -0.0100       2.6148      15.9592      16.4794
   1597.1242    3655.2664      15.9592       0.0000
5242.1028
   5242.1028       8.5000    5241.8098      93.1346       6.1835    7636.5226
      8.7807       8.7792     607.4227     759.3222       4.8293     490.6222
    347.6356    6462.3119      -0.0452       2.5948      12.9322      13.5713
   1764.3629    3589.2581      12.9322       0.0000
5241.9504
   5241.9504       8.5000    5241.6574      86.2549       6.2323    7638.0263
      8.7759       8.7789     608.5279     751.1664       5.2123     481.0128
    328.6837    6486.7076      -0.0500       2.5932      11.7846      12.0951
   1867.5313    3642.7941      11.7846       0.0000
5241.7980
   5241.7980       8.5000    5241.5050      79.7780       6.3047    7579.4582
      8.7740       8.7744     578.2745     772.6404       5.5627     475.8301
    323.4247    6633.8218      -0.0268       2.5940      12.3871      12.5778
   1903.1150    3796.0962      12.3871       0.0000
5241.6456
   5241.6456       8.5000    5241.3526      78.9480       6.3204    7477.0839
      8.7745       8.7740     604.2834     758.6256       5.3096     478.9281
    329.8771    6551.9278      -0.0304       2.5908      13.5638      13.7792
   1925.5939    4014.1343      13.5638       0.0000
5241.4932
   5241.4932       8.5000    5241.2002      84.6973       6.3420    7386.7178
      8.7745       8.7752     565.5656     765.2297       5.6759     467.8811
    312.8384    6436.6904      -0.0475       2.5993      14.3109      14.5293
   1942.8625    4190.4912      14.3109       0.0000
5241.3408
   5241.3408       8.5000    5241.0479      91.0370       6.2361    7361.6465
      8.7699       8.7721     560.4375     774.1265       5.6643     456.4421
    319.6969    6598.2490      -0.0302       2.6013      16.1546      16.2921
   1792.4368    4155.3828      16.1546       0.0000
5241.1884
   5241.1884       8.5000    5240.8945      89.7508       6.1449    7391.8948
      8.7711       8.7698     565.6817     732.1041       4.8719     457.0308
    336.5563    6627.8252      -0.0136       2.6122      16.8196      17.1985
   1722.8475    4044.4136      16.8196       0.0000
5241.0360
   5241.0360       8.5000    5240.7421      80.5615       6.1305    7422.4777
      8.7756       8.7732     578.7978     737.4784       5.1960     461.1163
    322.9487    6603.6601      -0.0183       2.6072      15.4102      16.0191
   1877.4837    4138.4813      15.4102       0.0000
5240.8836
   5240.8836       8.5000    5240.5897      70.7450       6.1168    7435.4266
      8.7775       8.7772     598.5673     771.3530       5.8070     464.6185
    313.8327    6598.0290      -0.0339       2.5895      13.4853      13.9519
   2129.8876    4404.3776      13.4853       0.0000
5240.7312
   5240.7312       8.5000    5240.4373      65.6611       6.1405    7447.6239
      8.7767       8.7770     636.1192     805.2652       5.3687     497.3496
    346.3199    6662.6286      -0.0384       2.5697      13.3702      13.5553
   2182.9625    4556.4424      13.3702       0.0000
5240.5788
   5240.5788       8.5000    5240.2858      66.5804       6.1371    7472.4497
      8.7776       8.7766     607.3129     776.3892       5.3658     468.6560
    335.2652    6682.8328      -0.0233       2.5814      16.0038      16.0694
   1979.1639    4560.2220      16.0038       0.0000
5240.4264
   5240.4264       8.5000    5240.1334      73.3440       6.1415    7521.3556
      8.7804       8.7797     625.7309     787.6870       5.8808     466.0059
    316.7237    6647.1288      -0.0302       2.5751      17.4033      17.6520
   1854.4138    4461.5482      17.4033       0.0000
5240.2740
   5240.2740       8.5000    5239.9810      82.4307       6.1540    7580.8049
      8.7780       8.7787     642.1191     767.2831       4.8991     478.3686
    349.2372    6527.7537      -0.0462       2.5775      17.7867      18.2937
   1749.5691    4267.2676      17.7867       0.0000
5240.1216
   5240.1216       8.5000    5239.8286      88.6820       6.2358    7602.6152
      8.7817       8.7800     604.0387     765.7406       4.6543     462.0970
    360.8202    6500.5994      -0.0466       2.5913      16.1653      16.6378
   1676.4033    3911.7822      16.1653       0.0000
5239.9692
   5239.9692       8.5000    5239.6762      91.2449       6.3399    7555.0986
      8.7848       8.7826     550.4761     785.0963       4.9296     475.8123
    343.4077    6648.3290      -0.0241       2.6022      16.3029      16.6215
   1531.7938    3578.6569      16.3029       0.0000
5239.8168
   5239.8168       8.5000    5239.5238      91.9944       6.3552    7463.0326
      8.7844       8.7866     579.1077     752.9804       4.9846     467.0641
    342.4356    6704.4695      -0.0092       2.6031      15.2941      15.8735
   1559.9677    3466.1165      15.2941       0.0000
5239.6644
   5239.6644       8.5000    5239.3714      91.4839       6.3048    7376.3863
      8.7802       8.7808     597.3920     739.5981       4.9195     445.1059
    337.1406    6675.5892      -0.0142       2.6021      14.2740      14.6017
   1614.7068    3478.4212      14.2740       0.0000
