~VERSION INFORMATION
VERS.           2.0   :CWLS Log ASCII Standard - VERSION 2.0
WRAP.           YES   :Multiple lines per depth step
PROD.  Schlumberger   :LAS Producer
PROG.  DLIS to ASCII 2.3                               :LAS Program name and version
CREA.        2023/07/14 00:15                          :LAS Creation date {YYYY/MM/DD hh:mm}
DLIS_CREA.  2023-Jul-14 00:11                          :DLIS Creation date and time {YYYY-MMM-DD hh:mm}
SOURCE.     LIS_007.dlis                               :DLIS File Name
FILE-ID.     LIS   .003                                :File Identification Number
#--------------------------------------------------
~WELL INFORMATION
#MNEM.UNIT      DATA             DESCRIPTION
#---- ------ --------------   -----------------------------
STRT .M      5238.7500       :START DEPTH     
STOP .M      4241.4444       :STOP DEPTH     
STEP .M        -0.1524       :STEP     
NULL .          -999.25      :NULL VALUE
COMP .        PETROBRAS S.A.                           :COMPANY
WELL .        3-BRSA-293D-SPS                          :WELL
FLD  .        BS-400                                   :FIELD
LOC  .        BASE SAD 69:                             :LOCATION
CNTY .        SANTOS                                   :COUNTY
STAT .        BRASIL                                   :STATE
CTRY .        SANTOS                                   :COUNTRY
API  .                                                 :API NUMBER
UWI  .                                                 :UNIQUE WELL ID
DATE .        23/10/2004                               :LOG DATE
SRVC .        Schlumberger                             :SERVICE COMPANY
LATI .DEG                                              :LATITUDE
LONG .DEG                                              :LONGITUDE
GDAT .                                                 :GeoDetic Datum
#-----------------------------------------------------------------------------
~PARAMETER INFORMATION
#MNEM.UNIT    VALUE                      DESCRIPTION
#---- -----   --------------------       ------------------------
APD  .M               24                 :
BHT  .DEGF           280                 :
BLI  .M             5230                 :
BS   .IN         8.50000                 :
CN   .        PETROBRAS S.A.             :
COUN .        SANTOS                     :
CS   .IN         9.62500                 :
DATE .        23/10/2004                 :
DFD  .LB/G      12.30000                 :
DFL  .C3               2                 :
DFPH .        N/A                        :
DFT  .        SINTETICO                  :
DFV  .S               87                 :
DMF  .        MESA ROTATIVA              :
EDF  .M               24                 :
EGL  .M             -500                 :
EKB  .        N/A                        :
ENGI .        HERNANDEZ/LOCK             :
FL1  .        X   7292392.00 M LAT 24 28 47.189 S :
FL2  .        Y    584087.00 M LON 44 10 12.698 W :
FL3  .        MC  45 GRAUS               :
FN   .        BS-400                     :
LMF  .        MESA ROTATIVA              :
LUL  .        MACAE                      :
MCSS .        PRENSA                     :
MCST .DEGF            80                 :
MFSS .        PRENSA                     :
MFST .DEGF            80                 :
MSS  .        LINHA DE FLUXO             :
MST  .DEGF            80                 :
PDAT .        NIVEL DO MAR               :
R1   .        01. APRESENTAÇÃO DE ACORDO COM REQUERIMENTO DO CLIENTE :
R2   .        02. TEMPERATURA MÁXIMA DO POÇO T1=T2= 260 DEGF @  5180 M :
R3   .        03. INICIO DA CIRCULAÇÃO  13 45 H 21/10/2004 :
R4   .        04. FINAL DA CIRCULAÇÃO   16 00 H 21/10/2004 :
R5   .        05. TEMPO TOTAL DE CIRCULAÇÃO  02 15 H :
R6   .        06. FLUIDO DE PERFURAÇÃO  SINTETICO (BR-MUL  BR-MI)  65% TEOR DO OLEO :
R7   .        07. SALINIDADE DA LAMA  266377 PPM NACL NA FASE DE AGUA :
R8   .        08. INCLINAÇÃO MÁXIMA DO POÇO  37.37 GRAUS @ 5100 M :
R9   .        09. PRIMEIRAS E ULTIMAS LEITURAS  :
RMB  .OHMM    > 10                       :
RMCS .OHMM    > 10                       :
RMFS .OHMM    > 10                       :
RMS  .OHMM    > 10                       :
RUN  .                 1                 :
STAT .        BRASIL                     :
TCS  .        16 00 H                    :
TDD  .M             5230                 :
TDL  .M             5231                 :
TLAB .        N/A                        :
TLI  .M             4277                 :
WITN .        ALCIDIO/VLADIMIR           :
WN   .        3-BRSA-293D-SPS            :
LUN  .              8808                 :
HIDE .        3-SPS-41D                  :
HID2 .        COMPENSATED Z-DENSILOG     :
HID3 .        COMPENSATED NEUTRON LOG    :
HID4 .        GAMMA RAY LOG              :
HID5 .        TTRM SUB                   :
CLAB .        BACIA                      :
SLAB .        PAIS                       :
CMT1 .        ESC  1 1000                :
CMT2 .        PROF. MEDIDA               :
CMT4 .        SONDA  SS-43               :
HDAT .        SAD 69                     :
FL   .        BASE SAD 69                :
OS1  .        HDIL/XMAC/SL/GR            :
OS3  .        MREX/GR                    :
OS5  .        SL/GR                      :
LNAM .        MREX/ZDL/CN/XMAC/HDIL/3DEX/RCI/SL/GR :
TOOL .        MREX/ZDL/CN/XMAC/HDIL/3DEX/RCI/SL/GR :
LSOU .        PETROBRAS                  :
LSRV .        OH WIRELINE                :
LTYP .        RAW                        :
EPD  .M                0                 :
LDAT .        23/10/2004                 :
TRIP .                 1                 :
SON  .            772317                 :
CBDR .M             4277                 :
CBLO .M             4277                 :
CBL1 .M             4277                 :
STEM .DEGF    N/A                        :
BSAL .            266377                 :
BARI .        OFF                        :
DLAB .        21/10/2004                 :
MRT  .DEGF           280                 :
TSTR .        ZDL/CN/GR/TTRM             :
TSTG .        N/A                        :
STUS .        FINAL                      :
LCNM .        BAKER ATLAS                :
LCC  .               150                 :
NATI .        SANTOS                     :
OPMD .        OH.WIRELINE                :
PANA .        HERNANDEZ/LOCK             :
PCON .        BAKER ATLAS                :
R11  .        GR     5222.5 M/4277.0 M   :
R12  .        ZDL    5230.0 M/4277.0 M   :
R13  .        CN     5224.0 M/4277.0 M   :
R15  .        10. PONTO FRACO UTILIZADO  10K :
R17  .        12. DECLINAÇÃO MAGNETICA  -20.9 GRAUS :
R18  .        13. COORDENADAS BASE       :
R21  .        Y    583936.00 M           :
R22  .        MC  45 GRAUS               :
PVER .           4.10000                 :
WDFN .        /space/expusr/3-SPS-41D/i77bf07_4spf.xtf :
OCT  .        i77bf                      :
0S2  .        3DEX/GR                    :
OS4  .        RCI/GR                     :
R16  .        11. CNC CORREGIDO PELO CALIPER E SALINIDADE  PRESENTADO MATRIZ CARBONATO :
R20  .        X   7292512.00 M           :
R24  .        14. CADASTRO ANP  86316021017 :
#-----------------------------------------------------------------------------
~CURVE INFORMATION
#MNEM.UNIT   API CODE                                  DESCRIPTION
#---- -----  --------                                  -----------------------
DEPT .M                                                :DEPTH (BOREHOLE) {F10.4}
DEPT .M                                                : {F13.4}
BIT  .IN                                               : {F13.4}
DEPM .M                                                : {F13.4}
GR   .GAPI                                             : {F13.4}
SPD  .M/MN                                             : {F13.4}
TEN  .LBF                                              : {F13.4}
TTEN .LBF                                              : {F13.4}
CAL  .IN                                               : {F13.4}
CALX .IN                                               : {F13.4}
HRD1 .HZ                                               : {F13.4}
HRD2 .HZ                                               : {F13.4}
PE   .B/E                                              : {F13.4}
SFT2 .HZ                                               : {F13.4}
SOFT .HZ                                               : {F13.4}
SSD  .HZ                                               : {F13.4}
ZCOR .G/C3                                             : {F13.4}
ZDEN .G/C3                                             : {F13.4}
CNC  .PU                                               : {F13.4}
CN   .PU                                               : {F13.4}
LSN  .HZ                                               : {F13.4}
SSN  .HZ                                               : {F13.4}
CNCF .PU                                               : {F13.4}
#-----------------------------------------------------------------------------
# DEPT       
#     DEPT         BIT          DEPM         GR           SPD          TEN          
#     TTEN         CAL          CALX         HRD1         HRD2         PE           
#     SFT2         SOFT         SSD          ZCOR         ZDEN         CNC          
#     CN           LSN          SSN          CNCF         
~A  
# ...
5106.4668
   5106.4668       8.5000    5105.9326      70.3766       5.1529      42.5550
   6516.6641       8.5940       8.5940     621.2087     862.2190       5.7072
    495.9523     358.3787    6224.5557      -0.0439       2.5558      18.4073
     18.6371    1299.7515    3167.0845      18.4073
5106.3144
   5106.3145       8.5000    5105.7803      71.5969       5.1300      41.8211
   6516.7705       8.5938       8.5938     623.0044     865.9116       5.7962
    494.9852     351.2958    6194.3818      -0.0493       2.5547      18.1691
     18.3977    1300.4749    3147.1543      18.1691
5106.1620
   5106.1620       8.5000    5105.6278      73.5278       5.1174      22.5862
   6498.1181       8.5950       8.5950     621.3490     870.2947       5.9233
    497.9488     340.5249    6178.7480      -0.0521       2.5546      18.1048
     18.3340    1299.5856    3139.2154      18.1048
5106.0096
   5106.0096       8.5000    5105.4754      75.8385       5.1233      -1.3996
   6474.2537       8.5964       8.5964     623.3240     861.3542       5.9071
    494.1014     336.6547    6189.9727      -0.0492       2.5569      18.2842
     18.5153    1291.3805    3135.7433      18.2842
5105.8572
   5105.8572       8.5000    5105.3230      78.3658       5.1263     -17.8531
   6457.5668       8.5964       8.5964     633.6388     837.8001       5.9292
    482.9923     337.1197    6212.4952      -0.0435       2.5604      18.4171
     18.6489    1279.3601    3118.4464      18.4171
5105.7048
   5105.7048       8.5000    5105.1716      80.1179       5.1236     -21.1781
   6453.8962       8.5956       8.5956     641.9207     824.9769       5.9797
    476.5056     334.8971    6207.8502      -0.0433       2.5624      18.4298
     18.6610    1266.1755    3087.3716      18.4298
5105.5524
   5105.5524       8.5000    5105.0192      79.5626       5.1283     -11.2252
   6463.6510       8.5948       8.5948     638.0068     830.6698       6.0146
    477.4458     331.6603    6181.2963      -0.0475       2.5626      18.6082
     18.8396    1249.1430    3061.3128      18.6082
5105.4000
   5105.4000       8.5000    5104.8668      77.0108       5.1423      -5.9448
   6468.9112       8.5949       8.5949     625.4054     842.4368       6.0446
    479.6748     327.4794    6176.0731      -0.0481       2.5635      19.0621
     19.2953    1231.7685    3057.4171      19.0621
5105.2476
   5105.2476       8.5000    5104.7144      74.2107       5.1485     -20.1894
   6454.5006       8.5958       8.5958     613.8120     841.8584       6.0849
    480.0716     322.5275    6196.6659      -0.0429       2.5666      19.4332
     19.6684    1226.8585    3076.5160      19.4332
5105.0952
   5105.0952       8.5000    5104.5620      72.0530       5.1363     -38.5283
   6435.6157       8.5962       8.5962     612.1893     832.1789       6.1538
    483.3629     323.4122    6205.0427      -0.0396       2.5691      19.2796
     19.5145    1243.5408    3105.3000      19.2796
5104.9428
   5104.9428       8.5000    5104.4096      70.3014       5.1191     -44.0606
   6429.3196       8.5953       8.5953     618.3949     833.8990       6.2197
    490.6124     330.7230    6198.0510      -0.0421       2.5673      18.6748
     18.9067    1275.5310    3131.9103      18.6748
5104.7904
   5104.7904       8.5000    5104.2572      69.0205       5.1136     -52.2949
   6420.2142       8.5942       8.5942     622.2724     847.1544       6.2531
    497.1843     333.2370    6213.7068      -0.0429       2.5636      18.3187
     18.5482    1298.6961    3156.4820      18.3187
5104.6380
   5104.6380       8.5000    5104.1048      68.8996       5.1143     -63.1360
   6408.3140       8.5934       8.5934     621.0961     856.3789       6.3280
    503.0731     328.1554    6256.7442      -0.0382       2.5614      18.3893
     18.6185    1306.1961    3181.1018      18.3893
5104.4856
   5104.4856       8.5000    5103.9524      69.2645       5.1138     -45.8849
   6424.6016       8.5932       8.5932     623.0227     867.7679       6.4559
    505.8046     327.2308    6293.8764      -0.0353       2.5586      18.2796
     18.5082    1315.3290    3193.2460      18.2796
5104.3332
   5104.3332       8.5000    5103.7990      68.9908       5.1224       8.5189
   6478.7884       8.5923       8.5923     628.8731     881.9468       6.6170
    496.9419     328.0157    6316.1058      -0.0357       2.5555      17.7044
     17.9297    1331.7381    3179.0737      17.7044
5104.1808
   5104.1808       8.5000    5103.6476      68.9026       5.1431      69.5338
   6540.6757       8.5903       8.5903     631.2205     883.4248       6.8435
    480.6354     319.9532    6321.0655      -0.0357       2.5564      16.4830
     16.7003    1373.1577    3157.5415      16.4830
5104.0284
   5104.0284       8.5000    5103.4952      69.7784       5.1521     109.9509
   6582.8279       8.5900       8.5900     620.9683     871.8489       6.9250
    467.1250     306.8181    6274.3091      -0.0385       2.5647      15.0004
     15.2082    1460.0847    3198.0759      15.0004
5103.8760
   5103.8760       8.5000    5103.3428      68.7560       5.1420     133.9059
   6608.9600       8.5930       8.5930     593.3090     845.8480       6.8308
    455.1879     297.9161    6151.8662      -0.0463       2.5815      14.2560
     14.4605    1565.0173    3340.6318      14.2560
5103.7236
   5103.7236       8.5000    5103.1895      63.3396       5.1327     165.1122
   6642.7217       8.5964       8.5964     561.7429     808.4260       6.7317
    443.4914     290.1725    6036.6514      -0.0501       2.6023      14.6079
     14.8172    1615.8865    3492.3540      14.6079
5103.5712
   5103.5712       8.5000    5103.0370      57.7966       5.1346     214.1655
   6695.0544       8.5976       8.5976     544.7356     778.2606       6.7018
    437.8468     280.9962    6027.9097      -0.0420       2.6184      15.5501
     15.7668    1571.3517    3506.5327      15.5501
5103.4188
   5103.4188       8.5000    5102.8846      58.8385       5.1323     267.3575
   6752.4187       8.5969       8.5969     541.9327     756.3976       6.6500
    435.1208     277.3072    6084.6387      -0.0285       2.6286      16.6887
     16.9120    1460.1049    3379.7290      16.6887
5103.2664
   5103.2664       8.5000    5102.7322      65.5292       5.1210     315.6090
   6805.6860       8.5955       8.5955     539.9185     734.8074       6.4821
    428.4099     281.6244    6112.8690      -0.0194       2.6365      17.8558
     18.0842    1352.2806    3242.8177      17.8558
5103.1140
   5103.1140       8.5000    5102.5808      70.9725       5.1196     360.9262
   6856.7882       8.5946       8.5946     543.4272     727.4633       6.5716
    423.9536     286.1253    6116.5416      -0.0180       2.6381      18.5628
     18.7938    1296.8189    3174.0356      18.5628
5102.9616
   5102.9616       8.5000    5102.4284      72.9553       5.1399     399.9724
   6902.3461       8.5944       8.5944     556.4907     744.7784       6.5850
    428.5703     288.2074    6140.5793      -0.0209       2.6306      18.7252
     18.9567    1280.0842    3147.5117      18.7252
5102.8092
   5102.8092       8.5000    5102.2760      74.2120       5.1586     434.1664
   6943.5660       8.5944       8.5944     566.3797     768.9670       6.6126
    432.0311     286.5809    6180.7292      -0.0220       2.6221      18.7663
     18.9979    1270.1191    3126.6239      18.7663
5102.6568
   5102.6568       8.5000    5102.1236      76.1703       5.1518     474.2105
   6991.2264       8.5946       8.5946     562.6648     781.0734       6.7779
    429.1070     281.9737    6201.6454      -0.0206       2.6201      18.8929
     19.1251    1257.1246    3105.6589      18.8929
5102.5044
   5102.5044       8.5000    5101.9712      77.6877       5.1306     519.8699
   7045.3274       8.5952       8.5952     554.4665     787.2319       6.7997
    426.5756     278.8999    6193.1332      -0.0214       2.6214      18.9495
     19.1825    1248.4624    3089.1826      18.9495
5102.3520
   5102.3520       8.5000    5101.8188      77.7268       5.1151     563.1326
   7097.7871       8.5952       8.5952     553.8773     796.5372       6.7733
    427.7242     281.1628    6191.8951      -0.0234       2.6207      18.9480
     19.1809    1244.5602    3079.3961      18.9480
