~VERSION INFORMATION
VERS.           2.0   :CWLS Log ASCII Standard - VERSION 2.0
WRAP.           YES   :Multiple lines per depth step
PROD.  Schlumberger   :LAS Producer
PROG.  DLIS to ASCII 2.3                               :LAS Program name and version
CREA.        2023/07/14 00:15                          :LAS Creation date {YYYY/MM/DD hh:mm}
DLIS_CREA.  2023-Jul-14 00:11                          :DLIS Creation date and time {YYYY-MMM-DD hh:mm}
SOURCE.     LIS_012.dlis                               :DLIS File Name
FILE-ID.     LIS   .001                                :File Identification Number
#--------------------------------------------------
~WELL INFORMATION
#MNEM.UNIT      DATA             DESCRIPTION
#---- ------ --------------   -----------------------------
STRT .M      5265.1152       :START DEPTH     
STOP .M      5185.4100       :STOP DEPTH     
STEP .M        -0.1524       :STEP     
NULL .          -999.25      :NULL VALUE
COMP .        PETROBRAS S.A.                           :COMPANY
WELL .        3-BRSA-293D-SPS                          :WELL
FLD  .        BS-400                                   :FIELD
LOC  .        BASE SAD 69:                             :LOCATION
CNTY .        SANTOS                                   :COUNTY
STAT .        BRASIL                                   :STATE
CTRY .        BRASIL                                   :COUNTRY
API  .                                                 :API NUMBER
UWI  .                                                 :UNIQUE WELL ID
DATE .        15/11/2004                               :LOG DATE
SRVC .        Schlumberger                             :SERVICE COMPANY
LATI .DEG                                              :LATITUDE
LONG .DEG                                              :LONGITUDE
GDAT .                                                 :GeoDetic Datum
#-----------------------------------------------------------------------------
~PARAMETER INFORMATION
#MNEM.UNIT    VALUE                      DESCRIPTION
#---- -----   --------------------       ------------------------
APD  .M               24                 :
BHT  .DEGF           260                 :
BLI  .M             5289                 :
BS   .IN         8.50000                 :
CN   .        PETROBRAS S.A.             :
COUN .        SANTOS                     :
CS   .IN         9.62500                 :
DATE .        15/11/2004                 :
DFD  .LB/G      12.30000                 :
DFL  .C3               2                 :
DFPH .        N/A                        :
DFT  .        SINTETICO                  :
DFV  .S               95                 :
DMF  .        MESA ROTATIVA              :
EDF  .M               24                 :
EGL  .M             -500                 :
EKB  .        N/A                        :
ENGI .        HERNANDEZ / LOCK           :
FL1  .        X   7292392.00 M LAT 24 28 47.189 S :
FL2  .        Y    584087.00 M LON 44 10 12.698 W :
FL3  .        MC  45 GRAUS               :
FN   .        BS-400                     :
LMF  .        MESA ROTATIVA              :
LUL  .        MACAE                      :
MCSS .        PRENSA                     :
MCST .DEGF            80                 :
MFSS .        PRENSA                     :
MFST .DEGF            80                 :
MSS  .        LINHA DE FLUXO             :
MST  .DEGF            80                 :
PDAT .        NIVEL DO MAR               :
R1   .        01. APRESENTAÇÃO DE ACORDO COM REQUERIMENTO DO CLIENTE :
R2   .        02. TEMPERATURA MÁXIMA DO POÇO T1=T2= 292 DEGF @  5277 M :
R3   .        03. INICIO DA CIRCULAÇÃO  12/11/2004 09 00 H :
R4   .        04. FINAL DA CIRCULAÇÃO   12/11/2004 18 00 H :
R5   .        05. TEMPO TOTAL DE CIRCULAÇÃO   09 00 H :
R6   .        06. FLUIDO DE PERFURAÇÃO  SINTETICO (BR-MUL  BR-MI)  60% TEOR DO OLEO :
R7   .        07. SALINIDADE DA LAMA  254762 PPM NACL NA FASE DE AGUA :
R8   .        08. INCLINAÇÃO MÁXIMA DO POÇO  37.37 GRAUS @ 5100 M :
R9   .        09. PRIMEIRAS E ULTIMAS LEITURAS  :
RMB  .OHMM    > 10                       :
RMCS .OHMM    > 10                       :
RMFS .OHMM    > 10                       :
RMS  .OHMM    >10                        :
RUN  .                 2                 :
STAT .        BRASIL                     :
TCS  .        18 00 H                    :
TDD  .M             5288                 :
TDL  .M             5293                 :
TLAB .        N/A                        :
TLI  .M             4277                 :
WITN .        ERNANI / ZE MARIA          :
WN   .        3-BRSA-293D-SPS            :
LUN  .              8808                 :
HIDE .        3-SPS-41D                  :
HID2 .        COMPENSATED Z-DENSILOG     :
HID3 .        COMPENSATED NEUTRON LOG    :
HID4 .        GAMMA RAY LOG              :
HID5 .        TTRM SUB                   :
CLAB .        BACIA                      :
SLAB .        PAIS                       :
CMT1 .        ESC  1 1000                :
CMT2 .        PROF. MEDIDA               :
CMT4 .        SONDA  SS-43               :
HDAT .        SAD 69                     :
FL   .        BASE SAD 69                :
OS1  .        RCI/GR                     :
OS2  .        CHECK SHOT                 :
OS3  .        GR/XMAC/HDIL               :
OS5  .        RCOR/GR                    :
LNAM .        ZDL/CN/XMAC/HDIL/EARTH IMAGER/RCI/RCOR/CHECK SHOT/GR :
TOOL .        ZDL/CN/XMAC/HDIL/EARTH IMAGER/RCI/RCOR/CHECK SHOT/GR :
LSOU .        PETROBRAS                  :
LSRV .        OH WIRELINE                :
LTYP .        RAW                        :
EPD  .M                0                 :
LDAT .        15/11/2004                 :
TRIP .                 4                 :
SON  .            786588                 :
CBDR .M             4277                 :
CBLO .        NR                         :
CBL1 .        NR                         :
STEM .DEGF    N/A                        :
BSAL .            254762                 :
BARI .        OFF                        :
DLAB .        12/11/2004                 :
MRT  .DEGF           292                 :
TSTR .        ZDL/CN/GR/TTRM             :
TSTG .        N/A                        :
STUS .        FINAL                      :
LCNM .        BAKER ATLAS                :
LCC  .               150                 :
NATI .        BRASIL                     :
OPMD .        OH.WIRELINE                :
PANA .        HERNANDEZ / LOCK           :
PCON .        BAKER ATLAS                :
R11  .        GR     5268.3 M / 4277.0 M :
R12  .        CN     5286.5 M / 5128.0 M (FERRAMENTA PERDEU LEITURA ACIMA DE 5128M) :
R13  .        ZDL    5292.0 M / 4277.0 M :
R15  .        10. PONTO FRACO UTILIZADO  10K :
R17  .        12. COORDENADAS BASE       :
R19  .        X   7292512.00 M           :
R21  .        MC  45 GRAUS               :
R23  .        13. CADASTRO ANP  86316021017 :
PVER .           4.10000                 :
WDFN .        /space/expusr/3-SPS-41D_RUN2/i77bf03_8spf.xtf :
OCT  .        i77bf                      :
OS4  .        EARTH IMAGER               :
R16  .        11. DECLINAÇÃO MAGNETICA  -20.9 GRAUS :
R20  .        Y    583936.00 M           :
#-----------------------------------------------------------------------------
~CURVE INFORMATION
#MNEM.UNIT   API CODE                                  DESCRIPTION
#---- -----  --------                                  -----------------------
DEPT .M                                                :DEPTH (BOREHOLE) {F10.4}
DEPT .M                                                : {F13.4}
BIT  .IN                                               : {F13.4}
DEPM .M                                                : {F13.4}
GR   .GAPI                                             : {F13.4}
SPD  .M/MN                                             : {F13.4}
TTEN .LBF                                              : {F13.4}
CAL  .IN                                               : {F13.4}
CALX .IN                                               : {F13.4}
HRD1 .HZ                                               : {F13.4}
HRD2 .HZ                                               : {F13.4}
PE   .B/E                                              : {F13.4}
SFT2 .HZ                                               : {F13.4}
SOFT .HZ                                               : {F13.4}
SSD  .HZ                                               : {F13.4}
ZCOR .G/C3                                             : {F13.4}
ZDEN .G/C3                                             : {F13.4}
CNC  .PU                                               : {F13.4}
CN   .PU                                               : {F13.4}
LSN  .HZ                                               : {F13.4}
SSN  .HZ                                               : {F13.4}
CNCF .PU                                               : {F13.4}
MMRK .MN                                               : {F13.4}
#-----------------------------------------------------------------------------
# DEPT       
#     DEPT         BIT          DEPM         GR           SPD          TTEN         
#     CAL          CALX         HRD1         HRD2         PE           SFT2         
#     SOFT         SSD          ZCOR         ZDEN         CNC          CN           
#     LSN          SSN          CNCF         MMRK         
~A  
5265.1152
   5265.1152       8.5000    5264.8096    -999.2500    -999.2500    -999.2500
   -999.2500    -999.2500    -999.2500    -999.2500    -999.2500    -999.2500
   -999.2500    -999.2500    -999.2500    -999.2500    -999.2500    -999.2500
   -999.2500    -999.2500    -999.2500       0.0000
5264.9628
   5264.9628       8.5000    5264.6689    -999.2500    -999.2500    -999.2500
   -999.2500    -999.2500    -999.2500    -999.2500    -999.2500    -999.2500
   -999.2500    -999.2500    -999.2500    -999.2500    -999.2500    -999.2500
   -999.2500    -999.2500    -999.2500       0.0000
5264.8104
   5264.8104       8.5000    5264.5165    -999.2500       6.7330    -999.2500
   -999.2500    -999.2500    -999.2500    -999.2500    -999.2500    -999.2500
   -999.2500    -999.2500    -999.2500    -999.2500    -999.2500    -999.2500
   -999.2500    -999.2500    -999.2500       0.0000
5264.6580
   5264.6580       8.5000    5264.3641    -999.2500       5.3417    6151.7457
   -999.2500    -999.2500    -999.2500    -999.2500    -999.2500    -999.2500
   -999.2500    -999.2500    -999.2500    -999.2500    -999.2500    -999.2500
   -999.2500    -999.2500    -999.2500       0.0000
5264.5056
   5264.5056       8.5000    5264.2117    -999.2500       4.4540    6188.7506
   -999.2500    -999.2500    -999.2500    -999.2500       2.5370    -999.2500
   -999.2500    -999.2500    -999.2500    -999.2500    -999.2500    -999.2500
   -999.2500    -999.2500    -999.2500       0.0000
5264.3532
   5264.3532       8.5000    5264.0602    -999.2500       5.3101    6242.1166
   -999.2500    -999.2500    -999.2500    -999.2500       2.5051    -999.2500
   -999.2500    -999.2500    -999.2500       2.4993    -999.2500    -999.2500
   -999.2500    -999.2500    -999.2500       0.0000
5264.2008
   5264.2008       8.5000    5263.9078    -999.2500       5.7377    6311.9634
   -999.2500    -999.2500    -999.2500    -999.2500       2.5060    -999.2500
   -999.2500    -999.2500    -999.2500       2.4965    -999.2500    -999.2500
   -999.2500    -999.2500    -999.2500       0.0000
5264.0484
   5264.0484       8.5000    5263.7554    -999.2500       5.8479    6390.6003
   -999.2500    -999.2500    -999.2500    -999.2500       2.5001    -999.2500
   -999.2500    -999.2500    -999.2500       2.4938    -999.2500    -999.2500
   -999.2500    -999.2500    -999.2500       0.0000
5263.8960
   5263.8960       8.5000    5263.6030    -999.2500       5.9510    6466.8313
   -999.2500 -957149.6430    -999.2500    -999.2500       4.5464    -999.2500
   -999.2500    -999.2500    -999.2500       2.4907    -999.2500    -999.2500
   -999.2500    -999.2500    -999.2500       0.0000
5263.7436
   5263.7436       8.5000    5263.4506    -999.2500       6.0548    6530.5493
   -999.2500       8.4287     560.2990     713.9201       9.2273     374.3885
    214.6705    6523.9952 -949162.9378       2.5945    -999.2500    -999.2500
   -999.2500    -999.2500    -999.2500       0.0000
5263.5912
   5263.5912       8.5000    5263.2982    -999.2500       6.0921    6574.9399
   -999.2500       8.4346     551.1749     725.4685       8.4607     397.9294
    235.1488    6525.9305      -0.0248       2.6383    -999.2500    -999.2500
   -999.2500    -999.2500    -999.2500       0.0000
5263.4388
   5263.4388       8.5000    5263.1458    -999.2500       6.1509    6599.4375
-957237.9399       8.4333     550.7461     745.3468       8.4718     405.4629
    240.6984    6544.4319      -0.0234       2.6314    -999.2500    -999.2500
   -999.2500    -999.2500    -999.2500       0.0000
5263.2864
   5263.2864       8.5000    5262.9934    -999.2500       6.1544    6629.5303
      8.4331       8.4314     557.2255     700.2204       8.3740     392.4973
    222.2570    6502.0758      -0.0224       2.6427    -999.2500    -999.2500
   -999.2500    -999.2500    -999.2500       0.0000
5263.1340
   5263.1340       8.5000    5262.8410    -999.2500       6.1247    6687.3383
      8.4329       8.4341     527.9225     699.3301       7.9295     388.2329
    233.9055    6559.7139      -0.0103       2.6534    -999.2500    -999.2500
   -999.2500    -999.2500    -999.2500       0.0000
5262.9816
   5262.9816       8.5000    5262.6886    -999.2500       6.1595    6756.2948
      8.4319       8.4319     555.9777     678.1963       7.4688     391.6091
    248.6010    6575.0269      -0.0056       2.6537    -999.2500    -999.2500
   -999.2500    -999.2500    -999.2500       0.0000
5262.8292
   5262.8292       8.5000    5262.5362    -999.2500       6.2153    6812.6837
      8.4317       8.4319     554.7204     691.2491       7.4576     397.4887
    248.3871    6537.8717      -0.0160       2.6528    -999.2500    -999.2500
   -999.2500    -999.2500    -999.2500       0.0000
5262.6768
   5262.6768       8.5000    5262.3828    -999.2500       6.2469    6862.2598
      8.4284       8.4310     543.1699     679.5099       7.6405     412.0869
    238.4745    6633.1650       0.0007       2.6594    -999.2500    -999.2500
   -999.2500    -999.2500    -999.2500       0.0000
5262.5244
   5262.5244       8.5000    5262.2305    -999.2500       6.2409    6913.1396
      8.4248       8.4254     541.7904     687.7903       7.9386     385.6022
    232.1160    6647.5586       0.0056       2.6565    -999.2500    -999.2500
   -999.2500    -999.2500    -999.2500       0.0000
5262.3720
   5262.3720       8.5000    5262.0781    -999.2500       6.2919    6946.2038
      8.4246       8.4252     502.7936     742.6308       8.4958     398.4332
    237.2821    6582.1000      -0.0067       2.6505    -999.2500    -999.2500
   -999.2500    -999.2500    -999.2500       0.0000
5262.2196
   5262.2196       8.5000    5261.9257    -999.2500       5.2551    6948.2901
      8.4241       8.4241     548.6786     709.8693       9.1779     414.1776
    218.5472    6572.0848      -0.0123       2.6443    -999.2500    -999.2500
   -999.2500    -999.2500    -999.2500       0.0000
5262.0672
   5262.0672       8.5000    5261.7733    -999.2500       2.7786    6947.9343
      8.4254       8.4240     548.2390     767.8346      10.0945     394.0950
    210.4719    6563.6752      -0.0259       2.6267    -999.2500    -999.2500
   -999.2500    -999.2500    -999.2500       0.0000
5261.9148
   5261.9148       8.5000    5261.6209    -999.2500       2.3563    6973.0985
      8.4298       8.4285     536.5636     780.7617       9.7239     394.0423
    224.7703    6583.0403      -0.0250       2.6223    -999.2500    -999.2500
   -999.2500    -999.2500    -999.2500       0.0000
5261.7624
   5261.7624       8.5000    5261.4694    -999.2500       2.4096    7023.2321
      8.4269       8.4288     544.7152     757.8953       9.5182     409.1297
    227.8418    6658.5193      -0.0118       2.6233    -999.2500    -999.2500
   -999.2500    -999.2500    -999.2500       0.0000
5261.6100
   5261.6100       8.5000    5261.3170    -999.2500       2.6861    7091.7235
      8.4231       8.4243     516.1097     762.4487       9.4339     407.3821
    226.3993    6594.4898      -0.0101       2.6303    -999.2500    -999.2500
   -999.2500    -999.2500    -999.2500       0.0000
5261.4576
   5261.4576       8.5000    5261.1646    -999.2500       4.9022    7176.1875
      8.4264       8.4246     529.3575     725.7520       9.5276     403.9677
    230.9886    6547.9067      -0.0155       2.6355    -999.2500    -999.2500
   -999.2500    -999.2500    -999.2500       0.0000
5261.3052
   5261.3052       8.5000    5261.0122    -999.2500       6.0445    7266.6931
      8.4246       8.4261     575.3090     749.8882       9.5286     399.5161
    228.5505    6571.0151      -0.0275       2.6155    -999.2500    -999.2500
   -999.2500    -999.2500    -999.2500       0.0000
5261.1528
   5261.1528       8.5000    5260.8598    -999.2500       6.0615    7334.1495
      8.4245       8.4238     557.4805     767.7516       9.6477     382.9642
    214.8899    6598.9202      -0.0240       2.6135    -999.2500    -999.2500
   -999.2500    -999.2500    -999.2500       0.0000
5261.0004
   5261.0004       8.5000    5260.7074    -999.2500       6.2167    7367.6406
      8.4233       8.4246     548.4635     755.8806       9.7873     383.9674
    222.8321    6578.9184      -0.0194       2.6179    -999.2500    -999.2500
   -999.2500    -999.2500    -999.2500       0.0000
