~VERSION INFORMATION
VERS.           2.0   :CWLS Log ASCII Standard - VERSION 2.0
WRAP.           NO    :One Line per depth step
PROD.  Schlumberger   :LAS Producer
PROG.  DLIS to ASCII 2.3                               :LAS Program name and version
CREA.        2023/07/14 00:15                          :LAS Creation date {YYYY/MM/DD hh:mm}
DLIS_CREA.  2023-Jul-14 00:11                          :DLIS Creation date and time {YYYY-MMM-DD hh:mm}
SOURCE.     LIS_005.dlis                               :DLIS File Name
FILE-ID.     LIS   .001                                :File Identification Number
#--------------------------------------------------
~WELL INFORMATION
#MNEM.UNIT      DATA             DESCRIPTION
#---- ------ --------------   -----------------------------
STRT .M      5238.7500       :START DEPTH     
STOP .M      5087.2644       :STOP DEPTH     
STEP .M        -0.1524       :STEP     
NULL .          -999.25      :NULL VALUE
COMP .        PETROBRAS S.A.                           :COMPANY
WELL .        3-BRSA-293D-SPS                          :WELL
FLD  .        BS-400                                   :FIELD
LOC  .        BASE SAD 69:                             :LOCATION
CNTY .        SANTOS                                   :COUNTY
STAT .        BRASIL                                   :STATE
CTRY .        SANTOS                                   :COUNTRY
API  .                                                 :API NUMBER
UWI  .                                                 :UNIQUE WELL ID
DATE .        23/10/2004                               :LOG DATE
SRVC .        Schlumberger                             :SERVICE COMPANY
LATI .DEG                                              :LATITUDE
LONG .DEG                                              :LONGITUDE
GDAT .                                                 :GeoDetic Datum
#-----------------------------------------------------------------------------
~PARAMETER INFORMATION
#MNEM.UNIT    VALUE                      DESCRIPTION
#---- -----   --------------------       ------------------------
APD  .M               24                 :
BHT  .DEGF           280                 :
BLI  .M             5230                 :
BS   .IN         8.50000                 :
CN   .        PETROBRAS S.A.             :
COUN .        SANTOS                     :
CS   .IN         9.62500                 :
DATE .        23/10/2004                 :
DFD  .LB/G      12.30000                 :
DFL  .C3               2                 :
DFPH .        N/A                        :
DFT  .        SINTETICO                  :
DFV  .S               87                 :
DMF  .        MESA ROTATIVA              :
EDF  .M               24                 :
EGL  .M             -500                 :
EKB  .        N/A                        :
ENGI .        HERNANDEZ/LOCK             :
FL1  .        X   7292392.00 M LAT 24 28 47.189 S :
FL2  .        Y    584087.00 M LON 44 10 12.698 W :
FL3  .        MC  45 GRAUS               :
FN   .        BS-400                     :
LMF  .        MESA ROTATIVA              :
LUL  .        MACAE                      :
MCSS .        PRENSA                     :
MCST .DEGF            80                 :
MFSS .        PRENSA                     :
MFST .DEGF            80                 :
MSS  .        LINHA DE FLUXO             :
MST  .DEGF            80                 :
PDAT .        NIVEL DO MAR               :
R1   .        01. APRESENTAÇÃO DE ACORDO COM REQUERIMENTO DO CLIENTE :
R2   .        02. TEMPERATURA MÁXIMA DO POÇO T1=T2= 260 DEGF @  5180 M :
R3   .        03. INICIO DA CIRCULAÇÃO  13 45 H 21/10/2004 :
R4   .        04. FINAL DA CIRCULAÇÃO   16 00 H 21/10/2004 :
R5   .        05. TEMPO TOTAL DE CIRCULAÇÃO  02 15 H :
R6   .        06. FLUIDO DE PERFURAÇÃO  SINTETICO (BR-MUL  BR-MI)  65% TEOR DO OLEO :
R7   .        07. SALINIDADE DA LAMA  266377 PPM NACL NA FASE DE AGUA :
R8   .        08. INCLINAÇÃO MÁXIMA DO POÇO  37.37 GRAUS @ 5100 M :
R9   .        09. PRIMEIRAS E ULTIMAS LEITURAS  :
RMB  .OHMM    > 10                       :
RMCS .OHMM    > 10                       :
RMFS .OHMM    > 10                       :
RMS  .OHMM    > 10                       :
RUN  .                 1                 :
STAT .        BRASIL                     :
TCS  .        16 00 H                    :
TDD  .M             5230                 :
TDL  .M             5231                 :
TLAB .        N/A                        :
TLI  .M             4277                 :
WITN .        ALCIDIO/VLADIMIR           :
WN   .        3-BRSA-293D-SPS            :
LUN  .              8808                 :
HIDE .        3-SPS-41D                  :
HID2 .        COMPENSATED Z-DENSILOG     :
HID3 .        COMPENSATED NEUTRON LOG    :
HID4 .        GAMMA RAY LOG              :
HID5 .        TTRM SUB                   :
CLAB .        BACIA                      :
SLAB .        PAIS                       :
CMT1 .        ESC  1 1000                :
CMT2 .        PROF. MEDIDA               :
CMT4 .        SONDA  SS-43               :
HDAT .        SAD 69                     :
FL   .        BASE SAD 69                :
OS1  .        HDIL/XMAC/SL/GR            :
OS3  .        MREX/GR                    :
OS5  .        SL/GR                      :
LNAM .        MREX/ZDL/CN/XMAC/HDIL/3DEX/RCI/SL/GR :
TOOL .        MREX/ZDL/CN/XMAC/HDIL/3DEX/RCI/SL/GR :
LSOU .        PETROBRAS                  :
LSRV .        OH WIRELINE                :
LTYP .        RAW                        :
EPD  .M                0                 :
LDAT .        23/10/2004                 :
TRIP .                 1                 :
SON  .            772317                 :
CBDR .M             4277                 :
CBLO .M             4277                 :
CBL1 .M             4277                 :
STEM .DEGF    N/A                        :
BSAL .            266377                 :
BARI .        OFF                        :
DLAB .        21/10/2004                 :
MRT  .DEGF           280                 :
TSTR .        ZDL/CN/GR/TTRM             :
TSTG .        N/A                        :
STUS .        FINAL                      :
LCNM .        BAKER ATLAS                :
LCC  .               150                 :
NATI .        SANTOS                     :
OPMD .        OH.WIRELINE                :
PANA .        HERNANDEZ/LOCK             :
PCON .        BAKER ATLAS                :
R11  .        GR     5222.5 M/4277.0 M   :
R12  .        ZDL    5230.0 M/4277.0 M   :
R13  .        CN     5224.0 M/4277.0 M   :
R15  .        10. PONTO FRACO UTILIZADO  10K :
R17  .        12. DECLINAÇÃO MAGNETICA  -20.9 GRAUS :
R18  .        13. COORDENADAS BASE       :
R21  .        Y    583936.00 M           :
R22  .        MC  45 GRAUS               :
PVER .           4.10000                 :
WDFN .        /space/expusr/3-SPS-41D/i77bf06_8spf.xtf :
OCT  .        i77bf                      :
0S2  .        3DEX/GR                    :
OS4  .        RCI/GR                     :
R16  .        11. CNC CORREGIDO PELO CALIPER E SALINIDADE  PRESENTADO MATRIZ CARBONATO :
R20  .        X   7292512.00 M           :
R24  .        14. CADASTRO ANP  86316021017 :
#-----------------------------------------------------------------------------
~CURVE INFORMATION
#MNEM.UNIT   API CODE                                  DESCRIPTION
#---- -----  --------                                  -----------------------
DEPT .M                                                :DEPTH (BOREHOLE) {F10.4}
DEPT .M                                                : {F13.4}
BIT  .IN                                               : {F13.4}
GR   .GAPI                                             : {F13.4}
TEN  .LBF                                              : {F13.4}
TTEN .LBF                                              : {F13.4}
CAL  .IN                                               : {F13.4}
CALX .IN                                               : {F13.4}
HRD1 .HZ                                               : {F13.4}
HRD2 .HZ                                               : {F13.4}
PE   .B/E                                              : {F13.4}
SFT2 .HZ                                               : {F13.4}
SOFT .HZ                                               : {F13.4}
SSD  .HZ                                               : {F13.4}
ZCOR .G/C3                                             : {F13.4}
ZDEN .G/C3                                             : {F13.4}
#-----------------------------------------------------------------------------
# 
#     DEPT        DEPT         BIT          GR           TEN          TTEN         CAL          CALX         HRD1         HRD2         PE           SFT2         SOFT         SSD          ZCOR         ZDEN
#
~A  
# ...
 5131.7652    5131.7652       8.5000     101.5335     145.3481    6556.4677       8.5797       8.5797     626.7427     831.5705       5.7540     491.1121     337.6392    6228.8833      -0.0387       2.5694
 5131.6128    5131.6128       8.5000     100.8383     161.2682    6574.7959       8.5771       8.5771     624.9077     846.5350       5.9122     486.0027     331.8123    6242.0050      -0.0392       2.5637
 5131.4604    5131.4604       8.5000      98.5618     183.4227    6599.8168       8.5761       8.5761     619.1976     844.4099       5.9108     486.4890     331.1264    6212.5548      -0.0420       2.5628
 5131.3080    5131.3080       8.5000      95.0254     191.8653    6611.4221       8.5762       8.5762     620.7825     837.2028       5.9251     495.6436     336.5796    6193.4980      -0.0438       2.5621
 5131.1556    5131.1556       8.5000      91.7047     205.6299    6628.5581       8.5763       8.5763     621.3981     851.1582       5.9654     495.5273     342.2085    6191.0895      -0.0468       2.5582
 5131.0032    5131.0032       8.5000      90.8136     205.9777    6632.4125       8.5756       8.5756     617.7813     867.3086       5.9914     484.5194     342.2197    6186.5754      -0.0497       2.5548
 5130.8508    5130.8508       8.5000      91.1404     163.5328    6593.0659       8.5748       8.5748     616.7586     860.4748       6.0075     476.9147     336.7309    6194.4268      -0.0472       2.5555
 5130.6984    5130.6984       8.5000      91.1942     109.2053    6540.9679       8.5738       8.5738     620.5854     849.5200       6.0342     477.8569     335.6514    6228.3911      -0.0409       2.5567
 5130.5460    5130.5460       8.5000      92.1354      76.0285    6509.2933       8.5730       8.5730     619.5752     858.2682       6.0585     480.0733     339.8949    6252.1434      -0.0389       2.5555
 5130.3936    5130.3936       8.5000      94.4847      51.0071    6485.2874       8.5731       8.5731     617.1666     874.2854       6.1036     478.3349     342.5624    6232.9379      -0.0442       2.5518
 5130.2412    5130.2412       8.5000      95.8416      39.8015    6474.7686       8.5737       8.5737     624.1630     879.5608       6.2035     476.4771     340.4733    6183.0355      -0.0536       2.5472
 5130.0888    5130.0888       8.5000      92.7145      66.4811    6502.2920       8.5746       8.5746     633.5605     879.8482       6.3305     479.9277     335.1379    6131.5602      -0.0629       2.5471
 5129.9364    5129.9364       8.5000      84.7625     114.4691    6551.7847       8.5761       8.5761     634.3296     883.7176       6.3995     484.8629     333.3902    6121.7761      -0.0651       2.5458
 5129.7840    5129.7840       8.5000      76.2250     156.0160    6595.5615       8.5770       8.5770     632.6726     886.2591       6.2590     489.7080     340.1036    6158.8191      -0.0599       2.5440
 5129.6316    5129.6316       8.5000      71.8610     204.3201    6646.8093       8.5771       8.5771     647.8091     910.1616       5.9792     511.0099     360.9960    6252.0530      -0.0532       2.5340
 5129.4792    5129.4792       8.5000      71.3608     267.1379    6713.5219       8.5780       8.5780     705.2425     991.8789       5.7591     563.3004     402.7598    6500.0148      -0.0412       2.5074
 5129.3268    5129.3268       8.5000      72.1449     316.9313    6768.2455       8.5791       8.5791     796.4605    1101.3805       5.6647     621.6741     451.3263    6884.6577      -0.0196       2.4766
 5129.1744    5129.1744       8.5000      73.1470     347.5476    6804.4871       8.5789       8.5789     867.2100    1165.7491       5.6344     659.1309     477.4195    7180.7532      -0.0002       2.4605
 5129.0220    5129.0220       8.5000      73.1833     385.2643    6848.3650       8.5779       8.5779     882.5236    1170.9642       5.5989     677.5961     480.9437    7275.7044       0.0096       2.4615
 5128.8696    5128.8696       8.5000      71.8370     431.8097    6901.7169       8.5763       8.5763     868.5340    1165.4101       5.5026     684.1925     483.2832    7283.7013       0.0134       2.4691
 5128.7172    5128.7172       8.5000      71.8299     468.2075    6945.6502       8.5752       8.5752     860.3862    1160.9970       5.2556     681.6576     495.6635    7286.1694       0.0156       2.4759
 5128.5648    5128.5648       8.5000      73.9436     502.3336    6988.1487       8.5759       8.5759     863.3827    1144.6573       4.9112     686.2355     512.0181    7282.3623       0.0170       2.4811
 5128.4124    5128.4124       8.5000      74.2815     552.6737    7047.9357       8.5767       8.5767     864.7832    1125.7818       4.6827     700.4497     519.7532    7286.1864       0.0201       2.4867
 5128.2600    5128.2600       8.5000      71.7657     607.0782    7112.8759       8.5757       8.5757     857.5250    1124.7190       4.6617     700.3205     519.6666    7301.1868       0.0233       2.4953
 5128.1076    5128.1076       8.5000      69.3144     647.2846    7164.6645       8.5747       8.5747     851.0136    1131.9169       4.7103     680.2586     519.4992    7298.0384       0.0228       2.4969
 5127.9552    5127.9552       8.5000      68.5070     675.3450    7205.5084       8.5770       8.5770     858.0039    1130.5412       4.7497     668.1987     512.9684    7267.0896       0.0178       2.4920
 5127.8028    5127.8028       8.5000      68.9944     703.7174    7247.8045       8.5806       8.5806     866.9822    1121.4847       4.7993     680.5147     503.5755    7236.1983       0.0137       2.4892
 5127.6504    5127.6504       8.5000      71.2225     736.1567    7295.1534       8.5812       8.5812     859.6656    1110.7601       4.7204     695.8171     506.2773    7232.7551       0.0159       2.4944
 5127.4980    5127.4980       8.5000      73.4395     764.9722    7340.1932       8.5793       8.5793     841.7250    1101.7877       4.5310     700.1053     517.1448    7243.1178       0.0213       2.5010
 5127.3456    5127.3456       8.5000      72.2971     784.0413    7376.5596       8.5784       8.5784     835.6494    1093.8278       4.4425     700.0396     522.9484    7242.8866       0.0233       2.5007
 5127.1932    5127.1932       8.5000      67.8061     798.6912    7409.1000       8.5796       8.5796     843.8815    1092.7433       4.4752     696.2800     520.2425    7218.9240       0.0190       2.4975
 5127.0408    5127.0408       8.5000      63.5695     732.2661    7359.8996       8.5812       8.5812     852.4209    1104.6006       4.5254     688.9898     515.5965    7197.5022       0.0131       2.4915
 5126.8884    5126.8884       8.5000      62.9295     460.7615    7101.4640       8.5825       8.5825     850.7285    1121.8838       4.5603     687.2380     517.7682    7198.8740       0.0110       2.4856
 5126.7360    5126.7360       8.5000      69.3322      76.1341    6722.3554       8.5823       8.5823     846.9498    1126.1989       4.5533     691.1857     527.0164    7196.4734       0.0106       2.4817
 5126.5836    5126.5836       8.5000      80.5102    -165.6306    6479.6168       8.5807       8.5807     855.0439    1114.4331       4.5342     696.4847     526.9674    7173.8728       0.0080       2.4784
 5126.4312    5126.4312       8.5000      86.4493    -205.3143    6436.5480       8.5794       8.5794     869.4564    1108.7518       4.6651     701.4052     512.0023    7156.8327       0.0044       2.4730
 5126.2788    5126.2788       8.5000      83.6363    -178.7990    6459.8363       8.5803       8.5803     877.8861    1119.9843       4.8974     700.4776     497.1920    7155.1209       0.0013       2.4640
 5126.1264    5126.1264       8.5000      79.3364    -157.1428    6478.7523       8.5862       8.5862     891.1965    1147.4495       4.9570     705.7865     505.8954    7151.0910      -0.0047       2.4523
 5125.9740    5125.9740       8.5000      78.5189    -148.3033    6485.0596       8.5958       8.5958     887.9797    1150.3347       4.9340     704.3878     515.0156    7088.9288      -0.0125       2.4505
