~VERSION INFORMATION
VERS.           2.0   :CWLS Log ASCII Standard - VERSION 2.0
WRAP.           YES   :Multiple lines per depth step
PROD.  Schlumberger   :LAS Producer
PROG.  DLIS to ASCII 2.3                               :LAS Program name and version
CREA.        2023/07/14 00:15                          :LAS Creation date {YYYY/MM/DD hh:mm}
DLIS_CREA.  2023-Jul-14 00:11                          :DLIS Creation date and time {YYYY-MMM-DD hh:mm}
SOURCE.     LIS_012.dlis                               :DLIS File Name
FILE-ID.     LIS   .001                                :File Identification Number
#--------------------------------------------------
~WELL INFORMATION
#MNEM.UNIT      DATA             DESCRIPTION
#---- ------ --------------   -----------------------------
STRT .M      5265.1152       :START DEPTH     
STOP .M      5185.4100       :STOP DEPTH     
STEP .M        -0.1524       :STEP     
NULL .          -999.25      :NULL VALUE
COMP .        PETROBRAS S.A.                           :COMPANY
WELL .        3-BRSA-293D-SPS                          :WELL
FLD  .        BS-400                                   :FIELD
LOC  .        BASE SAD 69:                             :LOCATION
CNTY .        SANTOS                                   :COUNTY
STAT .        BRASIL                                   :STATE
CTRY .        BRASIL                                   :COUNTRY
API  .                                                 :API NUMBER
UWI  .                                                 :UNIQUE WELL ID
DATE .        15/11/2004                               :LOG DATE
SRVC .        Schlumberger                             :SERVICE COMPANY
LATI .DEG                                              :LATITUDE
LONG .DEG                                              :LONGITUDE
GDAT .                                                 :GeoDetic Datum
#-----------------------------------------------------------------------------
~PARAMETER INFORMATION
#MNEM.UNIT    VALUE                      DESCRIPTION
#---- -----   --------------------       ------------------------
APD  .M               24                 :
BHT  .DEGF           260                 :
BLI  .M             5289                 :
BS   .IN         8.50000                 :
CN   .        PETROBRAS S.A.             :
COUN .        SANTOS                     :
CS   .IN         9.62500                 :
DATE .        15/11/2004                 :
DFD  .LB/G      12.30000                 :
DFL  .C3               2                 :
DFPH .        N/A                        :
DFT  .        SINTETICO                  :
DFV  .S               95                 :
DMF  .        MESA ROTATIVA              :
EDF  .M               24                 :
EGL  .M             -500                 :
EKB  .        N/A                        :
ENGI .        HERNANDEZ / LOCK           :
FL1  .        X   7292392.00 M LAT 24 28 47.189 S :
FL2  .        Y    584087.00 M LON 44 10 12.698 W :
FL3  .        MC  45 GRAUS               :
FN   .        BS-400                     :
LMF  .        MESA ROTATIVA              :
LUL  .        MACAE                      :
MCSS .        PRENSA                     :
MCST .DEGF            80                 :
MFSS .        PRENSA                     :
MFST .DEGF            80                 :
MSS  .        LINHA DE FLUXO             :
MST  .DEGF            80                 :
PDAT .        NIVEL DO MAR               :
R1   .        01. APRESENTAÇÃO DE ACORDO COM REQUERIMENTO DO CLIENTE :
R2   .        02. TEMPERATURA MÁXIMA DO POÇO T1=T2= 292 DEGF @  5277 M :
R3   .        03. INICIO DA CIRCULAÇÃO  12/11/2004 09 00 H :
R4   .        04. FINAL DA CIRCULAÇÃO   12/11/2004 18 00 H :
R5   .        05. TEMPO TOTAL DE CIRCULAÇÃO   09 00 H :
R6   .        06. FLUIDO DE PERFURAÇÃO  SINTETICO (BR-MUL  BR-MI)  60% TEOR DO OLEO :
R7   .        07. SALINIDADE DA LAMA  254762 PPM NACL NA FASE DE AGUA :
R8   .        08. INCLINAÇÃO MÁXIMA DO POÇO  37.37 GRAUS @ 5100 M :
R9   .        09. PRIMEIRAS E ULTIMAS LEITURAS  :
RMB  .OHMM    > 10                       :
RMCS .OHMM    > 10                       :
RMFS .OHMM    > 10                       :
RMS  .OHMM    >10                        :
RUN  .                 2                 :
STAT .        BRASIL                     :
TCS  .        18 00 H                    :
TDD  .M             5288                 :
TDL  .M             5293                 :
TLAB .        N/A                        :
TLI  .M             4277                 :
WITN .        ERNANI / ZE MARIA          :
WN   .        3-BRSA-293D-SPS            :
LUN  .              8808                 :
HIDE .        3-SPS-41D                  :
HID2 .        COMPENSATED Z-DENSILOG     :
HID3 .        COMPENSATED NEUTRON LOG    :
HID4 .        GAMMA RAY LOG              :
HID5 .        TTRM SUB                   :
CLAB .        BACIA                      :
SLAB .        PAIS                       :
CMT1 .        ESC  1 1000                :
CMT2 .        PROF. MEDIDA               :
CMT4 .        SONDA  SS-43               :
HDAT .        SAD 69                     :
FL   .        BASE SAD 69                :
OS1  .        RCI/GR                     :
OS2  .        CHECK SHOT                 :
OS3  .        GR/XMAC/HDIL               :
OS5  .        RCOR/GR                    :
LNAM .        ZDL/CN/XMAC/HDIL/EARTH IMAGER/RCI/RCOR/CHECK SHOT/GR :
TOOL .        ZDL/CN/XMAC/HDIL/EARTH IMAGER/RCI/RCOR/CHECK SHOT/GR :
LSOU .        PETROBRAS                  :
LSRV .        OH WIRELINE                :
LTYP .        RAW                        :
EPD  .M                0                 :
LDAT .        15/11/2004                 :
TRIP .                 4                 :
SON  .            786588                 :
CBDR .M             4277                 :
CBLO .        NR                         :
CBL1 .        NR                         :
STEM .DEGF    N/A                        :
BSAL .            254762                 :
BARI .        OFF                        :
DLAB .        12/11/2004                 :
MRT  .DEGF           292                 :
TSTR .        ZDL/CN/GR/TTRM             :
TSTG .        N/A                        :
STUS .        FINAL                      :
LCNM .        BAKER ATLAS                :
LCC  .               150                 :
NATI .        BRASIL                     :
OPMD .        OH.WIRELINE                :
PANA .        HERNANDEZ / LOCK           :
PCON .        BAKER ATLAS                :
R11  .        GR     5268.3 M / 4277.0 M :
R12  .        CN     5286.5 M / 5128.0 M (FERRAMENTA PERDEU LEITURA ACIMA DE 5128M) :
R13  .        ZDL    5292.0 M / 4277.0 M :
R15  .        10. PONTO FRACO UTILIZADO  10K :
R17  .        12. COORDENADAS BASE       :
R19  .        X   7292512.00 M           :
R21  .        MC  45 GRAUS               :
R23  .        13. CADASTRO ANP  86316021017 :
PVER .           4.10000                 :
WDFN .        /space/expusr/3-SPS-41D_RUN2/i77bf03_8spf.xtf :
OCT  .        i77bf                      :
OS4  .        EARTH IMAGER               :
R16  .        11. DECLINAÇÃO MAGNETICA  -20.9 GRAUS :
R20  .        Y    583936.00 M           :
#-----------------------------------------------------------------------------
~CURVE INFORMATION
#MNEM.UNIT   API CODE                                  DESCRIPTION
#---- -----  --------                                  -----------------------
DEPT .M                                                :DEPTH (BOREHOLE) {F10.4}
DEPT .M                                                : {F13.4}
BIT  .IN                                               : {F13.4}
DEPM .M                                                : {F13.4}
GR   .GAPI                                             : {F13.4}
SPD  .M/MN                                             : {F13.4}
TTEN .LBF                                              : {F13.4}
CAL  .IN                                               : {F13.4}
CALX .IN                                               : {F13.4}
HRD1 .HZ                                               : {F13.4}
HRD2 .HZ                                               : {F13.4}
PE   .B/E                                              : {F13.4}
SFT2 .HZ                                               : {F13.4}
SOFT .HZ                                               : {F13.4}
SSD  .HZ                                               : {F13.4}
ZCOR .G/C3                                             : {F13.4}
ZDEN .G/C3                                             : {F13.4}
CNC  .PU                                               : {F13.4}
CN   .PU                                               : {F13.4}
LSN  .HZ                                               : {F13.4}
SSN  .HZ                                               : {F13.4}
CNCF .PU                                               : {F13.4}
MMRK .MN                                               : {F13.4}
#-----------------------------------------------------------------------------
# DEPT       
#     DEPT         BIT          DEPM         GR           SPD          TTEN         
#     CAL          CALX         HRD1         HRD2         PE           SFT2         
#     SOFT         SSD          ZCOR         ZDEN         CNC          CN           
#     LSN          SSN          CNCF         MMRK         
~A  
# ...
5256.5808
   5256.5808       8.5000    5256.2869    -999.2500       6.4347    7414.0534
      8.7526       8.7526     629.0191     768.0359       4.8738     485.8047
    355.4242    6594.7581      -0.0339       2.5884      13.0140      13.1633
   2122.7750    4375.6929      13.0140       0.0000
5256.4284
   5256.4284       8.5000    5256.1354    -999.2500       6.4245    7467.1838
      8.7479       8.7514     600.3530     788.6108       4.8291     486.0017
    353.4001    6609.7731      -0.0362       2.5914      13.4826      13.7802
   2095.1646    4389.1932      13.4826       0.0000
5256.2760
   5256.2760       8.5000    5255.9830    -999.2500       6.4160    7487.5844
      8.7482       8.7465     590.2741     746.6256       4.8216     465.1607
    345.0777    6689.5857      -0.0164       2.6069      13.2705      13.6512
   2094.7655    4350.9165      13.2705       0.0000
5256.1236
   5256.1236       8.5000    5255.8306      54.2278       6.5148    7450.7323
      8.7513       8.7499     584.3738     782.1107       4.8792     492.2258
    349.9446    6743.7641      -0.0099       2.6010      12.6532      12.9788
   2129.7195    4317.6472      12.6532       0.0000
5255.9712
   5255.9712       8.5000    5255.6782      52.7233       6.5422    7381.4229
      8.7505       8.7521     582.3390     773.0928       4.5255     474.5757
    370.2992    6626.8971      -0.0213       2.6037      12.6049      12.9050
   2146.4713    4338.5465      12.6049       0.0000
5255.8188
   5255.8188       8.5000    5255.5258      52.8735       6.5406    7317.2475
      8.7475       8.7478     598.5506     764.0640       4.6568     455.1085
    354.2591    6654.1950      -0.0259       2.6069      12.5459      12.8289
   2163.4520    4368.4170      12.5459       0.0000
5255.6664
   5255.6664       8.5000    5255.3734      53.8306       6.4976    7280.2116
      8.7514       8.7491     575.6675     723.6882       4.5632     458.6430
    342.5912    6665.6384      -0.0057       2.6264      12.9678      13.2334
   2128.2549    4373.4270      12.9678       0.0000
5255.5140
   5255.5140       8.5000    5255.2210      53.7000       6.4578    7294.2044
      8.7547       8.7539     568.2290     733.7420       4.2361     458.1274
    364.8343    6611.1615      -0.0170       2.6260      12.7257      13.0796
   2156.9723    4378.8420      12.7257       0.0000
5255.3616
   5255.3616       8.5000    5255.0686      52.8716       6.4462    7343.7536
      8.7505       8.7527     602.3900     745.7225       4.8772     468.9938
    337.7963    6694.8306      -0.0163       2.6128      12.6280      12.9087
   2176.5290    4406.5224      12.6280       0.0000
5255.2092
   5255.2092       8.5000    5254.9162      52.7074       6.4653    7380.7786
      8.7484       8.7493     560.0947     733.0793       4.7676     464.6359
    338.0789    6638.9718      -0.0075       2.6284      13.0282      13.2685
   2151.5680    4431.5196      13.0282       0.0000
5255.0568
   5255.0568       8.5000    5254.7638      52.7489       6.4655    7394.8019
      8.7477       8.7480     567.9298     721.5505       4.4702     490.2506
    349.6865    6603.7079      -0.0152       2.6292      12.8972      13.2827
   2167.7562    4430.4797      12.8972       0.0000
5254.9044
   5254.9044       8.5000    5254.6114      51.9714       6.4588    7420.4012
      8.7521       8.7488     567.8980     772.1400       4.6281     475.2526
    364.8073    6691.6023      -0.0177       2.6117      12.6249      12.8805
   2186.3527    4432.3446      12.6249       0.0000
5254.7520
   5254.7520       8.5000    5254.4590      51.3785       6.4492    7459.7773
      8.7548       8.7549     581.8492     817.2380       4.7328     471.5805
    377.4814    6765.4609      -0.0145       2.5924      13.2619      13.5125
   2139.4634    4445.2061      13.2619       0.0000
5254.5996
   5254.5996       8.5000    5254.3057      52.0495       6.5181    7469.5498
      8.7487       8.7522     623.5742     838.5559       4.7668     508.1039
    379.9169    6749.2852      -0.0291       2.5718      13.2020      13.5516
   2151.9785    4452.2822      13.2020       0.0000
5254.4472
   5254.4472       8.5000    5254.1533      53.3375       6.5946    7436.9993
      8.7479       8.7467     629.7018     795.0957       4.5928     517.6989
    383.7908    6745.2270      -0.0213       2.5760      13.4067      13.6238
   2130.9681    4456.0965      13.4067       0.0000
5254.2948
   5254.2948       8.5000    5254.0009      54.1038       6.5514    7405.1606
      8.7512       8.7502     632.4747     792.8669       4.6246     493.3273
    372.0432    6761.8845      -0.0204       2.5751      14.7294      14.8993
   2022.2758    4445.1570      14.7294       0.0000
5254.1424
   5254.1424       8.5000    5253.8485      54.0861       6.5021    7399.9833
      8.7530       8.7523     612.7218     778.1234       4.6914     487.2375
    364.5412    6648.0870      -0.0240       2.5814      15.4100      15.6666
   1955.7867    4398.3550      15.4100       0.6502
5253.9900
   5253.9900       8.5000    5253.6961      53.4991       6.5103    7393.0346
      8.7508       8.7517     615.0009     805.0256       4.9113     510.1590
    364.6763    6565.0843      -0.0443       2.5757      18.3016      18.2071
   1754.2412    4342.2372      18.3016       0.0000
5253.8376
   5253.8376       8.5000    5253.5446      52.7911       6.5639    7355.3005
      8.7563       8.7530     656.6585     790.0627       5.2357     510.7981
    341.7283    6636.5144      -0.0459       2.5695      19.4768      19.9959
   1681.3272    4265.2785      19.4768       0.0000
5253.6852
   5253.6852       8.5000    5253.3922      52.4095       6.5677    7301.9958
      8.7585       8.7579     638.4699     794.0786       5.0232     497.4192
    354.5200    6632.2057      -0.0369       2.5759      18.6594      19.0400
   1656.5450    4128.7632      18.6594       0.0000
5253.5328
   5253.5328       8.5000    5253.2398      52.2832       6.5240    7264.5387
      8.7554       8.7577     582.8772     775.8178       4.6815     482.6290
    361.2792    6679.7922      -0.0219       2.5995      18.8231      19.1868
   1582.7384    3963.6467      18.8231       0.0000
5253.3804
   5253.3804       8.5000    5253.0874      51.9626       6.5227    7254.7186
      8.7510       8.7527     586.1987     753.5497       4.3508     521.7365
    368.8069    6767.6084      -0.0054       2.6082      18.7368      19.1347
   1538.6497    3827.7622      18.7368       0.0000
5253.2280
   5253.2280       8.5000    5252.9350      51.0634       6.5123    7277.5407
      8.7494       8.7504     624.0756     782.1495       4.2664     525.8457
    382.2990    6849.7465      -0.0063       2.5928      18.9000      19.2768
   1576.5690    3881.7071      18.9000       0.0000
5253.0756
   5253.0756       8.5000    5252.7826      50.0839       6.4785    7325.8902
      8.7500       8.7491     624.9818     770.4618       3.8659     529.3041
    401.0021    6756.4000      -0.0097       2.6005      16.0505      16.9153
   1914.4123    4246.5041      16.0505       0.0000
5252.9232
   5252.9232       8.5000    5252.6302      50.2486       6.5183    7363.5657
      8.7479       8.7504     552.0806     663.3732       3.7306     440.7763
    357.1019    6455.2128      -0.0042       2.6654      11.9217      12.5707
   2436.0887    4689.7044      11.9217       0.0000
5252.7708
   5252.7708       8.5000    5252.4778      51.6966       6.5422    7377.5673
      8.7464       8.7455     436.7249     544.6664       5.0504     331.6216
    239.7675    6049.6217      -0.0128       2.7548      10.1971      10.5186
   2749.0762    4986.7572      10.1971       0.0000
5252.6184
   5252.6184       8.5000    5252.3254      54.3120       6.4903    7374.7615
      8.7508       8.7493     432.9431     529.0271       4.8805     345.8711
    243.6455    6048.4584      -0.0210       2.7671      10.3327      10.5597
   2810.4576    5164.3170      10.3327       0.0000
5252.4660
   5252.4660       8.5000    5252.1730      58.5115       5.6327    7344.4016
      8.7497       8.7505     453.0272     604.9413       5.3935     371.0087
    258.2299    6417.0306      -0.0056       2.7258      10.8278      11.0183
   2783.6664    5245.5936      10.8278       0.0000
