~VERSION INFORMATION
VERS.           2.0   :CWLS Log ASCII Standard - VERSION 2.0
WRAP.           NO    :One Line per depth step
PROD.  Schlumberger   :LAS Producer
PROG.  DLIS to ASCII 2.3                               :LAS Program name and version
CREA.        2023/07/14 00:15                          :LAS Creation date {YYYY/MM/DD hh:mm}
DLIS_CREA.  2023-Jul-14 00:11                          :DLIS Creation date and time {YYYY-MMM-DD hh:mm}
SOURCE.     LIS_001.dlis                               :DLIS File Name
FILE-ID.     LIS   .001                                :File Identification Number
#--------------------------------------------------
~WELL INFORMATION
#MNEM.UNIT      DATA             DESCRIPTION
#---- ------ --------------   -----------------------------
STRT .M      5244.5412       :START DEPTH     
STOP .M      5059.0704       :STOP DEPTH     
STEP .M        -0.1524       :STEP     
NULL .          -999.25      :NULL VALUE
COMP .        PETROBRAS S.A.                           :COMPANY
WELL .        3-BRSA-293D-SPS                          :WELL
FLD  .        BS-400                                   :FIELD
LOC  .        BASE SAD 69:                             :LOCATION
CNTY .        SANTOS                                   :COUNTY
STAT .        BRASIL                                   :STATE
CTRY .        BRASIL                                   :COUNTRY
API  .                                                 :API NUMBER
UWI  .                                                 :UNIQUE WELL ID
DATE .        22/10/2004                               :LOG DATE
SRVC .        Schlumberger                             :SERVICE COMPANY
LATI .DEG                                              :LATITUDE
LONG .DEG                                              :LONGITUDE
GDAT .                                                 :GeoDetic Datum
#-----------------------------------------------------------------------------
~PARAMETER INFORMATION
#MNEM.UNIT    VALUE                      DESCRIPTION
#---- -----   --------------------       ------------------------
APD  .M               24                 :
BHT  .DEGF           260                 :
BLI  .M       5227.50000                 :
BS   .IN         8.50000                 :
CN   .        PETROBRAS S.A.             :
COUN .        SANTOS                     :
CS   .IN         9.62500                 :
DATE .        22/10/2004                 :
DFD  .LB/G      12.30000                 :
DFL  .C3               2                 :
DFPH .        N/A                        :
DFT  .        SINTETICO                  :
DFV  .S               87                 :
DMF  .        MESA ROTATIVA              :
EDF  .M               24                 :
EGL  .M             -500                 :
EKB  .        N/A                        :
ENGI .        HERNANDEZ/LOCK             :
FL1  .        X   7292392.00 M LAT 24 28 47.189 S :
FL2  .        Y    584087.00 M LON 44 10 12.698 W :
FL3  .        MC  45 GRAUS               :
FN   .        BS-400                     :
LMF  .        MESA ROTATIVA              :
LUL  .        MACAE                      :
MCSS .        PRENSA                     :
MCST .DEGF            80                 :
MFSS .        PRENSA                     :
MFST .DEGF            80                 :
MSS  .        LINHA DE FLUXO             :
MST  .DEGF            80                 :
PDAT .        NIVEL DO MAR               :
R1   .        01. APRESENTAÇÃO DE ACORDO COM REQUERIMENTO DO CLIENTE :
R2   .        02. TEMPERATURA MÁXIMA DO POÇO T1=T2= 260 DEGF @  5180 M :
R3   .        03. INICIO DA CIRCULAÇÃO  13 45 H 21/10/2004 :
R4   .        04. FINAL DA CIRCULAÇÃO   16 00 H 21/10/2004 :
R5   .        05. TEMPO TOTAL DE CIRCULAÇÃO  02 15 H :
R6   .        06. FLUIDO DE PERFURAÇÃO  SINTETICO (BR-MUL  BR-MI)  65% TEOR DO OLEO :
R7   .        07. SALINIDADE DA LAMA  266377 PPM NACL NA FASE DE AGUA :
R8   .        08. INCLINAÇÃO MÁXIMA DO POÇO  37.37 GRAUS @ 5100 M :
R9   .        09. PRIMEIRAS E ULTIMAS LEITURAS  :
RMB  .OHMM    > 10                       :
RMCS .OHMM    > 10                       :
RMFS .OHMM    > 10                       :
RMS  .OHMM    > 10                       :
RUN  .                 1                 :
STAT .        BRASIL                     :
TCS  .        16 00 H                    :
TDD  .M             5230                 :
TDL  .M             5231                 :
TLAB .        N/A                        :
TLI  .M             3850                 :
WITN .        ALCIDIO/VLADIMIR           :
WN   .        3-BRSA-293D-SPS            :
LUN  .              8808                 :
HIDE .        3-SPS-41D                  :
HID2 .        HIGH DEFINITION INDUCTION LOG :
HID3 .        X-MULTIPOLE ARRAY ACOUSTILOG :
HID4 .        GAMMA RAY LOG              :
HID5 .        TTRM SUB                   :
CLAB .        BACIA                      :
SLAB .        PAIS                       :
CMT1 .        ESC  1 1000                :
CMT2 .        PROF. MEDIDA               :
CMT4 .        SONDA  SS-43               :
HDAT .        SAD 69                     :
FL   .        BASE SAD 69                :
OS1  .        GR/CN/ZDL                  :
OS2  .        MREX/GR                    :
OS3  .        RCI/GR                     :
0S4  .        3DEX/GR                    :
OS5  .        SL/GR                      :
LNAM .        MREX/ZDL/CN/XMAC/HDIL/RCI/3DEX/SL/GR :
TOOL .        MREX/ZDL/CN/XMAC/HDIL/RCI/3DEX/SL/GR :
LSOU .        PETROBRAS                  :
LSRV .        OH WIRELINE                :
LTYP .        RAW                        :
EPD  .M                0                 :
LDAT .        22/10/2004                 :
TRIP .                 1                 :
SON  .            772317                 :
CBDR .M             4277                 :
CBLO .M             4277                 :
CBL1 .M             4277                 :
STEM .DEGF    N/A                        :
BSAL .            266377                 :
BARI .        OFF                        :
DLAB .        21/10/2004                 :
MRT  .DEGF           260                 :
TSTR .        HDIL/XMAC/GR/TTRM          :
TSTG .        N/A                        :
STUS .        FINAL                      :
LCNM .        BAKER ATLAS                :
LCC  .               150                 :
NATI .        BRASIL                     :
OPMD .        OH.WIRELINE                :
PANA .        HERNANDEZ/LOCK             :
PCON .        BAKER ATLAS                :
R11  .        SL     5196.0 M/4960.0 M   :
R12  .        GR     4960.0 M/4277.0 M   :
R13  .        XMAC   5202.0 M/3850.0 M   :
R14  .        HDIL   5227.5 M/4277.0 M   :
R15  .        3DEX   5217.0 M/4960.0 M   :
R17  .        10. PONTO FRACO UTILIZADO  10K :
R18  .        11. DECLINAÇÃO MAGNETICA  -20.9 GRAUS :
R19  .        12. COORDENADAS ARATU      :
R21  .        X   7292512.00 M           :
R22  .        Y    583936.00 M           :
R23  .        MC  45 GRAUS               :
R25  .        13. CADASTRO ANP  86316021017 :
PVER .           4.10000                 :
WDFN .        /space/expusr/3-SPS-41D/i77bf02_2spf.xtf :
OCT  .        i77bf                      :
#-----------------------------------------------------------------------------
~CURVE INFORMATION
#MNEM.UNIT   API CODE                                  DESCRIPTION
#---- -----  --------                                  -----------------------
DEPT .M                                                :DEPTH (BOREHOLE) {F10.4}
DEPT .M                                                : {F13.4}
DT   .US/F                                             : {F13.4}
SFN1 .US                                               : {F13.4}
SFN2 .US                                               : {F13.4}
SFN3 .US                                               : {F13.4}
SFN4 .US                                               : {F13.4}
TT   .MS                                               : {F13.4}
#-----------------------------------------------------------------------------
# 
#     DEPT        DEPT         DT           SFN1         SFN2         SFN3         SFN4         TT
#
~A  
# ...
 5220.4620    5220.4620    -999.2500    -999.2500    -999.2500    -999.2500    -999.2500    -999.2500
 5220.3096    5220.3096    -999.2500    -999.2500    -999.2500    -999.2500    -999.2500    -999.2500
 5220.1572    5220.1572    -999.2500    -999.2500    -999.2500    -999.2500    -999.2500    -999.2500
 5220.0048    5220.0048    -999.2500    -999.2500    -999.2500    -999.2500    -999.2500    -999.2500
 5219.8524    5219.8524    -999.2500    -999.2500    -999.2500    -999.2500    -999.2500    -999.2500
 5219.7000    5219.7000    -999.2500    -999.2500    -999.2500    -999.2500    -999.2500    -999.2500
 5219.5476    5219.5476    -999.2500    -999.2500    -999.2500    -999.2500    -999.2500    -999.2500
 5219.3952    5219.3952    -999.2500    -999.2500    -999.2500    -999.2500    -999.2500    -999.2500
 5219.2428    5219.2428    -999.2500    -999.2500    -999.2500    -999.2500    -999.2500    -999.2500
 5219.0904    5219.0904    -999.2500    -999.2500    -999.2500    -999.2500    -999.2500    -999.2500
 5218.9380    5218.9380    -999.2500    -999.2500    -999.2500    -999.2500    -999.2500    -999.2500
 5218.7856    5218.7856    -999.2500    -999.2500    -999.2500    -999.2500    -999.2500    -999.2500
 5218.6332    5218.6332    -999.2500    -999.2500    -999.2500    -999.2500    -999.2500    -999.2500
 5218.4808    5218.4808    -999.2500    -999.2500    -999.2500    -999.2500    -999.2500    -999.2500
 5218.3284    5218.3284    -999.2500    -999.2500    -999.2500    -999.2500    -999.2500    -999.2500
 5218.1760    5218.1760    -999.2500    -999.2500    -999.2500    -999.2500    -999.2500    -999.2500
 5218.0236    5218.0236    -999.2500    -999.2500    -999.2500    -999.2500    -999.2500    -999.2500
 5217.8712    5217.8712    -999.2500    -999.2500    -999.2500    -999.2500    -999.2500    -999.2500
 5217.7188    5217.7188    -999.2500    -999.2500    -999.2500    -999.2500    -999.2500    -999.2500
 5217.5664    5217.5664    -999.2500    -999.2500    -999.2500    -999.2500    -999.2500    -999.2500
 5217.4140    5217.4140    -999.2500    -999.2500    -999.2500    -999.2500    -999.2500    -999.2500
 5217.2616    5217.2616    -999.2500    -999.2500    -999.2500    -999.2500    -999.2500    -999.2500
 5217.1092    5217.1092    -999.2500    -999.2500    -999.2500    -999.2500    -999.2500    -999.2500
 5216.9568    5216.9568    -999.2500    -999.2500    -999.2500    -999.2500    -999.2500    -999.2500
 5216.8044    5216.8044    -999.2500    -999.2500    -999.2500    -999.2500    -999.2500    -999.2500
 5216.6520    5216.6520    -999.2500    -999.2500    -999.2500    -999.2500    -999.2500    -999.2500
 5216.4996    5216.4996    -999.2500    -999.2500    -999.2500    -999.2500    -999.2500    -999.2500
 5216.3472    5216.3472    -999.2500    -999.2500    -999.2500    -999.2500    -999.2500    -999.2500
 5216.1948    5216.1948    -999.2500    -999.2500    -999.2500    -999.2500    -999.2500    -999.2500
 5216.0424    5216.0424    -999.2500    -999.2500    -999.2500    -999.2500    -999.2500    -999.2500
 5215.8900    5215.8900    -999.2500    -999.2500    -999.2500    -999.2500    -999.2500    -999.2500
 5215.7376    5215.7376    -999.2500    -999.2500    -999.2500    -999.2500    -999.2500    -999.2500
 5215.5852    5215.5852    -999.2500    -999.2500    -999.2500    -999.2500    -999.2500    -999.2500
 5215.4328    5215.4328    -999.2500 -999999.9999    -999.2500    -999.2500    -999.2500    -999.2500
 5215.2804    5215.2804    -999.2500     664.9999 -999999.9999    -999.2500    -999.2500    -999.2500
 5215.1280    5215.1280    -999.2500     665.0000     695.6250 -999999.9999    -999.2500    -999.2500
 5214.9756    5214.9756    -999.2500     665.0000     695.6250     728.1250     759.3750    -999.2500
 5214.8232    5214.8232    -999.2500     665.0000     695.6250     728.0000     759.5000    -999.2500
 5214.6708    5214.6708    -999.2500     665.0000     695.6251     728.1250     759.3750    -999.2500
 5214.5184    5214.5184    -999.2500     665.0000     695.7499     728.1250     759.3750    -999.2500
 5214.3660    5214.3660    -999.2500     665.0000     695.6250     728.1250     759.3752    -999.2500
 5214.2136    5214.2136    -999.2500     665.0000     695.6252     728.1250     759.5002    -999.2500
 5214.0612    5214.0612    -999.2500     665.0003     695.7500     728.1253     759.6247    -999.2500
 5213.9088    5213.9088 -999999.9999     665.1247     695.7500     728.2500     759.4994 -958312.2239
 5213.7564    5213.7564      62.8897     665.0000     695.7496     728.2496     759.2504       0.0315
 5213.6040    5213.6040      62.9014     665.0004     695.6254     728.1250     759.3750       0.0630
 5213.4516    5213.4516      62.9115     665.1246     695.7500     728.1254     759.3759       0.0945
 5213.2992    5213.2992      62.9066     665.0003     695.7500     728.2497     759.6244       0.1257
 5213.1468    5213.1468      62.8840     665.0000     695.7500     728.2500     759.5003       0.1572
 5212.9944    5212.9944      62.8556     665.1248     695.6252     728.1252     759.3752       0.1886
 5212.8420    5212.8420      62.8349     665.0002     695.6250     728.1250     759.0005       0.2200
 5212.6896    5212.6896      62.8222     665.1249     695.7499     728.3748     759.2498       0.2515
 5212.5372    5212.5372      62.8103     665.1250     695.6251     728.3750     758.8752       0.2829
 5212.3848    5212.3848      62.7993     665.1250     695.7500     728.3750     758.7500       0.3143
 5212.2324    5212.2324      62.7998     665.1250     695.7500     728.1250     758.8750       0.3457
 5212.0800    5212.0800      62.8204     665.0001     695.7499     728.1249     758.8752       0.3771
 5211.9276    5211.9276      62.8582     665.1249     695.6251     728.0001     759.2500       0.4086
 5211.7752    5211.7752      62.8986     665.0002     695.7502     728.1250     759.2498       0.4400
 5211.6228    5211.6228      62.9259     665.1248     695.8748     728.1248     759.1250       0.4715
 5211.4704    5211.4704      62.9357     665.0002     695.7498     728.0000     759.1255       0.5030
 5211.3180    5211.3180      62.9335     665.1247     695.6253     728.0000     759.3744       0.5345
 5211.1656    5211.1656      62.9247     665.0000     695.7500     728.0000     759.1250       0.5659
 5211.0132    5211.0132      62.9091     665.0000     695.7496     728.0000     759.1254       0.5974
 5210.8608    5210.8608      62.8816     665.0004     695.6246     728.0000     759.2504       0.6289
 5210.7084    5210.7084      62.8429     665.1247     695.5003     728.0000     759.3747       0.6601
 5210.5560    5210.5560      62.8100     665.1250     695.3753     728.0000     759.3750       0.6915
 5210.4036    5210.4036      62.8119     665.2498     695.3750     728.0000     759.3750       0.7229
 5210.2512    5210.2512      62.8660     665.2500     695.3750     728.0000     759.2502       0.7544
 5210.0988    5210.0988      62.9613     665.0003     695.3750     728.0000     759.4997       0.7859
 5209.9464    5209.9464      63.0647     665.0000     695.3750     728.0000     759.5000       0.8174
 5209.7940    5209.7939      63.1424     665.0000     695.2500     728.1250     759.5000       0.8490
 5209.6416    5209.6416      63.1821     664.8750     695.3750     728.1250     759.6250       0.8806
 5209.4892    5209.4893      63.1965     664.8750     695.2500     728.1250     759.6250       0.9122
 5209.3368    5209.3368      63.2056     664.8749     695.3750     728.1250     759.6248       0.9438
 5209.1844    5209.1844      63.2211     664.7501     695.3751     728.1249     759.3751       0.9754
 5209.0320    5209.0320      63.2416     664.8748     695.5000     728.0002     759.4998       1.0071
 5208.8796    5208.8796      63.2565     664.7502     695.4998     728.1250     759.3755       1.0387
 5208.7272    5208.7272      63.2548     664.8750     695.3750     728.1250     759.6247       1.0704
 5208.5748    5208.5748      63.2322     664.8747     695.3753     728.1247     759.5000       1.1020
