~VERSION INFORMATION
VERS.           2.0   :CWLS Log ASCII Standard - VERSION 2.0
WRAP.           NO    :One Line per depth step
PROD.  Schlumberger   :LAS Producer
PROG.  DLIS to ASCII 2.3                               :LAS Program name and version
CREA.        2023/07/14 00:15                          :LAS Creation date {YYYY/MM/DD hh:mm}
DLIS_CREA.  2023-Jul-14 00:11                          :DLIS Creation date and time {YYYY-MMM-DD hh:mm}
SOURCE.     LIS_010.dlis                               :DLIS File Name
FILE-ID.     LIS   .003                                :File Identification Number
#--------------------------------------------------
~WELL INFORMATION
#MNEM.UNIT      DATA             DESCRIPTION
#---- ------ --------------   -----------------------------
STRT .M      5284.9272       :START DEPTH     
STOP .M      4939.1316       :STOP DEPTH     
STEP .M        -0.1524       :STEP     
NULL .          -999.25      :NULL VALUE
COMP .        PETROBRAS S.A.                           :COMPANY
WELL .        3-BRSA-293D-SPS                          :WELL
FLD  .        BS-400                                   :FIELD
LOC  .        BASE SAD 69:                             :LOCATION
CNTY .        SANTOS                                   :COUNTY
STAT .        BRASIL                                   :STATE
CTRY .        BRASIL                                   :COUNTRY
API  .                                                 :API NUMBER
UWI  .                                                 :UNIQUE WELL ID
DATE .        15/11/2004                               :LOG DATE
SRVC .        Schlumberger                             :SERVICE COMPANY
LATI .DEG                                              :LATITUDE
LONG .DEG                                              :LONGITUDE
GDAT .                                                 :GeoDetic Datum
#-----------------------------------------------------------------------------
~PARAMETER INFORMATION
#MNEM.UNIT    VALUE                      DESCRIPTION
#---- -----   --------------------       ------------------------
APD  .M               24                 :
BHT  .DEGF           260                 :
BLI  .M             5289                 :
BS   .IN         8.50000                 :
CN   .        PETROBRAS S.A.             :
COUN .        SANTOS                     :
CS   .IN         9.62500                 :
DATE .        15/11/2004                 :
DFD  .LB/G      12.30000                 :
DFL  .C3               2                 :
DFPH .        N/A                        :
DFT  .        SINTETICO                  :
DFV  .S               95                 :
DMF  .        MESA ROTATIVA              :
EDF  .M               24                 :
EGL  .M             -500                 :
EKB  .        N/A                        :
ENGI .        HERNANDEZ / LOCK           :
FL1  .        X   7292392.00 M LAT 24 28 47.189 S :
FL2  .        Y    584087.00 M LON 44 10 12.698 W :
FL3  .        MC  45 GRAUS               :
FN   .        BS-400                     :
LMF  .        MESA ROTATIVA              :
LUL  .        MACAE                      :
MCSS .        PRENSA                     :
MCST .DEGF            80                 :
MFSS .        PRENSA                     :
MFST .DEGF            80                 :
MSS  .        LINHA DE FLUXO             :
MST  .DEGF            80                 :
PDAT .        NIVEL DO MAR               :
R1   .        01. APRESENTAÇÃO DE ACORDO COM REQUERIMENTO DO CLIENTE :
R2   .        02. TEMPERATURA MÁXIMA DO POÇO T1=T2= 290 DEGF @  5275 M :
R3   .        03. INICIO DA CIRCULAÇÃO  12/11/2004 09 00 H :
R4   .        04. FINAL DA CIRCULAÇÃO   12/11/2004 18 00 H :
R5   .        05. TEMPO TOTAL DE CIRCULAÇÃO   09 00 H :
R6   .        06. FLUIDO DE PERFURAÇÃO  SINTETICO (BR-MUL  BR-MI)  60% TEOR DO OLEO :
R7   .        07. SALINIDADE DA LAMA  254762 PPM NACL NA FASE DE AGUA :
R8   .        08. INCLINAÇÃO MÁXIMA DO POÇO  37.37 GRAUS @ 5100 M :
R9   .        09. PRIMEIRAS E ULTIMAS LEITURAS  :
RMB  .OHMM    > 10                       :
RMCS .OHMM    > 10                       :
RMFS .OHMM    > 10                       :
RMS  .OHMM    >10                        :
RUN  .                 2                 :
STAT .        BRASIL                     :
TCS  .        18 00 H                    :
TDD  .M             5288                 :
TDL  .M             5293                 :
TLAB .        N/A                        :
TLI  .M             5000                 :
WITN .        ERNANI / ZE MARIA          :
WN   .        3-BRSA-293D-SPS            :
LUN  .              8808                 :
HIDE .        3-SPS-41D                  :
HID2 .        HIGH DEFINITION INDUCTION LOG :
HID3 .        X-MULTIPOLE ARRAY ACOUSTILOG :
HID4 .        GAMMA RAY LOG              :
HID5 .        TTRM SUB                   :
CLAB .        BACIA                      :
SLAB .        PAIS                       :
CMT1 .        ESC  1 200                 :
CMT2 .        PROF. MEDIDA               :
CMT4 .        SONDA  SS-43               :
HDAT .        SAD 69                     :
FL   .        BASE SAD 69                :
OS1  .        RCI/GR                     :
OS2  .        CHECK SHOT                 :
OS3  .        GR/CN/ZDL                  :
OS5  .        RCOR/GR                    :
LNAM .        ZDL/CN/XMAC/HDIL/EARTH IMAGER/RCI/RCOR/CHECK SHOT/GR :
TOOL .        ZDL/CN/XMAC/HDIL/EARTH IMAGER/RCI/RCOR/CHECK SHOT/GR :
LSOU .        PETROBRAS                  :
LSRV .        OH WIRELINE                :
LTYP .        RAW                        :
EPD  .M                0                 :
LDAT .        15/11/2004                 :
TRIP .                 3                 :
SON  .            786588                 :
CBDR .M             4277                 :
CBLO .        NR                         :
CBL1 .        NR                         :
STEM .DEGF    N/A                        :
BSAL .            254762                 :
BARI .        OFF                        :
DLAB .        12/11/2004                 :
MRT  .DEGF           290                 :
TSTR .        HDIL/XMAC/GR/TTRM          :
TSTG .        N/A                        :
STUS .        FINAL                      :
LCNM .        BAKER ATLAS                :
LCC  .               150                 :
NATI .        BRASIL                     :
OPMD .        OH.WIRELINE                :
PANA .        HERNANDEZ / LOCK           :
PCON .        BAKER ATLAS                :
R11  .        SL     5268.3 M / 5000.0 M :
R12  .        GR     5268.3 M / 5000.0 M :
R13  .        XMAC   5279.5 M / 5000.0 M :
R14  .        HDIL   5289.0 M / 5000.0 M :
R17  .        11. DECLINAÇÃO MAGNETICA  -20.9 GRAUS :
R18  .        12. COORDENADAS BASE       :
R21  .        Y    583936.00 M           :
R22  .        MC  45 GRAUS               :
PVER .           4.10000                 :
WDFN .        /space/expusr/3-SPS-41D_RUN2/i77bf02_2spf.xtf :
OCT  .        i77bf                      :
OS4  .        EARTH IMAGER               :
R16  .        10. PONTO FRACO UTILIZADO  10K :
R20  .        X   7292512.00 M           :
R24  .        13. CADASTRO ANP  86316021017 :
#-----------------------------------------------------------------------------
~CURVE INFORMATION
#MNEM.UNIT   API CODE                                  DESCRIPTION
#---- -----  --------                                  -----------------------
DEPT .M                                                :DEPTH (BOREHOLE) {F10.4}
DEPT .M                                                : {F13.4}
DT   .US/F                                             : {F13.4}
SFN1 .US                                               : {F13.4}
SFN2 .US                                               : {F13.4}
SFN3 .US                                               : {F13.4}
SFN4 .US                                               : {F13.4}
TT   .MS                                               : {F13.4}
#-----------------------------------------------------------------------------
# 
#     DEPT        DEPT         DT           SFN1         SFN2         SFN3         SFN4         TT
#
~A  
# ...
 5260.8480    5260.8480      62.9455     672.0000     699.3750     736.2424     766.8595       4.6572
 5260.6956    5260.6956      65.3969     672.0000     702.3693     737.9967     772.4894       4.6899
 5260.5432    5260.5432      67.3600     672.0000     703.9975     739.8722     771.7511       4.7236
 5260.3908    5260.3908      68.3912     672.0000     704.7491     743.9953     776.1200       4.7578
 5260.2384    5260.2384      68.5274     672.0000     704.0006     744.0000     776.0001       4.7921
 5260.0860    5260.0860      68.1140     672.0000     704.1249     739.8767     774.0008       4.8262
 5259.9336    5259.9336      67.5134     672.0000     704.0000     740.1250     776.0000       4.8600
 5259.7812    5259.7813      66.9326     672.0000     704.0000     740.0000     775.8750       4.8934
 5259.6288    5259.6288      66.3354     672.0000     704.0000     739.7497     776.0000       4.9266
 5259.4764    5259.4764      65.5581     671.9991     703.9947     739.3738     776.0000       4.9594
 5259.3240    5259.3240      64.5917     671.1250     699.0000     738.2468     776.0000       4.9917
 5259.1716    5259.1716      63.6127     671.1237     698.9946     735.9969     775.9857       5.0235
 5259.0192    5259.0192      62.9234     670.3782     696.0126     734.2574     768.0337       5.0548
 5258.8668    5258.8668      62.7822     665.0208     696.0000     730.2655     762.3968       5.0862
 5258.7144    5258.7144      63.2710     664.3772     695.2526     728.8798     760.0083       5.1178
 5258.5620    5258.5620      64.2835     666.2441     692.7578     728.2520     760.0000       5.1500
 5258.4096    5258.4096      65.5347     671.9841     696.2403     728.0007     760.0000       5.1828
 5258.2572    5258.2572      66.5621     672.9976     703.9815     735.4821     760.0000       5.2161
 5258.1048    5258.1048      66.8341     675.7444     705.8712     740.6146     767.8591       5.2495
 5257.9524    5257.9524      66.1641     679.3690     711.9899     745.9911     775.9866       5.2826
 5257.8000    5257.8000      64.9029     679.0005     706.8816     745.1261     776.0000       5.3151
 5257.6476    5257.6476      63.6237     676.2525     711.9953     744.1259     779.4968       5.3469
 5257.4952    5257.4952      62.7607     671.5026     703.7545     744.0001     776.0019       5.3783
 5257.3428    5257.3428      62.3132     672.0000     702.3750     738.7500     775.5000       5.4095
 5257.1904    5257.1904      62.0014     672.0000     703.8750     738.5000     772.8750       5.4405
 5257.0380    5257.0380      61.6479     671.9987     700.6244     735.9990     766.8741       5.4713
 5256.8856    5256.8856      61.2806     669.7490     699.4972     734.2502     765.2505       5.5019
 5256.7332    5256.7332      60.9950     668.6250     696.4993     734.4980     765.7454       5.5325
 5256.5808    5256.5808      60.9972     668.6244     696.0037     732.9981     762.2481       5.5630
 5256.4284    5256.4284      61.8838     668.2516     698.2402     731.8799     761.1299       5.5937
 5256.2760    5256.2760      64.2874     667.1295     695.3865     728.0155     759.7555       5.6259
 5256.1236    5256.1236      68.0846     664.0113     699.2359     732.9818     759.9991       5.6599
 5255.9712    5255.9712      72.0177     670.7280     701.7418     741.5969     767.8493       5.6960
 5255.8188    5255.8188      74.1464     676.2341     704.4920     737.8858     775.1040       5.7330
 5255.6664    5255.6664      73.2558     676.9981     711.4823     742.7377     772.0079       5.7697
 5255.5140    5255.5140      69.8620     679.3699     709.6290     747.3650     776.2408       5.8046
 5255.3616    5255.3616      65.7632     673.8848     704.1348     744.0060     780.3676       5.8375
 5255.2092    5255.2092      62.6548     673.8750     701.7534     736.5106     770.5140       5.8689
 5255.0568    5255.0568      61.1727     674.1247     701.6251     735.3762     767.7529       5.8995
 5254.9044    5254.9044      60.9108     674.1250     701.6250     735.3750     764.2524       5.9299
 5254.7520    5254.7520      61.1086     674.0000     701.8750     735.6250     764.5000       5.9605
 5254.5996    5254.5996      61.3318     673.8750     701.7500     735.8750     764.2500       5.9912
 5254.4472    5254.4472      61.4756     673.7499     701.6249     735.8750     764.8750       6.0219
 5254.2948    5254.2948      61.5402     673.6250     701.5001     735.8751     764.8749       6.0527
 5254.1424    5254.1424      61.5623     673.6250     701.6246     736.0000     764.7499       6.0835
 5253.9900    5253.9900      61.5620     673.6250     701.2502     736.0000     764.6254       6.1143
 5253.8376    5253.8376      61.5545     673.6248     701.3748     735.9998     764.8743       6.1451
 5253.6852    5253.6852      61.5726     673.5005     701.2505     735.8755     764.5015       6.1757
 5253.5328    5253.5328      61.6171     673.7491     701.2500     735.8750     764.8736       6.2065
 5253.3804    5253.3804      61.6294     592.2775     700.8763     735.8750     764.8750       6.2373
 5253.2280    5253.2280      61.5171     374.1611     451.8807     732.2610     764.8750       6.2681
 5253.0756    5253.0756      61.2090     664.7243     702.9543     621.2955     763.6283       6.2987
 5252.9232    5252.9232      60.7541     659.1396     690.4053     735.7370     770.6090       6.3291
 5252.7708    5252.7708      60.3536     656.5050     687.3808     722.5259     760.0204       6.3593
 5252.6184    5252.6184      60.2453     656.0008     683.6308     718.5062     750.6395       6.3894
 5252.4660    5252.4660      60.5468     656.0000     681.1279     714.8793     745.0066       6.4197
 5252.3136    5252.3136      61.1938     656.0000     680.6254     714.1256     745.3747       6.4503
 5252.1612    5252.1612      61.9296     656.0000     680.8749     717.1237     746.8743       6.4813
 5252.0088    5252.0088      62.3784     655.7500     680.8750     717.2500     749.3750       6.5125
 5251.8564    5251.8564      62.6235     655.7500     681.0000     717.2500     749.3750       6.5438
 5251.7040    5251.7040      63.8422     655.9999     680.8749     717.3752     749.6251       6.5757
 5251.5516    5251.5516      68.1086     655.8751     680.7501     717.7500     749.7497       6.6098
 5251.3992    5251.3992      76.8838     656.0000     680.8752     717.7500     749.5004       6.6483
 5251.2468    5251.2468      88.6995     656.0000     681.0000     717.7500     749.7502       6.6926
 5251.0944    5251.0944      98.8184     656.0000     681.0000     717.7500     749.8745       6.7418
 5250.9420    5250.9420     102.2633     656.0000     681.2490     717.8745     749.7505       6.7929
 5250.7896    5250.7896      97.0736     656.0000     681.4991     718.2487     749.9991       6.8415
 5250.6372    5250.6372      86.1163     656.0000     681.6246     718.1254     750.0000       6.8845
 5250.4848    5250.4848      74.7682     656.0000     681.6250     718.3743     750.1247       6.9219
 5250.3324    5250.3324      67.1158     656.0000     681.8744     718.4997     750.3744       6.9555
 5250.1800    5250.1800      63.9070     656.0000     682.1245     718.9990     750.6245       6.9875
 5250.0276    5250.0276      63.5825     656.0000     682.2498     718.8752     750.7498       7.0193
 5249.8752    5249.8752      64.2772     656.0000     682.4997     719.1247     750.6252       7.0514
 5249.7228    5249.7228      64.9336     656.0000     682.6249     719.3748     750.8748       7.0839
 5249.5704    5249.5704      65.2916     656.0000     682.8749     719.4999     750.8750       7.1166
 5249.4180    5249.4180      65.3090     656.0000     683.2500     719.6250     751.2500       7.1492
 5249.2656    5249.2656      65.0477     656.0000     683.3750     719.8750     751.2500       7.1818
 5249.1132    5249.1132      64.6250     656.2501     683.8751     719.8751     751.5001       7.2141
 5248.9608    5248.9608      64.1400     656.4997     684.1253     720.0000     751.6251       7.2462
