~VERSION INFORMATION
VERS.           2.0   :CWLS Log ASCII Standard - VERSION 2.0
WRAP.           NO    :One Line per depth step
PROD.  Schlumberger   :LAS Producer
PROG.  DLIS to ASCII 2.3                               :LAS Program name and version
CREA.        2023/07/14 00:15                          :LAS Creation date {YYYY/MM/DD hh:mm}
DLIS_CREA.  2023-Jul-14 00:11                          :DLIS Creation date and time {YYYY-MMM-DD hh:mm}
SOURCE.     LIS_011.dlis                               :DLIS File Name
FILE-ID.     LIS   .004                                :File Identification Number
#--------------------------------------------------
~WELL INFORMATION
#MNEM.UNIT      DATA             DESCRIPTION
#---- ------ --------------   -----------------------------
STRT .M      5300.3196       :START DEPTH     
STOP .M      4931.0544       :STOP DEPTH     
STEP .M        -0.1524       :STEP     
NULL .          -999.25      :NULL VALUE
COMP .        PETROBRAS S.A.                           :COMPANY
WELL .        3-BRSA-293D-SPS                          :WELL
FLD  .        BS-400                                   :FIELD
LOC  .        BASE SAD 69:                             :LOCATION
CNTY .        SANTOS                                   :COUNTY
STAT .        BRASIL                                   :STATE
CTRY .        BRASIL                                   :COUNTRY
API  .                                                 :API NUMBER
UWI  .                                                 :UNIQUE WELL ID
DATE .        15/11/2004                               :LOG DATE
SRVC .        Schlumberger                             :SERVICE COMPANY
LATI .DEG                                              :LATITUDE
LONG .DEG                                              :LONGITUDE
GDAT .                                                 :GeoDetic Datum
#-----------------------------------------------------------------------------
~PARAMETER INFORMATION
#MNEM.UNIT    VALUE                      DESCRIPTION
#---- -----   --------------------       ------------------------
APD  .M               24                 :
BHT  .DEGF           260                 :
BLI  .M             5289                 :
BS   .IN         8.50000                 :
CN   .        PETROBRAS S.A.             :
COUN .        SANTOS                     :
CS   .IN         9.62500                 :
DATE .        15/11/2004                 :
DFD  .LB/G      12.30000                 :
DFL  .C3               2                 :
DFPH .        N/A                        :
DFT  .        SINTETICO                  :
DFV  .S               95                 :
DMF  .        MESA ROTATIVA              :
EDF  .M               24                 :
EGL  .M             -500                 :
EKB  .        N/A                        :
ENGI .        HERNANDEZ / LOCK           :
FL1  .        X   7292392.00 M LAT 24 28 47.189 S :
FL2  .        Y    584087.00 M LON 44 10 12.698 W :
FL3  .        MC  45 GRAUS               :
FN   .        BS-400                     :
LMF  .        MESA ROTATIVA              :
LUL  .        MACAE                      :
MCSS .        PRENSA                     :
MCST .DEGF            80                 :
MFSS .        PRENSA                     :
MFST .DEGF            80                 :
MSS  .        LINHA DE FLUXO             :
MST  .DEGF            80                 :
PDAT .        NIVEL DO MAR               :
R1   .        01. APRESENTAÇÃO DE ACORDO COM REQUERIMENTO DO CLIENTE :
R2   .        02. TEMPERATURA MÁXIMA DO POÇO T1=T2= 290 DEGF @  5275 M :
R3   .        03. INICIO DA CIRCULAÇÃO  12/11/2004 09 00 H :
R4   .        04. FINAL DA CIRCULAÇÃO   12/11/2004 18 00 H :
R5   .        05. TEMPO TOTAL DE CIRCULAÇÃO   09 00 H :
R6   .        06. FLUIDO DE PERFURAÇÃO  SINTETICO (BR-MUL  BR-MI)  60% TEOR DO OLEO :
R7   .        07. SALINIDADE DA LAMA  254762 PPM NACL NA FASE DE AGUA :
R8   .        08. INCLINAÇÃO MÁXIMA DO POÇO  37.37 GRAUS @ 5100 M :
R9   .        09. PRIMEIRAS E ULTIMAS LEITURAS  :
RMB  .OHMM    > 10                       :
RMCS .OHMM    > 10                       :
RMFS .OHMM    > 10                       :
RMS  .OHMM    >10                        :
RUN  .                 2                 :
STAT .        BRASIL                     :
TCS  .        18 00 H                    :
TDD  .M             5288                 :
TDL  .M             5293                 :
TLAB .        N/A                        :
TLI  .M             5000                 :
WITN .        ERNANI / ZE MARIA          :
WN   .        3-BRSA-293D-SPS            :
LUN  .              8808                 :
HIDE .        3-SPS-41D                  :
HID2 .        HIGH DEFINITION INDUCTION LOG :
HID3 .        X-MULTIPOLE ARRAY ACOUSTILOG :
HID4 .        GAMMA RAY LOG              :
HID5 .        TTRM SUB                   :
CLAB .        BACIA                      :
SLAB .        PAIS                       :
CMT1 .        ESC  1 200                 :
CMT2 .        PROF. MEDIDA               :
CMT4 .        SONDA  SS-43               :
HDAT .        SAD 69                     :
FL   .        BASE SAD 69                :
OS1  .        RCI/GR                     :
OS2  .        CHECK SHOT                 :
OS3  .        GR/CN/ZDL                  :
OS5  .        RCOR/GR                    :
LNAM .        ZDL/CN/XMAC/HDIL/EARTH IMAGER/RCI/RCOR/CHECK SHOT/GR :
TOOL .        ZDL/CN/XMAC/HDIL/EARTH IMAGER/RCI/RCOR/CHECK SHOT/GR :
LSOU .        PETROBRAS                  :
LSRV .        OH WIRELINE                :
LTYP .        RAW                        :
EPD  .M                0                 :
LDAT .        15/11/2004                 :
TRIP .                 3                 :
SON  .            786588                 :
CBDR .M             4277                 :
CBLO .        NR                         :
CBL1 .        NR                         :
STEM .DEGF    N/A                        :
BSAL .            254762                 :
BARI .        OFF                        :
DLAB .        12/11/2004                 :
MRT  .DEGF           290                 :
TSTR .        HDIL/XMAC/GR/TTRM          :
TSTG .        N/A                        :
STUS .        FINAL                      :
LCNM .        BAKER ATLAS                :
LCC  .               150                 :
NATI .        BRASIL                     :
OPMD .        OH.WIRELINE                :
PANA .        HERNANDEZ / LOCK           :
PCON .        BAKER ATLAS                :
R11  .        SL     5268.3 M / 5000.0 M :
R12  .        GR     5268.3 M / 5000.0 M :
R13  .        XMAC   5279.5 M / 5000.0 M :
R14  .        HDIL   5289.0 M / 5000.0 M :
R17  .        11. DECLINAÇÃO MAGNETICA  -20.9 GRAUS :
R18  .        12. COORDENADAS BASE       :
R21  .        Y    583936.00 M           :
R22  .        MC  45 GRAUS               :
PVER .           4.10000                 :
WDFN .        /space/expusr/3-SPS-41D_RUN2/i77bf02_4spf.xtf :
OCT  .        i77bf                      :
OS4  .        EARTH IMAGER               :
R16  .        10. PONTO FRACO UTILIZADO  10K :
R20  .        X   7292512.00 M           :
R24  .        13. CADASTRO ANP  86316021017 :
#-----------------------------------------------------------------------------
~CURVE INFORMATION
#MNEM.UNIT   API CODE                                  DESCRIPTION
#---- -----  --------                                  -----------------------
DEPT .M                                                :DEPTH (BOREHOLE) {F10.4}
DEPT .M                                                : {F13.4}
BIT  .IN                                               : {F13.4}
GR   .GAPI                                             : {F13.4}
M2R1 .OHMM                                             : {F13.4}
M2R2 .OHMM                                             : {F13.4}
M2R3 .OHMM                                             : {F13.4}
M2R6 .OHMM                                             : {F13.4}
M2R9 .OHMM                                             : {F13.4}
M2RX .OHMM                                             : {F13.4}
SPD  .M/MN                                             : {F13.4}
TEN  .LBF                                              : {F13.4}
TTEN .LBF                                              : {F13.4}
#-----------------------------------------------------------------------------
# 
#     DEPT        DEPT         BIT          GR           M2R1         M2R2         M2R3         M2R6         M2R9         M2RX         SPD          TEN          TTEN
#
~A  
# ...
 5249.1132    5249.1132       8.5000      91.0413       3.6941       4.7011       5.3798       6.0720       6.4360       6.8660       4.8509      -5.5303    7764.5074
 5248.9608    5248.9608       8.5000      80.3009       3.7295       4.5873       5.1869       5.8335       6.1820       6.6188       4.8508     -16.6943    7753.1829
 5248.8084    5248.8084       8.5000      65.3729       3.8150       4.5094       5.0580       5.6773       6.0105       6.4531       4.8583     -52.1588    7717.0351
 5248.6560    5248.6560       8.5000      54.9465       4.1593       4.7322       5.2968       5.9481       6.2875       6.7623       4.8674     -69.3258    7698.6866
 5248.5036    5248.5036       8.5000      51.8425       4.8813       5.4045       6.0781       6.8489       7.2268       7.7773       4.8658     -46.1232    7720.8932
 5248.3512    5248.3512       8.5000      55.0989       5.6274       6.2052       7.0576       8.0026       8.4289       9.0648       4.8558     -17.4398    7749.1531
 5248.1988    5248.1988       8.5000      65.9659       5.8018       6.6015       7.6334       8.7249       9.1737       9.8470       4.8488     -18.2298    7748.1424
 5248.0464    5248.0464       8.5000      85.2209       5.3287       6.4734       7.6345       8.7969       9.2347       9.8823       4.8498     -39.0160    7726.8306
 5247.8940    5247.8940       8.5000     106.1656       4.6938       6.1670       7.4132       8.5930       9.0057       9.5974       4.8575     -58.9829    7705.9137
 5247.7416    5247.7416       8.5000     117.8807       4.1216       5.7616       7.0197       8.1519       8.5265       9.0412       4.8654     -67.3172    7696.3744
 5247.5892    5247.5892       8.5000     117.7471       3.6103       5.1938       6.3569       7.3589       7.6768       8.0940       4.8696     -54.1801    7708.3790
 5247.4368    5247.4368       8.5000     111.3656       3.3112       4.7568       5.7981       6.6601       6.9241       7.2559       4.8662     -33.7491    7728.0409
 5247.2844    5247.2844       8.5000     103.0044       3.3062       4.6632       5.6268       6.3936       6.6192       6.8930       4.8580     -28.1988    7733.0807
 5247.1320    5247.1320       8.5000      94.8545       3.5414       4.8811       5.8159       6.5287       6.7263       6.9613       4.8533     -26.3869    7734.4286
 5246.9796    5246.9796       8.5000      89.2449       3.8691       5.2273       6.1554       6.8299       7.0002       7.2020       4.8551     -20.0063    7740.4327
 5246.8272    5246.8271       8.5000      86.7122       4.1070       5.4699       6.3829       7.0135       7.1522       7.3186       4.8563     -37.1878    7722.7705
 5246.6748    5246.6748       8.5000      85.1859       4.1887       5.5361       6.4250       7.0091       7.1161       7.2471       4.8580     -63.6380    7695.4004
 5246.5224    5246.5224       8.5000      84.0842       4.1576       5.4846       6.3537       6.9003       6.9818       7.0825       4.8652     -55.1452    7702.8556
 5246.3700    5246.3700       8.5000      84.1373       4.0548       5.3610       6.2165       6.7372       6.8022       6.8796       4.8714     -30.1047    7727.2446
 5246.2176    5246.2176       8.5000      84.9758       3.9334       5.2239       6.0671       6.5783       6.6367       6.6986       4.8696     -33.2447    7723.6254
 5246.0652    5246.0652       8.5000      85.4266       3.8586       5.1514       5.9954       6.5057       6.5668       6.6207       4.8646     -39.9622    7716.2737
 5245.9128    5245.9128       8.5000      85.5809       3.8364       5.1468       5.9964       6.5124       6.5834       6.6358       4.8586      -4.7703    7751.1425
 5245.7604    5245.7604       8.5000      85.8320       3.8298       5.1574       6.0101       6.5265       6.6118       6.6674       4.8509      56.5243    7813.0684
 5245.6080    5245.6080       8.5000      85.8787       3.8075       5.1398       5.9825       6.4947       6.5955       6.6576       4.8468      88.9667    7846.9514
 5245.4556    5245.4556       8.5000      85.0921       3.7334       5.0439       5.8623       6.3611       6.4748       6.5447       4.8525      64.1224    7823.4922
 5245.3032    5245.3032       8.5000      84.3513       3.6104       4.8738       5.6620       6.1398       6.2617       6.3392       4.8610       0.1300    7759.9916
 5245.1508    5245.1508       8.5000      84.2395       3.5298       4.7574       5.5337       5.9985       6.1262       6.2122       4.8637     -65.2351    7693.9572
 5244.9984    5244.9984       8.5000      84.8112       3.5637       4.7986       5.5992       6.0708       6.2051       6.3022       4.8613    -100.1639    7657.5244
 5244.8460    5244.8460       8.5000      87.4188       3.6903       4.9770       5.8359       6.3338       6.4754       6.5866       4.8629     -89.3269    7666.7110
 5244.6936    5244.6936       8.5000      91.1224       3.8521       5.2266       6.1662       6.7039       6.8521       6.9793       4.8696     -39.8119    7715.1630
 5244.5412    5244.5412       8.5000      96.6241       3.9989       5.4865       6.5139       7.0976       7.2501       7.3937       4.8675      23.5844    7778.5456
 5244.3888    5244.3888       8.5000     104.6850       4.0401       5.6196       6.7077       7.3258       7.4773       7.6338       4.8542      69.7997    7825.7795
 5244.2364    5244.2364       8.5000     108.9845       3.9062       5.4895       6.5703       7.1951       7.3377       7.4988       4.8429      95.9590    7853.5911
 5244.0840    5244.0840       8.5000     102.9470       3.6878       5.1872       6.2123       6.8143       6.9441       7.1033       4.8431     128.0888    7887.8701
 5243.9316    5243.9316       8.5000      92.3773       3.5309       4.9243       5.8890       6.4652       6.5849       6.7419       4.8513     150.9851    7913.4170
 5243.7792    5243.7792       8.5000      85.2279       3.4926       4.8097       5.7340       6.3008       6.4160       6.5747       4.8586     108.5550    7873.3862
 5243.6268    5243.6268       8.5000      82.6409       3.5697       4.8647       5.7811       6.3575       6.4743       6.6402       4.8606      12.8774    7778.6657
 5243.4744    5243.4744       8.5000      82.1761       3.7349       5.0670       6.0070       6.6106       6.7351       6.9134       4.8607     -46.3677    7718.9378
 5243.3220    5243.3220       8.5000      81.7904       3.9082       5.3077       6.2839       6.9206       7.0567       7.2492       4.8605     -40.0546    7724.4442
 5243.1696    5243.1696       8.5000      81.6104       3.9578       5.3947       6.3845       7.0371       7.1834       7.3844       4.8554     -27.6282    7736.2719
 5243.0172    5243.0172       8.5000      81.6566       3.8624       5.2913       6.2677       6.9145       7.0679       7.2697       4.8479     -46.2863    7716.8628
 5242.8648    5242.8648       8.5000      81.2846       3.7452       5.1737       6.1466       6.7870       6.9486       7.1497       4.8454     -71.2350    7690.7588
 5242.7124    5242.7124       8.5000      81.6963       3.6756       5.1502       6.1553       6.8024       6.9765       7.1794       4.8495     -69.1442    7691.5832
 5242.5600    5242.5600       8.5000      83.2187       3.6160       5.1706       6.2353       6.8957       7.0849       7.2903       4.8607     -36.0109    7723.8464
 5242.4076    5242.4076       8.5000      83.6626       3.5406       5.1786       6.3097       6.9808       7.1847       7.3901       4.8721       2.3695    7762.0840
 5242.2552    5242.2552       8.5000      82.6150       3.4847       5.1905       6.3716       7.0548       7.2718       7.4747       4.8749       2.2149    7762.1187
 5242.1028    5242.1028       8.5000      81.8297       3.4761       5.2063       6.4119       7.0916       7.3182       7.5155       4.8684     -39.0994    7720.4992
 5241.9504    5241.9504       8.5000      81.7910       3.5302       5.2180       6.4000       7.0625       7.2935       7.4817       4.8589     -82.0332    7676.4081
