~VERSION INFORMATION
VERS.           2.0   :CWLS Log ASCII Standard - VERSION 2.0
WRAP.           NO    :One Line per depth step
PROD.  Schlumberger   :LAS Producer
PROG.  DLIS to ASCII 2.3                               :LAS Program name and version
CREA.        2023/07/14 00:15                          :LAS Creation date {YYYY/MM/DD hh:mm}
DLIS_CREA.  2023-Jul-14 00:11                          :DLIS Creation date and time {YYYY-MMM-DD hh:mm}
SOURCE.     LIS_009.dlis                               :DLIS File Name
FILE-ID.     LIS   .002                                :File Identification Number
#--------------------------------------------------
~WELL INFORMATION
#MNEM.UNIT      DATA             DESCRIPTION
#---- ------ --------------   -----------------------------
STRT .M      5301.9960       :START DEPTH     
STOP .M      5058.6132       :STOP DEPTH     
STEP .M        -0.1524       :STEP     
NULL .          -999.25      :NULL VALUE
COMP .        PETROBRAS S.A.                           :COMPANY
WELL .        3-BRSA-293D-SPS                          :WELL
FLD  .        BS-400                                   :FIELD
LOC  .        BASE SAD 69:                             :LOCATION
CNTY .        SANTOS                                   :COUNTY
STAT .        BRASIL                                   :STATE
CTRY .        BRASIL                                   :COUNTRY
API  .                                                 :API NUMBER
UWI  .                                                 :UNIQUE WELL ID
DATE .        15/11/2004                               :LOG DATE
SRVC .        Schlumberger                             :SERVICE COMPANY
LATI .DEG                                              :LATITUDE
LONG .DEG                                              :LONGITUDE
GDAT .                                                 :GeoDetic Datum
#-----------------------------------------------------------------------------
~PARAMETER INFORMATION
#MNEM.UNIT    VALUE                      DESCRIPTION
#---- -----   --------------------       ------------------------
APD  .M               24                 :
BHT  .DEGF           260                 :
BLI  .M             5289                 :
BS   .IN         8.50000                 :
CN   .        PETROBRAS S.A.             :
COUN .        SANTOS                     :
CS   .IN         9.62500                 :
DATE .        15/11/2004                 :
DFD  .LB/G      12.30000                 :
DFL  .C3               2                 :
DFPH .        N/A                        :
DFT  .        SINTETICO                  :
DFV  .S               95                 :
DMF  .        MESA ROTATIVA              :
EDF  .M               24                 :
EGL  .M             -500                 :
EKB  .        N/A                        :
ENGI .        HERNANDEZ / LOCK           :
FL1  .        X   7292392.00 M LAT 24 28 47.189 S :
FL2  .        Y    584087.00 M LON 44 10 12.698 W :
FL3  .        MC  45 GRAUS               :
FN   .        BS-400                     :
LMF  .        MESA ROTATIVA              :
LUL  .        MACAE                      :
MCSS .        PRENSA                     :
MCST .DEGF            80                 :
MFSS .        PRENSA                     :
MFST .DEGF            80                 :
MSS  .        LINHA DE FLUXO             :
MST  .DEGF            80                 :
PDAT .        NIVEL DO MAR               :
R1   .        01. APRESENTAÇÃO DE ACORDO COM REQUERIMENTO DO CLIENTE :
R2   .        02. TEMPERATURA MÁXIMA DO POÇO T1=T2= 290 DEGF @  5275 M :
R3   .        03. INICIO DA CIRCULAÇÃO  12/11/2004 09 00 H :
R4   .        04. FINAL DA CIRCULAÇÃO   12/11/2004 18 00 H :
R5   .        05. TEMPO TOTAL DE CIRCULAÇÃO   09 00 H :
R6   .        06. FLUIDO DE PERFURAÇÃO  SINTETICO (BR-MUL  BR-MI)  60% TEOR DO OLEO :
R7   .        07. SALINIDADE DA LAMA  254762 PPM NACL NA FASE DE AGUA :
R8   .        08. INCLINAÇÃO MÁXIMA DO POÇO  37.37 GRAUS @ 5100 M :
R9   .        09. PRIMEIRAS E ULTIMAS LEITURAS  :
RMB  .OHMM    > 10                       :
RMCS .OHMM    > 10                       :
RMFS .OHMM    > 10                       :
RMS  .OHMM    >10                        :
RUN  .                 2                 :
STAT .        BRASIL                     :
TCS  .        18 00 H                    :
TDD  .M             5288                 :
TDL  .M             5293                 :
TLAB .        N/A                        :
TLI  .M             5000                 :
WITN .        ERNANI / ZE MARIA          :
WN   .        3-BRSA-293D-SPS            :
LUN  .              8808                 :
HIDE .        3-SPS-41D                  :
HID2 .        HIGH DEFINITION INDUCTION LOG :
HID3 .        X-MULTIPOLE ARRAY ACOUSTILOG :
HID4 .        GAMMA RAY LOG              :
HID5 .        TTRM SUB                   :
CLAB .        BACIA                      :
SLAB .        PAIS                       :
CMT1 .        ESC  1 200                 :
CMT2 .        PROF. MEDIDA               :
CMT4 .        SONDA  SS-43               :
HDAT .        SAD 69                     :
FL   .        BASE SAD 69                :
OS1  .        RCI/GR                     :
OS2  .        CHECK SHOT                 :
OS3  .        GR/CN/ZDL                  :
OS5  .        RCOR/GR                    :
LNAM .        ZDL/CN/XMAC/HDIL/EARTH IMAGER/RCI/RCOR/CHECK SHOT/GR :
TOOL .        ZDL/CN/XMAC/HDIL/EARTH IMAGER/RCI/RCOR/CHECK SHOT/GR :
LSOU .        PETROBRAS                  :
LSRV .        OH WIRELINE                :
LTYP .        RAW                        :
EPD  .M                0                 :
LDAT .        15/11/2004                 :
TRIP .                 3                 :
SON  .            786588                 :
CBDR .M             4277                 :
CBLO .        NR                         :
CBL1 .        NR                         :
STEM .DEGF    N/A                        :
BSAL .            254762                 :
BARI .        OFF                        :
DLAB .        12/11/2004                 :
MRT  .DEGF           290                 :
TSTR .        HDIL/XMAC/GR/TTRM          :
TSTG .        N/A                        :
STUS .        FINAL                      :
LCNM .        BAKER ATLAS                :
LCC  .               150                 :
NATI .        BRASIL                     :
OPMD .        OH.WIRELINE                :
PANA .        HERNANDEZ / LOCK           :
PCON .        BAKER ATLAS                :
R11  .        SL     5268.3 M / 5000.0 M :
R12  .        GR     5268.3 M / 5000.0 M :
R13  .        XMAC   5279.5 M / 5000.0 M :
R14  .        HDIL   5289.0 M / 5000.0 M :
R17  .        11. DECLINAÇÃO MAGNETICA  -20.9 GRAUS :
R18  .        12. COORDENADAS BASE       :
R21  .        Y    583936.00 M           :
R22  .        MC  45 GRAUS               :
PVER .           4.10000                 :
WDFN .        /space/expusr/3-SPS-41D_RUN2/i77bf01_4spf.xtf :
OCT  .        i77bf                      :
OS4  .        EARTH IMAGER               :
R16  .        10. PONTO FRACO UTILIZADO  10K :
R20  .        X   7292512.00 M           :
R24  .        13. CADASTRO ANP  86316021017 :
#-----------------------------------------------------------------------------
~CURVE INFORMATION
#MNEM.UNIT   API CODE                                  DESCRIPTION
#---- -----  --------                                  -----------------------
DEPT .M                                                :DEPTH (BOREHOLE) {F10.4}
DEPT .M                                                : {F13.4}
BIT  .IN                                               : {F13.4}
GR   .GAPI                                             : {F13.4}
M2R1 .OHMM                                             : {F13.4}
M2R2 .OHMM                                             : {F13.4}
M2R3 .OHMM                                             : {F13.4}
M2R6 .OHMM                                             : {F13.4}
M2R9 .OHMM                                             : {F13.4}
M2RX .OHMM                                             : {F13.4}
SPD  .M/MN                                             : {F13.4}
TEN  .LBF                                              : {F13.4}
TTEN .LBF                                              : {F13.4}
#-----------------------------------------------------------------------------
# 
#     DEPT        DEPT         BIT          GR           M2R1         M2R2         M2R3         M2R6         M2R9         M2RX         SPD          TEN          TTEN
#
~A  
# ...
 5119.1160    5119.1160       8.5000      86.1483       2.3403       3.5098       4.3291       4.7523       4.7666       4.7811       4.7460      51.8446    7754.6637
 5118.9636    5118.9636       8.5000      86.5799       2.3640       3.4782       4.2485       4.6487       4.6712       4.6781       4.7478      49.6358    7753.5585
 5118.8112    5118.8112       8.5000      87.7530       2.4268       3.5080       4.2513       4.6405       4.6683       4.6693       4.7521     -13.0190    7691.3391
 5118.6588    5118.6588       8.5000      87.8208       2.5316       3.6126       4.3586       4.7544       4.7863       4.7837       4.7589     -69.2088    7634.4075
 5118.5064    5118.5064       8.5000      86.2776       2.6527       3.7544       4.5268       4.9449       4.9812       4.9779       4.7627     -66.4172    7636.0344
 5118.3540    5118.3540       8.5000      85.2100       2.7528       3.8724       4.6801       5.1296       5.1718       5.1718       4.7607     -30.5421    7671.2052
 5118.2016    5118.2016       8.5000      86.4577       2.8265       3.9519       4.7943       5.2803       5.3307       5.3389       4.7547      -7.8390    7693.6904
 5118.0492    5118.0492       8.5000      89.2667       2.8915       4.0176       4.8912       5.4169       5.4790       5.5006       4.7466       3.9907    7705.5060
 5117.8968    5117.8968       8.5000      93.5772       2.9452       4.0724       4.9705       5.5311       5.6084       5.6482       4.7410      23.6489    7725.4406
 5117.7444    5117.7444       8.5000      97.6070       2.9663       4.0935       4.9960       5.5846       5.6790       5.7408       4.7445      28.1583    7730.4688
 5117.5920    5117.5920       8.5000      97.7148       2.9472       4.0740       4.9637       5.5661       5.6776       5.7630       4.7511      14.3713    7717.0545
 5117.4396    5117.4396       8.5000      93.9183       2.8821       4.0016       4.8635       5.4636       5.5898       5.6977       4.7529      30.7474    7733.8187
 5117.2872    5117.2872       8.5000      89.2693       2.7477       3.8339       4.6500       5.2271       5.3623       5.4876       4.7497      90.2639    7794.5158
 5117.1348    5117.1348       8.5000      85.6277       2.5799       3.6128       4.3784       4.9219       5.0600       5.1967       4.7480     144.0969    7850.6152
 5116.9824    5116.9824       8.5000      83.2251       2.4809       3.4833       4.2246       4.7487       4.8894       5.0363       4.7517     146.1498    7855.3926
 5116.8300    5116.8300       8.5000      81.3919       2.4945       3.5108       4.2665       4.7966       4.9432       5.1031       4.7579      85.5148    7796.8529
 5116.6776    5116.6776       8.5000      79.2210       2.5845       3.6464       4.4429       4.9983       5.1526       5.3272       4.7575       2.3885    7714.4061
 5116.5252    5116.5252       8.5000      78.6106       2.6880       3.7984       4.6407       5.2274       5.3878       5.5750       4.7502     -41.5348    7669.9935
 5116.3728    5116.3728       8.5000      81.1166       2.7688       3.9109       4.7900       5.4035       5.5665       5.7612       4.7446     -35.6708    7675.0901
 5116.2204    5116.2204       8.5000      84.7532       2.8337       3.9927       4.9005       5.5362       5.6993       5.8972       4.7449     -14.6529    7695.6566
 5116.0680    5116.0680       8.5000      87.5575       2.8957       4.0663       4.9994       5.6535       5.8161       6.0145       4.7514      -9.9180    7700.2094
 5115.9156    5115.9156       8.5000      89.9071       2.9507       4.1322       5.0871       5.7550       5.9168       6.1138       4.7626     -32.5021    7677.2356
 5115.7632    5115.7632       8.5000      94.1543       2.9944       4.1911       5.1635       5.8396       6.0010       6.1950       4.7682     -62.2968    7646.5146
 5115.6108    5115.6108       8.5000     100.7434       3.0318       4.2534       5.2410       5.9216       6.0832       6.2735       4.7611     -70.4052    7637.1565
 5115.4584    5115.4584       8.5000     105.0883       3.0614       4.3147       5.3126       5.9932       6.1551       6.3409       4.7509     -62.2695    7644.0936
 5115.3060    5115.3060       8.5000     102.3170       3.0610       4.3346       5.3274       5.9981       6.1582       6.3373       4.7487     -72.7789    7632.2498
 5115.1536    5115.1536       8.5000      94.0988       3.0025       4.2631       5.2242       5.8682       6.0223       6.1904       4.7499     -90.7594    7612.5400
 5115.0012    5115.0012       8.5000      86.4014       2.8927       4.1054       5.0122       5.6156       5.7596       5.9134       4.7488     -69.5976    7632.0910
 5114.8488    5114.8488       8.5000      82.8468       2.7799       3.9329       4.7819       5.3427       5.4755       5.6146       4.7504      -9.3540    7691.6592
 5114.6964    5114.6964       8.5000      82.8043       2.7288       3.8422       4.6526       5.1841       5.3079       5.4354       4.7569      44.3722    7745.8115
 5114.5440    5114.5439       8.5000      83.8884       2.7677       3.8741       4.6746       5.1951       5.3136       5.4332       4.7633      67.3117    7769.8877
 5114.3916    5114.3916       8.5000      84.7759       2.8597       3.9784       4.7884       5.3105       5.4254       5.5387       4.7630      49.0507    7752.7705
 5114.2392    5114.2393       8.5000      85.2876       2.9489       4.0833       4.9106       5.4381       5.5494       5.6555       4.7541       1.1487    7705.2988
 5114.0868    5114.0868       8.5000      86.4227       3.0179       4.1733       5.0250       5.5610       5.6684       5.7661       4.7452     -34.2104    7669.5705
 5113.9344    5113.9344       8.5000      89.0444       3.0740       4.2618       5.1476       5.6969       5.8006       5.8890       4.7479     -37.8840    7665.2487
 5113.7820    5113.7820       8.5000      91.5865       3.1168       4.3384       5.2627       5.8284       5.9283       6.0063       4.7565     -34.9733    7667.5334
 5113.6296    5113.6296       8.5000      92.2645       3.1410       4.3795       5.3319       5.9155       6.0109       6.0775       4.7569     -35.5360    7666.2996
 5113.4772    5113.4772       8.5000      92.4378       3.1649       4.4025       5.3773       5.9726       6.0636       6.1183       4.7514     -21.3057    7679.9681
 5113.3248    5113.3248       8.5000      93.8938       3.2276       4.4680       5.4639       6.0739       6.1619       6.2057       4.7494       5.6823    7706.8367
 5113.1724    5113.1724       8.5000      96.9823       3.3270       4.5841       5.6003       6.2268       6.3139       6.3476       4.7525      27.3530    7728.8659
 5113.0200    5113.0200       8.5000     101.5665       3.3940       4.6664       5.6842       6.3156       6.4024       6.4270       4.7582      32.8022    7734.9159
 5112.8676    5112.8676       8.5000     105.7532       3.3866       4.6636       5.6582       6.2760       6.3624       6.3793       4.7599       8.2212    7710.7506
 5112.7152    5112.7152       8.5000     105.7432       3.3173       4.5904       5.5445       6.1330       6.2189       6.2304       4.7530     -40.0583    7662.1570
 5112.5628    5112.5628       8.5000     100.6470       3.1955       4.4467       5.3454       5.8919       5.9766       5.9851       4.7432     -61.0334    7640.1475
 5112.4104    5112.4104       8.5000      94.5521       3.0420       4.2436       5.0753       5.5720       5.6543       5.6624       4.7408     -30.5505    7669.7255
 5112.2580    5112.2580       8.5000      89.7283       2.9163       4.0580       4.8282       5.2805       5.3600       5.3702       4.7477      -4.5533    7695.4490
 5112.1056    5112.1056       8.5000      85.0123       2.8823       3.9855       4.7200       5.1453       5.2236       5.2385       4.7584     -31.4111    7668.2946
 5111.9532    5111.9532       8.5000      80.7948       2.9557       4.0589       4.7914       5.2118       5.2912       5.3136       4.7675     -85.8011    7612.7619
