~VERSION INFORMATION
VERS.           2.0   :CWLS Log ASCII Standard - VERSION 2.0
WRAP.           YES   :Multiple lines per depth step
PROD.  Schlumberger   :LAS Producer
PROG.  DLIS to ASCII 2.3                               :LAS Program name and version
CREA.        2023/07/14 00:15                          :LAS Creation date {YYYY/MM/DD hh:mm}
DLIS_CREA.  2023-Jul-14 00:11                          :DLIS Creation date and time {YYYY-MMM-DD hh:mm}
SOURCE.     LIS_012.dlis                               :DLIS File Name
FILE-ID.     LIS   .001                                :File Identification Number
#--------------------------------------------------
~WELL INFORMATION
#MNEM.UNIT      DATA             DESCRIPTION
#---- ------ --------------   -----------------------------
STRT .M      5265.1152       :START DEPTH     
STOP .M      5185.4100       :STOP DEPTH     
STEP .M        -0.1524       :STEP     
NULL .          -999.25      :NULL VALUE
COMP .        PETROBRAS S.A.                           :COMPANY
WELL .        3-BRSA-293D-SPS                          :WELL
FLD  .        BS-400                                   :FIELD
LOC  .        BASE SAD 69:                             :LOCATION
CNTY .        SANTOS                                   :COUNTY
STAT .        BRASIL                                   :STATE
CTRY .        BRASIL                                   :COUNTRY
API  .                                                 :API NUMBER
UWI  .                                                 :UNIQUE WELL ID
DATE .        15/11/2004                               :LOG DATE
SRVC .        Schlumberger                             :SERVICE COMPANY
LATI .DEG                                              :LATITUDE
LONG .DEG                                              :LONGITUDE
GDAT .                                                 :GeoDetic Datum
#-----------------------------------------------------------------------------
~PARAMETER INFORMATION
#MNEM.UNIT    VALUE                      DESCRIPTION
#---- -----   --------------------       ------------------------
APD  .M               24                 :
BHT  .DEGF           260                 :
BLI  .M             5289                 :
BS   .IN         8.50000                 :
CN   .        PETROBRAS S.A.             :
COUN .        SANTOS                     :
CS   .IN         9.62500                 :
DATE .        15/11/2004                 :
DFD  .LB/G      12.30000                 :
DFL  .C3               2                 :
DFPH .        N/A                        :
DFT  .        SINTETICO                  :
DFV  .S               95                 :
DMF  .        MESA ROTATIVA              :
EDF  .M               24                 :
EGL  .M             -500                 :
EKB  .        N/A                        :
ENGI .        HERNANDEZ / LOCK           :
FL1  .        X   7292392.00 M LAT 24 28 47.189 S :
FL2  .        Y    584087.00 M LON 44 10 12.698 W :
FL3  .        MC  45 GRAUS               :
FN   .        BS-400                     :
LMF  .        MESA ROTATIVA              :
LUL  .        MACAE                      :
MCSS .        PRENSA                     :
MCST .DEGF            80                 :
MFSS .        PRENSA                     :
MFST .DEGF            80                 :
MSS  .        LINHA DE FLUXO             :
MST  .DEGF            80                 :
PDAT .        NIVEL DO MAR               :
R1   .        01. APRESENTAÇÃO DE ACORDO COM REQUERIMENTO DO CLIENTE :
R2   .        02. TEMPERATURA MÁXIMA DO POÇO T1=T2= 292 DEGF @  5277 M :
R3   .        03. INICIO DA CIRCULAÇÃO  12/11/2004 09 00 H :
R4   .        04. FINAL DA CIRCULAÇÃO   12/11/2004 18 00 H :
R5   .        05. TEMPO TOTAL DE CIRCULAÇÃO   09 00 H :
R6   .        06. FLUIDO DE PERFURAÇÃO  SINTETICO (BR-MUL  BR-MI)  60% TEOR DO OLEO :
R7   .        07. SALINIDADE DA LAMA  254762 PPM NACL NA FASE DE AGUA :
R8   .        08. INCLINAÇÃO MÁXIMA DO POÇO  37.37 GRAUS @ 5100 M :
R9   .        09. PRIMEIRAS E ULTIMAS LEITURAS  :
RMB  .OHMM    > 10                       :
RMCS .OHMM    > 10                       :
RMFS .OHMM    > 10                       :
RMS  .OHMM    >10                        :
RUN  .                 2                 :
STAT .        BRASIL                     :
TCS  .        18 00 H                    :
TDD  .M             5288                 :
TDL  .M             5293                 :
TLAB .        N/A                        :
TLI  .M             4277                 :
WITN .        ERNANI / ZE MARIA          :
WN   .        3-BRSA-293D-SPS            :
LUN  .              8808                 :
HIDE .        3-SPS-41D                  :
HID2 .        COMPENSATED Z-DENSILOG     :
HID3 .        COMPENSATED NEUTRON LOG    :
HID4 .        GAMMA RAY LOG              :
HID5 .        TTRM SUB                   :
CLAB .        BACIA                      :
SLAB .        PAIS                       :
CMT1 .        ESC  1 1000                :
CMT2 .        PROF. MEDIDA               :
CMT4 .        SONDA  SS-43               :
HDAT .        SAD 69                     :
FL   .        BASE SAD 69                :
OS1  .        RCI/GR                     :
OS2  .        CHECK SHOT                 :
OS3  .        GR/XMAC/HDIL               :
OS5  .        RCOR/GR                    :
LNAM .        ZDL/CN/XMAC/HDIL/EARTH IMAGER/RCI/RCOR/CHECK SHOT/GR :
TOOL .        ZDL/CN/XMAC/HDIL/EARTH IMAGER/RCI/RCOR/CHECK SHOT/GR :
LSOU .        PETROBRAS                  :
LSRV .        OH WIRELINE                :
LTYP .        RAW                        :
EPD  .M                0                 :
LDAT .        15/11/2004                 :
TRIP .                 4                 :
SON  .            786588                 :
CBDR .M             4277                 :
CBLO .        NR                         :
CBL1 .        NR                         :
STEM .DEGF    N/A                        :
BSAL .            254762                 :
BARI .        OFF                        :
DLAB .        12/11/2004                 :
MRT  .DEGF           292                 :
TSTR .        ZDL/CN/GR/TTRM             :
TSTG .        N/A                        :
STUS .        FINAL                      :
LCNM .        BAKER ATLAS                :
LCC  .               150                 :
NATI .        BRASIL                     :
OPMD .        OH.WIRELINE                :
PANA .        HERNANDEZ / LOCK           :
PCON .        BAKER ATLAS                :
R11  .        GR     5268.3 M / 4277.0 M :
R12  .        CN     5286.5 M / 5128.0 M (FERRAMENTA PERDEU LEITURA ACIMA DE 5128M) :
R13  .        ZDL    5292.0 M / 4277.0 M :
R15  .        10. PONTO FRACO UTILIZADO  10K :
R17  .        12. COORDENADAS BASE       :
R19  .        X   7292512.00 M           :
R21  .        MC  45 GRAUS               :
R23  .        13. CADASTRO ANP  86316021017 :
PVER .           4.10000                 :
WDFN .        /space/expusr/3-SPS-41D_RUN2/i77bf03_8spf.xtf :
OCT  .        i77bf                      :
OS4  .        EARTH IMAGER               :
R16  .        11. DECLINAÇÃO MAGNETICA  -20.9 GRAUS :
R20  .        Y    583936.00 M           :
#-----------------------------------------------------------------------------
~CURVE INFORMATION
#MNEM.UNIT   API CODE                                  DESCRIPTION
#---- -----  --------                                  -----------------------
DEPT .M                                                :DEPTH (BOREHOLE) {F10.4}
DEPT .M                                                : {F13.4}
BIT  .IN                                               : {F13.4}
DEPM .M                                                : {F13.4}
GR   .GAPI                                             : {F13.4}
SPD  .M/MN                                             : {F13.4}
TTEN .LBF                                              : {F13.4}
CAL  .IN                                               : {F13.4}
CALX .IN                                               : {F13.4}
HRD1 .HZ                                               : {F13.4}
HRD2 .HZ                                               : {F13.4}
PE   .B/E                                              : {F13.4}
SFT2 .HZ                                               : {F13.4}
SOFT .HZ                                               : {F13.4}
SSD  .HZ                                               : {F13.4}
ZCOR .G/C3                                             : {F13.4}
ZDEN .G/C3                                             : {F13.4}
CNC  .PU                                               : {F13.4}
CN   .PU                                               : {F13.4}
LSN  .HZ                                               : {F13.4}
SSN  .HZ                                               : {F13.4}
CNCF .PU                                               : {F13.4}
MMRK .MN                                               : {F13.4}
#-----------------------------------------------------------------------------
# DEPT       
#     DEPT         BIT          DEPM         GR           SPD          TTEN         
#     CAL          CALX         HRD1         HRD2         PE           SFT2         
#     SOFT         SSD          ZCOR         ZDEN         CNC          CN           
#     LSN          SSN          CNCF         MMRK         
~A  
# ...
5252.3136
   5252.3136       8.5000    5252.0206      64.3958       3.6504    7313.6784
      8.7516       8.7504     508.6059     698.1821       5.4980     402.5638
    293.4601    6746.4052       0.0180       2.6672      10.8267      11.1971
   2793.5768    5258.2195      10.8267       0.0000
5252.1612
   5252.1612       8.5000    5251.8673      71.2099       3.3022    7330.4755
      8.7480       8.7505     596.6739     745.2085       4.2085     487.8054
    372.4198    6787.9847      -0.0013       2.6218      10.4770      10.6670
   2701.9166    5080.7244      10.4770       0.0000
5252.0088
   5252.0088       8.5000    5251.7158      77.4522       3.3433    7387.5889
      8.7516       8.7493     624.9285     781.4456       3.8224     510.6803
    410.4738    6853.0479      -0.0055       2.6005      11.6239      11.8157
   2370.9980    4700.1670      11.6239       0.0000
5251.8564
   5251.8564       8.5000    5251.5635      82.1279       3.4046    7445.9678
      8.7461       8.7493     634.0360     803.3451       4.0810     521.7654
    407.6243    6801.5234      -0.0151       2.5908      12.0058      12.2374
   2193.6929    4378.5420      12.0058       0.0000
5251.7040
   5251.7040       8.5000    5251.4101      84.7246       3.4484    7482.6434
      8.7512       8.7478     664.4594     794.5653       4.8890     532.2556
    358.2286    6786.9617      -0.0222       2.5842      12.7703      13.0216
   2100.8157    4284.6455      12.7703       0.0000
5251.5516
   5251.5516       8.5000    5251.2577      86.3560       3.5124    7452.0943
      8.7482       8.7508     631.8619     790.1986       4.9641     513.3543
    355.6927    6800.1246      -0.0159       2.5902      13.0007      13.2353
   2086.7535    4300.3791      13.0007       0.0000
5251.3992
   5251.3992       8.5000    5251.1053      87.4665       3.5082    7356.1035
      8.7511       8.7485     631.5251     793.4991       4.6435     500.3727
    372.0089    6848.9759      -0.0094       2.5883      14.9372      14.9644
   1860.8303    4174.3341      14.9372       0.0000
5251.2468
   5251.2468       8.5000    5250.9529      87.5554       3.3913    7281.1239
      8.7522       8.7520     636.6334     796.9776       4.6373     518.5667
    378.0906    6863.5673      -0.0076       2.5853      16.4809      16.7633
   1639.5780    3865.3705      16.4809       0.0000
5251.0944
   5251.0944       8.5000    5250.8014      89.6025       3.3400    7275.8123
      8.7512       8.7526     637.7098     803.8491       4.7573     519.3552
    369.3045    6811.2420      -0.0141       2.5850      17.3547      17.6018
   1498.3107    3603.9817      17.3547       0.0000
5250.9420
   5250.9420       8.5000    5250.6490      96.6739       3.3921    7299.7700
      8.7531       8.7501     639.7190     803.7343       4.7586     513.6472
    368.7733    6797.1239      -0.0198       2.5855      17.0789      17.5636
   1506.2423    3542.8778      17.0789       0.0000
5250.7896
   5250.7896       8.5000    5250.4966     102.3406       3.4013    7318.6812
      8.7531       8.7554     627.2754     823.1311       4.7810     526.6771
    375.4178    6852.9712      -0.0145       2.5821      15.9136      16.3336
   1602.3214    3618.5559      15.9136       0.0000
5250.6372
   5250.6372       8.5000    5250.3442     100.2558       3.4321    7341.5409
      8.7536       8.7514     641.6656     825.7125       4.7574     532.2677
    379.0287    6909.3539      -0.0088       2.5764      15.4114      15.8649
   1711.9331    3788.6465      15.4114       0.0000
5250.4848
   5250.4848       8.5000    5250.1918      94.4223       3.9268    7374.4930
      8.7559       8.7559     614.3578     791.6612       4.6660     496.3051
    373.7594    6829.0964      -0.0029       2.5913      14.3918      14.7508
   1854.4382    3975.7562      14.3918       0.0000
5250.3324
   5250.3324       8.5000    5250.0394      88.9345       6.2483    7407.7047
      8.7515       8.7542     623.8306     765.7324       4.6043     461.2284
    362.6312    6751.7021      -0.0141       2.5957      14.3134      14.6731
   1921.5799    4123.8011      14.3134       0.0000
5250.1800
   5250.1800       8.5000    5249.8870      82.2793       6.1751    7436.1304
      8.7512       8.7503     637.5668     810.2402       4.8569     499.5455
    367.4184    6745.6346      -0.0252       2.5792      13.8487      14.2175
   1988.7432    4198.9912      13.8487       0.0000
5250.0276
   5250.0276       8.5000    5249.7346      77.1136       5.8905    7448.6862
      8.7518       8.7519     614.1824     800.8422       4.8776     499.3856
    361.3742    6714.1950      -0.0243       2.5840      13.2006      13.5998
   2060.2430    4256.4869      13.2006       0.0000
5249.8752
   5249.8752       8.5000    5249.5822      79.0851       5.9470    7440.8089
      8.7525       8.7518     622.2045     779.8831       4.7849     500.8392
    362.1571    6710.6020      -0.0231       2.5851      12.3061      12.6654
   2095.1801    4208.5749      12.3061       0.0000
5249.7228
   5249.7228       8.5000    5249.4298      87.6167       5.9452    7422.9957
      8.7524       8.7534     628.5159     780.6890       4.7422     505.5782
    363.3458    6732.4146      -0.0211       2.5787      13.6890      13.6485
   1878.0873    4030.4154      13.6890       0.0000
5249.5704
   5249.5704       8.5000    5249.2774      94.1108       5.9251    7412.6513
      8.7463       8.7490     627.0893     842.5327       5.4498     498.6085
    355.8105    6709.1849      -0.0345       2.5622      16.1717      16.4675
   1686.7296    3883.9218      16.1717       0.3464
5249.4180
   5249.4180       8.5000    5249.1250      92.5467       5.9418    7421.3652
      8.7457       8.7455     609.5183     807.8718       5.0690     486.2680
    359.3135    6603.2529      -0.0354       2.5760      14.9756      15.4303
   1796.1694    3926.2202      14.9756       0.0000
5249.2656
   5249.2656       8.5000    5248.9717      88.0088       5.9493    7448.5146
      8.7499       8.7471     597.5554     764.4546       4.4721     472.7435
    367.8184    6568.7119      -0.0365       2.5933      14.0671      14.5312
   1932.2021    4090.5879      14.0671       0.0000
5249.1132
   5249.1132       8.5000    5248.8193      87.4577       5.9783    7469.0367
      8.7571       8.7541     596.2729     772.5800       4.9828     503.5066
    347.9569    6658.7382      -0.0261       2.5907      12.6425      13.0468
   2070.9538    4182.4471      12.6425       0.0000
5248.9608
   5248.9608       8.5000    5248.6669      88.8320       6.0299    7460.2146
      8.7532       8.7559     612.3755     822.2968       5.3902     489.9681
    348.4574    6711.0618      -0.0297       2.5725      12.2261      12.5960
   2103.8770    4191.0192      12.2261       0.0000
5248.8084
   5248.8084       8.5000    5248.5145      85.2952       6.0173    7426.1862
      8.7512       8.7520     655.3186     794.0777       4.8481     509.4020
    366.1583    6771.9268      -0.0272       2.5636      10.9921      11.4054
   2220.0256    4193.5348      10.9921       0.0000
5248.6560
   5248.6560       8.5000    5248.3621      74.8485       6.0238    7382.8882
      8.7501       8.7507     622.0347     833.8245       5.3817     535.3017
    353.4920    6845.0947      -0.0140       2.5580      10.1639      10.4923
   2288.8615    4183.5685      10.1639       0.0000
5248.5036
   5248.5036       8.5000    5248.2106      62.5341       5.9955    7351.9938
      8.7458       8.7479     610.3212     838.0263       5.4185     523.2987
    356.3602    6739.1480      -0.0225       2.5571       9.9110      10.1683
   2310.5272    4174.8180       9.9110       0.0000
5248.3512
   5248.3512       8.5000    5248.0582      53.9997       5.9593    7357.4791
      8.7450       8.7451     589.1800     751.5645       4.8133     481.5264
    344.6299    6441.4303      -0.0336       2.5805      10.6388      10.7214
   2313.9358    4292.6860      10.6388       0.0000
5248.1988
   5248.1988       8.5000    5247.9058      50.1966       5.9633    7398.2371
      8.7500       8.7464     568.4571     727.1109       4.5646     465.0243
    346.4092    6077.9215      -0.0840       2.5875      11.7222      12.0784
   2442.5011    4683.9723      11.7222       0.0000
