~VERSION INFORMATION
VERS.           2.0   :CWLS Log ASCII Standard - VERSION 2.0
WRAP.           YES   :Multiple lines per depth step
PROD.  Schlumberger   :LAS Producer
PROG.  DLIS to ASCII 2.3                               :LAS Program name and version
CREA.        2023/07/14 00:15                          :LAS Creation date {YYYY/MM/DD hh:mm}
DLIS_CREA.  2023-Jul-14 00:11                          :DLIS Creation date and time {YYYY-MMM-DD hh:mm}
SOURCE.     LIS_013.dlis                               :DLIS File Name
FILE-ID.     LIS   .002                                :File Identification Number
#--------------------------------------------------
~WELL INFORMATION
#MNEM.UNIT      DATA             DESCRIPTION
#---- ------ --------------   -----------------------------
STRT .M      5299.5576       :START DEPTH     
STOP .M      4241.4444       :STOP DEPTH     
STEP .M        -0.1524       :STEP     
NULL .          -999.25      :NULL VALUE
COMP .        PETROBRAS S.A.                           :COMPANY
WELL .        3-BRSA-293D-SPS                          :WELL
FLD  .        BS-400                                   :FIELD
LOC  .        BASE SAD 69:                             :LOCATION
CNTY .        SANTOS                                   :COUNTY
STAT .        BRASIL                                   :STATE
CTRY .        BRASIL                                   :COUNTRY
API  .                                                 :API NUMBER
UWI  .                                                 :UNIQUE WELL ID
DATE .        15/11/2004                               :LOG DATE
SRVC .        Schlumberger                             :SERVICE COMPANY
LATI .DEG                                              :LATITUDE
LONG .DEG                                              :LONGITUDE
GDAT .                                                 :GeoDetic Datum
#-----------------------------------------------------------------------------
~PARAMETER INFORMATION
#MNEM.UNIT    VALUE                      DESCRIPTION
#---- -----   --------------------       ------------------------
APD  .M               24                 :
BHT  .DEGF           260                 :
BLI  .M             5289                 :
BS   .IN         8.50000                 :
CN   .        PETROBRAS S.A.             :
COUN .        SANTOS                     :
CS   .IN         9.62500                 :
DATE .        15/11/2004                 :
DFD  .LB/G      12.30000                 :
DFL  .C3               2                 :
DFPH .        N/A                        :
DFT  .        SINTETICO                  :
DFV  .S               95                 :
DMF  .        MESA ROTATIVA              :
EDF  .M               24                 :
EGL  .M             -500                 :
EKB  .        N/A                        :
ENGI .        HERNANDEZ / LOCK           :
FL1  .        X   7292392.00 M LAT 24 28 47.189 S :
FL2  .        Y    584087.00 M LON 44 10 12.698 W :
FL3  .        MC  45 GRAUS               :
FN   .        BS-400                     :
LMF  .        MESA ROTATIVA              :
LUL  .        MACAE                      :
MCSS .        PRENSA                     :
MCST .DEGF            80                 :
MFSS .        PRENSA                     :
MFST .DEGF            80                 :
MSS  .        LINHA DE FLUXO             :
MST  .DEGF            80                 :
PDAT .        NIVEL DO MAR               :
R1   .        01. APRESENTAÇÃO DE ACORDO COM REQUERIMENTO DO CLIENTE :
R2   .        02. TEMPERATURA MÁXIMA DO POÇO T1=T2= 292 DEGF @  5277 M :
R3   .        03. INICIO DA CIRCULAÇÃO  12/11/2004 09 00 H :
R4   .        04. FINAL DA CIRCULAÇÃO   12/11/2004 18 00 H :
R5   .        05. TEMPO TOTAL DE CIRCULAÇÃO   09 00 H :
R6   .        06. FLUIDO DE PERFURAÇÃO  SINTETICO (BR-MUL  BR-MI)  60% TEOR DO OLEO :
R7   .        07. SALINIDADE DA LAMA  254762 PPM NACL NA FASE DE AGUA :
R8   .        08. INCLINAÇÃO MÁXIMA DO POÇO  37.37 GRAUS @ 5100 M :
R9   .        09. PRIMEIRAS E ULTIMAS LEITURAS  :
RMB  .OHMM    > 10                       :
RMCS .OHMM    > 10                       :
RMFS .OHMM    > 10                       :
RMS  .OHMM    >10                        :
RUN  .                 2                 :
STAT .        BRASIL                     :
TCS  .        18 00 H                    :
TDD  .M             5288                 :
TDL  .M             5293                 :
TLAB .        N/A                        :
TLI  .M             4277                 :
WITN .        ERNANI / ZE MARIA          :
WN   .        3-BRSA-293D-SPS            :
LUN  .              8808                 :
HIDE .        3-SPS-41D                  :
HID2 .        COMPENSATED Z-DENSILOG     :
HID3 .        COMPENSATED NEUTRON LOG    :
HID4 .        GAMMA RAY LOG              :
HID5 .        TTRM SUB                   :
CLAB .        BACIA                      :
SLAB .        PAIS                       :
CMT1 .        ESC  1 1000                :
CMT2 .        PROF. MEDIDA               :
CMT4 .        SONDA  SS-43               :
HDAT .        SAD 69                     :
FL   .        BASE SAD 69                :
OS1  .        RCI/GR                     :
OS2  .        CHECK SHOT                 :
OS3  .        GR/XMAC/HDIL               :
OS5  .        RCOR/GR                    :
LNAM .        ZDL/CN/XMAC/HDIL/EARTH IMAGER/RCI/RCOR/CHECK SHOT/GR :
TOOL .        ZDL/CN/XMAC/HDIL/EARTH IMAGER/RCI/RCOR/CHECK SHOT/GR :
LSOU .        PETROBRAS                  :
LSRV .        OH WIRELINE                :
LTYP .        RAW                        :
EPD  .M                0                 :
LDAT .        15/11/2004                 :
TRIP .                 4                 :
SON  .            786588                 :
CBDR .M             4277                 :
CBLO .        NR                         :
CBL1 .        NR                         :
STEM .DEGF    N/A                        :
BSAL .            254762                 :
BARI .        OFF                        :
DLAB .        12/11/2004                 :
MRT  .DEGF           292                 :
TSTR .        ZDL/CN/GR/TTRM             :
TSTG .        N/A                        :
STUS .        FINAL                      :
LCNM .        BAKER ATLAS                :
LCC  .               150                 :
NATI .        BRASIL                     :
OPMD .        OH.WIRELINE                :
PANA .        HERNANDEZ / LOCK           :
PCON .        BAKER ATLAS                :
R11  .        GR     5268.3 M / 4277.0 M :
R12  .        CN     5286.5 M / 5128.0 M (FERRAMENTA PERDEU LEITURA ACIMA DE 5128M) :
R13  .        ZDL    5292.0 M / 4277.0 M :
R15  .        10. PONTO FRACO UTILIZADO  10K :
R17  .        12. COORDENADAS BASE       :
R19  .        X   7292512.00 M           :
R21  .        MC  45 GRAUS               :
R23  .        13. CADASTRO ANP  86316021017 :
PVER .           4.10000                 :
WDFN .        /space/expusr/3-SPS-41D_RUN2/i77bf04_8spf.xtf :
OCT  .        i77bf                      :
OS4  .        EARTH IMAGER               :
R16  .        11. DECLINAÇÃO MAGNETICA  -20.9 GRAUS :
R20  .        Y    583936.00 M           :
#-----------------------------------------------------------------------------
~CURVE INFORMATION
#MNEM.UNIT   API CODE                                  DESCRIPTION
#---- -----  --------                                  -----------------------
DEPT .M                                                :DEPTH (BOREHOLE) {F10.4}
DEPT .M                                                : {F13.4}
BIT  .IN                                               : {F13.4}
DEPM .M                                                : {F13.4}
GR   .GAPI                                             : {F13.4}
SPD  .M/MN                                             : {F13.4}
TTEN .LBF                                              : {F13.4}
CAL  .IN                                               : {F13.4}
CALX .IN                                               : {F13.4}
HRD1 .HZ                                               : {F13.4}
HRD2 .HZ                                               : {F13.4}
PE   .B/E                                              : {F13.4}
SFT2 .HZ                                               : {F13.4}
SOFT .HZ                                               : {F13.4}
SSD  .HZ                                               : {F13.4}
ZCOR .G/C3                                             : {F13.4}
ZDEN .G/C3                                             : {F13.4}
CNC  .PU                                               : {F13.4}
CN   .PU                                               : {F13.4}
LSN  .HZ                                               : {F13.4}
SSN  .HZ                                               : {F13.4}
CNCF .PU                                               : {F13.4}
MMRK .MN                                               : {F13.4}
#-----------------------------------------------------------------------------
# DEPT       
#     DEPT         BIT          DEPM         GR           SPD          TTEN         
#     CAL          CALX         HRD1         HRD2         PE           SFT2         
#     SOFT         SSD          ZCOR         ZDEN         CNC          CN           
#     LSN          SSN          CNCF         MMRK         
~A  
# ...
4612.5384
   4612.5384       8.5000    4611.2122      96.1706       7.6385    6828.0205
      9.3269       9.3269     621.4566     851.8827       5.6175     514.3926
    352.8839    6766.2226      -0.0284       2.5689       0.0000      17.7814
   1364.3633    3256.2582      17.0259       0.0000
4612.3860
   4612.3860       8.5000    4611.0579      96.9348       7.6571    6794.9936
      9.3137       9.3137     633.8518     862.2093       5.6412     508.2257
    356.2637    6763.0956      -0.0329       2.5637       0.0000      17.4435
   1383.8336    3269.4965      16.7055       0.0000
4612.2336
   4612.2336       8.5000    4610.9045      95.5793       7.6544    6785.2704
      9.3030       9.3030     642.9501     847.0308       5.5668     501.6150
    353.3458    6774.4144      -0.0303       2.5653       0.0000      17.6612
   1378.3595    3277.9308      16.9245       0.0000
4612.0812
   4612.0812       8.5000    4610.7501      91.9050       7.6361    6796.4609
      9.2973       9.2973     645.8573     822.7649       5.2937     494.9179
    356.1831    6804.4260      -0.0223       2.5708       0.0000      17.8442
   1367.0350    3268.8009      17.1065       0.0000
4611.9288
   4611.9288       8.5000    4610.5958      88.6693       7.6220    6816.9187
      9.2962       9.2962     638.8558     814.7907       5.0508     488.0807
    367.7039    6816.6447      -0.0179       2.5756       0.0000      17.6084
   1363.8883    3238.4196      16.8775       0.0000
4611.7764
   4611.7764       8.5000    4610.4424      88.3069       7.6251    6821.5596
      9.2887       9.2887     625.1331     812.3430       4.9331     487.0264
    372.5297    6816.1006      -0.0150       2.5805       0.0000      17.4195
   1356.1340    3201.7358      16.6984       0.0000
4611.6240
   4611.6240       8.5000    4610.2881      89.8062       7.6327    6790.1836
      9.2666       9.2666     612.6228     805.0643       5.0144     492.2540
    362.1846    6804.3730      -0.0128       2.5860       0.0000      17.4031
   1343.6196    3170.6045      16.6969       0.0000
4611.4716
   4611.4716       8.5000    4610.1337      90.6251       7.6295    6742.8545
      9.2426       9.2426     609.8481     802.7017       5.3453     498.0826
    344.8748    6790.4705      -0.0137       2.5873       0.0000      17.5245
   1325.3028    3138.8568      16.8311       0.0000
4611.3192
   4611.3192       8.5000    4609.9803      89.7987       7.6189    6711.9795
      9.2342       9.2342     623.1740     813.0214       5.6064     505.8250
    337.0593    6829.4220      -0.0129       2.5817       0.0000      17.7807
   1299.5568    3101.5647      17.0867       0.0000
4611.1668
   4611.1668       8.5000    4609.8260      88.5265       7.6146    6704.9911
      9.2382       9.2382     643.1234     819.5800       5.6591     513.0502
    341.6345    6926.4829      -0.0049       2.5748       0.0000      17.9529
   1279.3157    3068.9010      17.2521       0.0000
4611.0144
   4611.0144       8.5000    4609.6716      88.2240       7.6206    6718.0792
      9.2450       9.2450     649.5228     820.1177       5.7380     508.6905
    339.1282    6965.9452      -0.0009       2.5722       0.0000      17.9110
   1276.1162    3057.4350      17.2066       0.0000
4610.8620
   4610.8620       8.5000    4609.5192      89.3090       7.6229    6751.3589
      9.2503       9.2503     646.7459     820.8582       5.9172     493.8780
    325.7509    6908.5399      -0.0082       2.5718       0.0000      17.8014
   1289.9063    3080.4521      17.0961       0.0000
4610.7096
   4610.7096       8.5000    4609.3649      90.7707       7.6129    6794.7682
      9.2500       9.2500     652.4925     826.7195       6.0468     485.6711
    323.5742    6852.7412      -0.0177       2.5688       0.0000      17.7202
   1314.8752    3132.4981      17.0172       0.0000
4610.5572
   4610.5572       8.5000    4609.2105      90.7990       7.5972    6845.6038
      9.2431       9.2431     662.3793     837.3133       5.8340     492.7182
    340.4077    6853.6923      -0.0213       2.5638       0.0000      17.6090
   1339.4620    3180.4759      16.9132       0.0000
4610.4048
   4610.4048       8.5000    4609.0572      89.1367       7.5896    6902.0447
      9.2359       9.2359     664.4459     847.6373       5.4719     504.8828
    361.1689    6870.4725      -0.0213       2.5602       0.0000      17.5719
   1347.1733    3195.2288      16.8817       0.0000
4610.2524
   4610.2524       8.5000    4608.9028      88.1994       7.6015    6928.0930
      9.2314       9.2314     656.7801     859.5515       5.3898     506.9521
    370.8763    6892.2821      -0.0191       2.5587       0.0000      17.4362
   1347.6068    3183.2009      16.7523       0.0000
4610.1000
   4610.1000       8.5000    4608.7484      90.2361       7.6288    6883.2032
      9.2263       9.2263     642.5728     872.7267       5.7368     494.6622
    360.3289    6885.3931      -0.0199       2.5590       0.0000      17.2193
   1349.5944    3166.9419      16.5440       0.0000
4609.9476
   4609.9476       8.5000    4608.5941      92.8405       7.6418    6793.0839
      9.2191       9.2191     627.2463     877.9965       6.0707     477.8469
    340.9044    6818.3899      -0.0271       2.5619       0.0000      17.3538
   1339.7878    3156.8190      16.6800       0.0000
4609.7952
   4609.7952       8.5000    4608.4407      93.0550       7.6324    6727.5317
      9.2134       9.2134     619.7828     867.5761       6.0252     469.6776
    332.0364    6749.2912      -0.0332       2.5664       0.0000      17.9875
   1313.3537    3153.6814      17.3026       0.0000
4609.6428
   4609.6428       8.5000    4608.2873      92.1841       7.6244    6722.8030
      9.2105       9.2105     620.1782     846.8828       6.0974     470.0679
    331.9665    6754.5967      -0.0288       2.5717       0.0000      18.5077
   1293.7869    3154.1077      17.8129       0.0000
4609.4904
   4609.4904       8.5000    4608.1330      92.2858       7.6236    6760.9149
      9.2099       9.2099     619.3901     823.3064       5.8637     477.1477
    334.1198    6802.8535      -0.0177       2.5780       0.0000      18.6403
   1285.5468    3145.9551      17.9430       0.0000
4609.3380
   4609.3380       8.5000    4607.9786      92.9285       7.6173    6812.3030
      9.2118       9.2118     616.7175     809.1705       5.5442     492.5905
    341.3648    6823.6013      -0.0118       2.5827       0.0000      18.8218
   1268.8089    3121.0273      18.1191       0.0000
4609.1856
   4609.1855       8.5000    4607.8242      93.2742       7.6050    6856.9912
      9.2149       9.2149     619.4363     809.9724       5.3765     504.4329
    349.4534    6822.9648      -0.0125       2.5823       0.0000      18.9292
   1253.5061    3092.7476      18.2218       0.0000
4609.0332
   4609.0332       8.5000    4607.6699      94.0747       7.5876    6898.3799
      9.2151       9.2151     629.6785     818.4540       5.4167     492.7703
    351.0784    6830.3770      -0.0150       2.5783       0.0000      18.4779
   1266.1221    3084.0039      17.7806       0.0000
4608.8808
   4608.8809       8.5000    4607.5166      94.5955       7.5749    6939.0518
      9.2100       9.2100     628.3855     829.7848       5.6953     469.4593
    344.1290    6844.4512      -0.0150       2.5759       0.0000      17.7859
   1300.5825    3104.4785      17.1080       0.0000
4608.7284
   4608.7284       8.5000    4607.3622      93.3025       7.5887    6942.3973
      9.2051       9.2051     613.2879     845.9555       6.1128     462.4682
    333.7025    6854.1811      -0.0139       2.5756       0.0000      17.3170
   1336.6242    3145.8422      16.6533       0.0000
4608.5760
   4608.5760       8.5000    4607.2088      90.0390       7.6217    6877.3982
      9.2070       9.2070     613.9033     860.2408       6.3201     472.0397
    329.6681    6867.8365      -0.0148       2.5733       0.0000      17.1575
   1360.9498    3187.5435      16.4963       0.0000
4608.4236
   4608.4236       8.5000    4607.0545      86.6362       7.6384    6793.4574
      9.2132       9.2132     635.8708     856.1978       6.0301     488.0452
    340.8742    6890.5629      -0.0150       2.5704       0.0000      17.2621
   1363.3114    3203.3103      16.5944       0.0000
