~VERSION INFORMATION
VERS.           2.0   :CWLS Log ASCII Standard - VERSION 2.0
WRAP.           NO    :One Line per depth step
PROD.  Schlumberger   :LAS Producer
PROG.  DLIS to ASCII 2.3                               :LAS Program name and version
CREA.        2023/07/14 00:15                          :LAS Creation date {YYYY/MM/DD hh:mm}
DLIS_CREA.  2023-Jul-14 00:11                          :DLIS Creation date and time {YYYY-MMM-DD hh:mm}
SOURCE.     LIS_010.dlis                               :DLIS File Name
FILE-ID.     LIS   .003                                :File Identification Number
#--------------------------------------------------
~WELL INFORMATION
#MNEM.UNIT      DATA             DESCRIPTION
#---- ------ --------------   -----------------------------
STRT .M      5284.9272       :START DEPTH     
STOP .M      4939.1316       :STOP DEPTH     
STEP .M        -0.1524       :STEP     
NULL .          -999.25      :NULL VALUE
COMP .        PETROBRAS S.A.                           :COMPANY
WELL .        3-BRSA-293D-SPS                          :WELL
FLD  .        BS-400                                   :FIELD
LOC  .        BASE SAD 69:                             :LOCATION
CNTY .        SANTOS                                   :COUNTY
STAT .        BRASIL                                   :STATE
CTRY .        BRASIL                                   :COUNTRY
API  .                                                 :API NUMBER
UWI  .                                                 :UNIQUE WELL ID
DATE .        15/11/2004                               :LOG DATE
SRVC .        Schlumberger                             :SERVICE COMPANY
LATI .DEG                                              :LATITUDE
LONG .DEG                                              :LONGITUDE
GDAT .                                                 :GeoDetic Datum
#-----------------------------------------------------------------------------
~PARAMETER INFORMATION
#MNEM.UNIT    VALUE                      DESCRIPTION
#---- -----   --------------------       ------------------------
APD  .M               24                 :
BHT  .DEGF           260                 :
BLI  .M             5289                 :
BS   .IN         8.50000                 :
CN   .        PETROBRAS S.A.             :
COUN .        SANTOS                     :
CS   .IN         9.62500                 :
DATE .        15/11/2004                 :
DFD  .LB/G      12.30000                 :
DFL  .C3               2                 :
DFPH .        N/A                        :
DFT  .        SINTETICO                  :
DFV  .S               95                 :
DMF  .        MESA ROTATIVA              :
EDF  .M               24                 :
EGL  .M             -500                 :
EKB  .        N/A                        :
ENGI .        HERNANDEZ / LOCK           :
FL1  .        X   7292392.00 M LAT 24 28 47.189 S :
FL2  .        Y    584087.00 M LON 44 10 12.698 W :
FL3  .        MC  45 GRAUS               :
FN   .        BS-400                     :
LMF  .        MESA ROTATIVA              :
LUL  .        MACAE                      :
MCSS .        PRENSA                     :
MCST .DEGF            80                 :
MFSS .        PRENSA                     :
MFST .DEGF            80                 :
MSS  .        LINHA DE FLUXO             :
MST  .DEGF            80                 :
PDAT .        NIVEL DO MAR               :
R1   .        01. APRESENTAÇÃO DE ACORDO COM REQUERIMENTO DO CLIENTE :
R2   .        02. TEMPERATURA MÁXIMA DO POÇO T1=T2= 290 DEGF @  5275 M :
R3   .        03. INICIO DA CIRCULAÇÃO  12/11/2004 09 00 H :
R4   .        04. FINAL DA CIRCULAÇÃO   12/11/2004 18 00 H :
R5   .        05. TEMPO TOTAL DE CIRCULAÇÃO   09 00 H :
R6   .        06. FLUIDO DE PERFURAÇÃO  SINTETICO (BR-MUL  BR-MI)  60% TEOR DO OLEO :
R7   .        07. SALINIDADE DA LAMA  254762 PPM NACL NA FASE DE AGUA :
R8   .        08. INCLINAÇÃO MÁXIMA DO POÇO  37.37 GRAUS @ 5100 M :
R9   .        09. PRIMEIRAS E ULTIMAS LEITURAS  :
RMB  .OHMM    > 10                       :
RMCS .OHMM    > 10                       :
RMFS .OHMM    > 10                       :
RMS  .OHMM    >10                        :
RUN  .                 2                 :
STAT .        BRASIL                     :
TCS  .        18 00 H                    :
TDD  .M             5288                 :
TDL  .M             5293                 :
TLAB .        N/A                        :
TLI  .M             5000                 :
WITN .        ERNANI / ZE MARIA          :
WN   .        3-BRSA-293D-SPS            :
LUN  .              8808                 :
HIDE .        3-SPS-41D                  :
HID2 .        HIGH DEFINITION INDUCTION LOG :
HID3 .        X-MULTIPOLE ARRAY ACOUSTILOG :
HID4 .        GAMMA RAY LOG              :
HID5 .        TTRM SUB                   :
CLAB .        BACIA                      :
SLAB .        PAIS                       :
CMT1 .        ESC  1 200                 :
CMT2 .        PROF. MEDIDA               :
CMT4 .        SONDA  SS-43               :
HDAT .        SAD 69                     :
FL   .        BASE SAD 69                :
OS1  .        RCI/GR                     :
OS2  .        CHECK SHOT                 :
OS3  .        GR/CN/ZDL                  :
OS5  .        RCOR/GR                    :
LNAM .        ZDL/CN/XMAC/HDIL/EARTH IMAGER/RCI/RCOR/CHECK SHOT/GR :
TOOL .        ZDL/CN/XMAC/HDIL/EARTH IMAGER/RCI/RCOR/CHECK SHOT/GR :
LSOU .        PETROBRAS                  :
LSRV .        OH WIRELINE                :
LTYP .        RAW                        :
EPD  .M                0                 :
LDAT .        15/11/2004                 :
TRIP .                 3                 :
SON  .            786588                 :
CBDR .M             4277                 :
CBLO .        NR                         :
CBL1 .        NR                         :
STEM .DEGF    N/A                        :
BSAL .            254762                 :
BARI .        OFF                        :
DLAB .        12/11/2004                 :
MRT  .DEGF           290                 :
TSTR .        HDIL/XMAC/GR/TTRM          :
TSTG .        N/A                        :
STUS .        FINAL                      :
LCNM .        BAKER ATLAS                :
LCC  .               150                 :
NATI .        BRASIL                     :
OPMD .        OH.WIRELINE                :
PANA .        HERNANDEZ / LOCK           :
PCON .        BAKER ATLAS                :
R11  .        SL     5268.3 M / 5000.0 M :
R12  .        GR     5268.3 M / 5000.0 M :
R13  .        XMAC   5279.5 M / 5000.0 M :
R14  .        HDIL   5289.0 M / 5000.0 M :
R17  .        11. DECLINAÇÃO MAGNETICA  -20.9 GRAUS :
R18  .        12. COORDENADAS BASE       :
R21  .        Y    583936.00 M           :
R22  .        MC  45 GRAUS               :
PVER .           4.10000                 :
WDFN .        /space/expusr/3-SPS-41D_RUN2/i77bf02_2spf.xtf :
OCT  .        i77bf                      :
OS4  .        EARTH IMAGER               :
R16  .        10. PONTO FRACO UTILIZADO  10K :
R20  .        X   7292512.00 M           :
R24  .        13. CADASTRO ANP  86316021017 :
#-----------------------------------------------------------------------------
~CURVE INFORMATION
#MNEM.UNIT   API CODE                                  DESCRIPTION
#---- -----  --------                                  -----------------------
DEPT .M                                                :DEPTH (BOREHOLE) {F10.4}
DEPT .M                                                : {F13.4}
DT   .US/F                                             : {F13.4}
SFN1 .US                                               : {F13.4}
SFN2 .US                                               : {F13.4}
SFN3 .US                                               : {F13.4}
SFN4 .US                                               : {F13.4}
TT   .MS                                               : {F13.4}
#-----------------------------------------------------------------------------
# 
#     DEPT        DEPT         DT           SFN1         SFN2         SFN3         SFN4         TT
#
~A  
# ...
 4995.9768    4995.9768      66.8118     688.5002     720.0000     757.5604     791.4883      63.5962
 4995.8244    4995.8244      67.1568     688.0006     720.0000     758.7488     791.2503      63.6298
 4995.6720    4995.6720      67.2380     690.8726     720.0000     759.1247     789.6263      63.6634
 4995.5196    4995.5196      66.9993     690.1253     721.2494     758.1255     791.4992      63.6970
 4995.3672    4995.3672      66.6911     691.7500     722.3750     760.0000     791.1250      63.7303
 4995.2148    4995.2148      66.5927     690.0000     719.5000     756.0000     790.8750      63.7636
 4995.0624    4995.0624      66.8034     688.0000     720.0000     758.7503     791.2505      63.7970
 4994.9100    4994.9100      67.1692     688.0041     720.0000     759.2508     792.0000      63.8306
 4994.7576    4994.7576      67.4255     692.0021     720.0059     760.0000     792.0000      63.8644
 4994.6052    4994.6052      67.5033     693.5002     724.2487     760.0011     792.0000      63.8981
 4994.4528    4994.4528      67.5680     693.6245     723.5032     760.6223     792.0000      63.9317
 4994.3004    4994.3004      67.8341     693.5005     724.6206     760.0024     792.7471      63.9656
 4994.1480    4994.1480      68.3627     694.3719     722.2584     760.0000     793.1237      63.9998
 4993.9956    4993.9956      68.9133     689.8893     725.7389     763.9873     796.9877      64.0343
 4993.8432    4993.8432      69.1223     695.9828     726.6225     764.1246     796.6261      64.0689
 4993.6908    4993.6908      68.8640     696.0000     727.9967     763.2521     797.1238      64.1033
 4993.5384    4993.5384      68.3850     696.0000     728.0000     762.5015     796.1271      64.1375
 4993.3860    4993.3860      68.0487     696.9983     728.2496     766.2437     929.3991      64.1716
 4993.2336    4993.2336      68.0562     697.0000     728.6245     766.7493     800.1715      64.2056
 4993.0812    4993.0812      68.3345     697.0000     728.5001     766.6251     800.0000      64.2398
 4992.9288    4992.9288      68.5834     702.4968     729.4994     767.9992     800.0000      64.2741
 4992.7764    4992.7764      68.5769     698.1250     730.8750     768.0000     800.0000      64.3084
 4992.6240    4992.6240      68.3171     699.7500     732.2500     768.0000     800.0000      64.3425
 4992.4716    4992.4716      67.9539     703.9989     732.3764     768.7496     800.0008      64.3765
 4992.3192    4992.3192      67.6800     701.8756     734.8524     768.0011     801.6242      64.4104
 4992.1668    4992.1668      67.6024     702.5017     569.7441     769.2524     800.7552      64.4442
 4992.0144    4992.0144      67.6660     703.8709     663.5457     771.1220     804.8722      64.4781
 4991.8620    4991.8620      67.7225     701.3860     384.8536     769.2582     803.1327      64.5117
 4991.7096    4991.7096      67.6881     703.1179     444.0050     771.7399     803.7475      64.5456
 4991.5572    4991.5572      67.5674     701.2569     521.5900     770.6291     804.6218      64.5794
 4991.4048    4991.4048      67.4236     702.4959     663.5306     768.0087     804.1267      64.6131
 4991.2524    4991.2524      67.3539     699.3842     733.4208     770.2434     801.8816      64.6468
 4991.1000    4991.1000      67.4151     699.9984     732.8769     769.2526     803.2465      64.6805
 4990.9476    4990.9476      67.5901     698.2538     730.6299     768.5016     803.0005      64.7143
 4990.7952    4990.7952      67.7420     702.7418     729.6268     768.2505     802.0018      64.7482
 4990.6428    4990.6428      67.6862     702.1259     735.2418     768.0004     802.6241      64.7820
 4990.4904    4990.4904      67.3707     703.1239     733.7516     770.6221     801.0018      64.8157
 4990.3380    4990.3380      66.9835     698.6282     732.7507     770.9997     804.9971      64.8492
 4990.1856    4990.1855      66.8585     696.8750     729.2500     768.0000     800.0000      64.8827
 4990.0332    4990.0332      67.1855     697.5000     731.2500     768.2500     800.1250      64.9163
 4989.8808    4989.8809      67.8511     697.7500     730.5000     768.5000     802.7500      64.9502
 4989.7284    4989.7284      68.5674     701.6253     730.8755     768.1249     802.1243      64.9845
 4989.5760    4989.5760      69.1174     702.0011     731.5035     768.0027     801.2541      65.0191
 4989.4236    4989.4236      69.4387     703.0002     734.6229     770.3793     804.8744      65.0538
 4989.2712    4989.2712      69.6067     703.1266     733.2535     773.2500     804.5049      65.0887
 4989.1188    4989.1188      69.7406     703.9964     735.1172     773.2500     807.1141      65.1233
 4988.9664    4988.9664      69.8975     704.0000     735.9967     773.8726     807.9967      65.1583
 4988.8140    4988.8140      70.0900     704.0000     736.0000     774.6224     807.5017      65.1933
 4988.6616    4988.6616      70.2935     705.9939     736.1246     775.9958     807.9985      65.2285
 4988.5092    4988.5092      70.4084     705.0027     738.3689     775.3767     807.8753      65.2637
 4988.3568    4988.3568      70.3000     708.8660     739.8715     777.1209     809.2468      65.2989
 4988.2044    4988.2044      69.9628     708.3760     740.2493     776.2517     810.2480      65.3339
 4988.0520    4988.0520      69.5510     711.1206     743.4948     777.7476     810.7492      65.3687
 4987.8996    4987.8996      69.2588     711.9989     743.9994     782.3694     814.9948      65.4033
 4987.7472    4987.7472      69.2230     712.0000     744.8743     783.6239     815.9991      65.4379
 4987.5948    4987.5948      69.3930     718.8717     745.2498     783.9998     816.0000      65.4726
 4987.4424    4987.4424      69.5715     719.0000     750.2500     784.0000     817.8750      65.5074
 4987.2900    4987.2900      69.6142     720.0000     752.0000     788.7500     816.5000      65.5423
 4987.1376    4987.1376      69.5044     721.7489     752.6248     790.7507     823.9995      65.5770
 4986.9852    4986.9852      69.3110     720.0000     752.2500     791.8751     823.2507      65.6117
 4986.8328    4986.8328      69.1397     720.0002     752.2510     792.0000     824.0000      65.6463
 4986.6804    4986.6804      69.0572     720.1252     752.9983     791.9983     824.0002      65.6808
 4986.5280    4986.5280      69.0392     720.2495     752.0043     791.0043     824.1245      65.7151
 4986.3756    4986.3756      69.0363     720.2500     752.0000     791.3735     823.2534      65.7497
 4986.2232    4986.2232      68.9157     720.0009     752.0000     790.8768     824.6201      65.7841
 4986.0708    4986.0708      68.5960     720.0000     752.3738     790.8750     824.0020      65.8184
 4985.9184    4985.9184      68.3576     719.0028     751.3778     791.9968     824.0000      65.8526
 4985.7660    4985.7660      68.5596     717.7531     749.6293     788.0098     823.8753      65.8869
 4985.6136    4985.6136      69.1723     712.6357     747.3797     785.1310     823.1266      65.9215
 4985.4612    4985.4612      69.5684     712.0011     746.2519     784.0019     817.6345      65.9563
 4985.3088    4985.3088      68.8208     709.7530     742.6299     778.2578     815.6277      65.9907
 4985.1564    4985.1564      66.6115     709.6251     739.1284     776.0022     808.0075      66.0240
 4985.0040    4985.0040      63.7467     704.6281     737.3761     769.1292     800.0049      66.0559
 4984.8516    4984.8516      61.5818     692.6250     729.3750     768.0000     797.7500      66.0867
 4984.6992    4984.6992      61.0410     690.6250     722.7500     762.3750     797.6250      66.1173
 4984.5468    4984.5468      62.0858     688.4997     721.0009     411.6722     796.6233      66.1483
 4984.3944    4984.3944      63.8656     687.8766     722.8738     761.3742     793.2511      66.1803
 4984.2420    4984.2420      65.4470     689.7483     721.5005     760.4991     794.4969      66.2130
 4984.0896    4984.0896      66.3889     688.3754     721.8724     759.7504     791.9998      66.2462
