~VERSION INFORMATION
VERS.           2.0   :CWLS Log ASCII Standard - VERSION 2.0
WRAP.           NO    :One Line per depth step
PROD.  Schlumberger   :LAS Producer
PROG.  DLIS to ASCII 2.3                               :LAS Program name and version
CREA.        2023/07/14 00:15                          :LAS Creation date {YYYY/MM/DD hh:mm}
DLIS_CREA.  2023-Jul-14 00:11                          :DLIS Creation date and time {YYYY-MMM-DD hh:mm}
SOURCE.     LIS_006.dlis                               :DLIS File Name
FILE-ID.     LIS   .002                                :File Identification Number
#--------------------------------------------------
~WELL INFORMATION
#MNEM.UNIT      DATA             DESCRIPTION
#---- ------ --------------   -----------------------------
STRT .M      5238.7500       :START DEPTH     
STOP .M      5087.2644       :STOP DEPTH     
STEP .M        -0.1524       :STEP     
NULL .          -999.25      :NULL VALUE
COMP .        Petrobras S.A.                           :COMPANY
WELL .        3-SPS-41D                                :WELL
FLD  .        MEXILHOES                                :FIELD
LOC  .                                                 :LOCATION
CNTY .                                                 :COUNTY
STAT .                                                 :STATE
CTRY .                                                 :COUNTRY
API  .                                                 :API NUMBER
UWI  .                                                 :UNIQUE WELL ID
DATE .                                                 :LOG DATE
SRVC .        Schlumberger                             :SERVICE COMPANY
LATI .DEG                                              :LATITUDE
LONG .DEG                                              :LONGITUDE
GDAT .                                                 :GeoDetic Datum
#-----------------------------------------------------------------------------
~PARAMETER INFORMATION
#MNEM.UNIT    VALUE                      DESCRIPTION
#---- -----   --------------------       ------------------------
CN   .        Petrobras S.A.             :
FN   .        MEXILHOES                  :
WN   .        3-SPS-41D                  :
LCC  .               150                 :
WDFN .        /space/expusr/3-SPS-41D/i77bf06_8spf.xtf :
OCT  .        i77bf                      :
RUN  .                                   :RUN NUMBER
PDAT .                                   :Permanent Datum
EPD  .                                   :Elevation of Permanent Datum above Mean Sea Level
LMF  .                                   :Logging Measured From (Name of Logging Elevation Reference)
APD  .                                   :Elevation of Depth Reference (LMF) above Permanent Datum
#-----------------------------------------------------------------------------
~CURVE INFORMATION
#MNEM.UNIT   API CODE                                  DESCRIPTION
#---- -----  --------                                  -----------------------
DEPT .M                                                :DEPTH (BOREHOLE) {F10.4}
DEPT .M                                                : {F13.4}
BIT  .IN                                               : {F13.4}
DEPM .M                                                : {F13.4}
SPD  .M/MN                                             : {F13.4}
CNC  .PU                                               : {F13.4}
CN   .PU                                               : {F13.4}
LSN  .HZ                                               : {F13.4}
SSN  .HZ                                               : {F13.4}
#-----------------------------------------------------------------------------
# 
#     DEPT        DEPT         BIT          DEPM         SPD          CNC          CN           LSN          SSN
#
~A  
# ...
 5132.0700    5132.0700       8.5000    5131.6755       5.3133      18.5019      18.7839    1195.7601    2953.0330
 5131.9176    5131.9176       8.5000    5131.5231       5.3526      18.4862      18.8233    1236.8548    3042.6457
 5131.7652    5131.7652       8.5000    5131.3707       5.3986      18.9202      19.3299    1230.0001    3033.5074
 5131.6128    5131.6128       8.5000    5131.2183       5.3328      18.5606      18.4666    1215.8947    2967.9406
 5131.4604    5131.4604       8.5000    5131.0659       5.2907      17.3260      17.6370    1252.7393    2974.9526
 5131.3080    5131.3080       8.5000    5130.9135       5.3129      18.1981      18.7792    1258.8344    3089.1559
 5131.1556    5131.1556       8.5000    5130.7611       5.3119      19.0551      19.6249    1280.7586    3203.7578
 5131.0032    5131.0032       8.5000    5130.6087       5.2830      19.9523      20.1775    1253.7019    3165.1102
 5130.8508    5130.8508       8.5000    5130.4563       5.3224      19.5685      19.9787    1204.9300    2994.7395
 5130.6984    5130.6984       8.5000    5130.3039       5.3629      20.1910      20.5093    1133.6877    2894.4074
 5130.5460    5130.5460       8.5000    5130.1515       5.4102      19.9995      20.3152    1138.8411    2914.1467
 5130.3936    5130.3936       8.5000    5129.9981       5.3903      20.4183      20.6720    1138.5632    2939.6314
 5130.2412    5130.2412       8.5000    5129.8467       5.3521      18.7807      18.2554    1193.4569    2945.7968
 5130.0888    5130.0888       8.5000    5129.6943       5.3435      15.5206      14.9061    1331.8394    2990.9865
 5129.9364    5129.9364       8.5000    5129.5419       5.3350      12.0648      11.7722    1564.7027    3132.2415
 5129.7840    5129.7840       8.5000    5129.3895       5.3234      11.6902      12.3487    1735.9765    3467.4520
 5129.6316    5129.6316       8.5000    5129.2371       5.2926      12.5005      12.4696    1884.7046    3863.6804
 5129.4792    5129.4792       8.5000    5129.0847       5.2325      12.0456      12.7088    2039.5806    4025.8528
 5129.3268    5129.3268       8.5000    5128.9323       5.2006      14.7621      15.9053    1840.8287    3995.6975
 5129.1744    5129.1744       8.5000    5128.7799       5.1360      17.7473      18.3307    1662.8551    3980.6348
 5129.0220    5129.0220       8.5000    5128.6275       5.0688      17.4059      17.2653    1657.3597    3883.2273
 5128.8696    5128.8696       8.5000    5128.4751       5.0365      16.0961      16.1859    1620.0380    3615.1239
 5128.7172    5128.7172       8.5000    5128.3227       5.0068      15.1393      15.0917    1539.3612    3317.7737
 5128.5648    5128.5648       8.5000    5128.1703       4.9258      15.0946      16.0215    1407.4459    3029.4993
 5128.4124    5128.4124       8.5000    5128.0179       4.7920      18.3660      19.3600    1167.2680    2801.8496
 5128.2600    5128.2600       8.5000    5127.8655       4.6686      20.4909      21.0843    1061.2814    2736.3397
 5128.1076    5128.1076       8.5000    5127.7131       4.5017      21.2989      21.7720    1037.0732    2737.5479
 5127.9552    5127.9552       8.5000    5127.5597       4.2162      22.0577      22.6263    1023.6700    2753.3235
 5127.8028    5127.8028       8.5000    5127.4076       4.1631      22.4998      22.5359    1016.4534    2759.7481
 5127.6504    5127.6504       8.5000    5127.2568       4.1270      21.1259      20.8853    1048.9787    2750.9603
 5127.4980    5127.4980       8.5000    5127.1044       4.0318      18.3138      17.9828    1130.2791    2762.5469
 5127.3456    5127.3456       8.5000    5126.9511       3.9743      16.5317      16.3979    1236.7858    2906.9014
 5127.1932    5127.1932       8.5000    5126.7987       3.8751      14.7907      14.7191    1440.7263    3233.6587
 5127.0408    5127.0408       8.5000    5126.6463       3.7343      13.4366      13.4382    1691.7654    3593.3355
 5126.8884    5126.8884       8.5000    5126.4939       4.5698      13.6611      14.4270    1806.3967    3820.0316
 5126.7360    5126.7360       8.5000    5126.3415       5.3313      15.5428      16.0539    1713.6285    3794.9276
 5126.5836    5126.5836       8.5000    5126.1891       5.2996      15.6284      15.6593    1597.4770    3484.1631
 5126.4312    5126.4312       8.5000    5126.0367       5.2358      15.4449      16.0909    1439.6038    3141.4285
 5126.2788    5126.2788       8.5000    5125.8843       5.1900      16.4730      16.5777    1328.2510    3061.6665
 5126.1264    5126.1264       8.5000    5125.7319       5.1728      15.5709      15.8127    1383.9604    3107.2002
 5125.9740    5125.9740       8.5000    5125.5795       5.1748      15.8758      16.3132    1383.3575    3133.8664
 5125.8216    5125.8216       8.5000    5125.4271       5.1798      16.4083      16.7317    1380.0884    3193.8891
 5125.6692    5125.6692       8.5000    5125.2747       5.2107      15.7840      15.8187    1444.1267    3271.3358
 5125.5168    5125.5168       8.5000    5125.1223       5.2170      15.3746      15.8127    1484.5058    3305.9469
 5125.3644    5125.3644       8.5000    5124.9699       5.1699      15.9378      16.2102    1464.4761    3321.8074
 5125.2120    5125.2120       8.5000    5124.8175       5.1663      15.6309      15.9309    1484.3386    3328.0618
 5125.0596    5125.0596       8.5000    5124.6660       5.1614      16.2193      16.7670    1451.0535    3307.9863
 5124.9072    5124.9072       8.5000    5124.5127       5.1824      17.2126      17.7159    1386.1442    3256.8659
 5124.7548    5124.7548       8.5000    5124.3603       5.1716      17.8521      18.2533    1350.6289    3251.0529
 5124.6024    5124.6024       8.5000    5124.2079       5.0432      17.4932      17.2769    1385.8735    3316.4153
 5124.4500    5124.4500       8.5000    5124.0555       5.1173      15.4427      15.5628    1511.6480    3377.2113
 5124.2976    5124.2976       8.5000    5123.9031       5.1952      15.3935      15.7253    1519.5916    3381.7198
 5124.1452    5124.1452       8.5000    5123.7507       5.1453      15.8086      16.3154    1503.7924    3398.7646
 5123.9928    5123.9928       8.5000    5123.5983       5.1409      16.5509      16.9656    1479.4473    3420.2224
 5123.8404    5123.8404       8.5000    5123.4459       5.1538      16.6466      16.8582    1469.0101    3391.3373
 5123.6880    5123.6880       8.5000    5123.2935       5.1760      16.7623      17.1544    1441.7094    3341.8064
 5123.5356    5123.5356       8.5000    5123.1411       5.1721      16.1667      16.1580    1456.7355    3326.7934
 5123.3832    5123.3832       8.5000    5122.9887       5.1615      16.0534      16.5689    1478.3563    3377.6231
 5123.2308    5123.2308       8.5000    5122.8363       5.2039      16.3114      16.5214    1490.0646    3423.2983
 5123.0784    5123.0784       8.5000    5122.6839       5.1954      16.1221      16.3962    1501.2543    3415.7010
 5122.9260    5122.9260       8.5000    5122.5315       5.1424      15.8445      16.0078    1504.0366    3393.3159
 5122.7736    5122.7736       8.5000    5122.3791       5.1500      16.0645      16.7635    1491.9752    3397.7541
 5122.6212    5122.6212       8.5000    5122.2267       5.1564      17.0665      17.3148    1452.1291    3410.9746
 5122.4688    5122.4688       8.5000    5122.0736       5.1984      16.9067      17.0685    1460.1769    3408.8811
 5122.3164    5122.3164       8.5000    5121.9219       5.2110      15.7352      15.7739    1508.7656    3390.9176
 5122.1640    5122.1640       8.5000    5121.7695       5.1715      15.9187      16.5927    1494.9185    3385.1284
 5122.0116    5122.0116       8.5000    5121.6171       5.1884      16.4647      16.4886    1472.6198    3397.8720
 5121.8592    5121.8592       8.5000    5121.4647       5.1473      16.0083      16.5212    1505.9400    3425.1763
 5121.7068    5121.7068       8.5000    5121.3123       5.1158      16.7573      17.1140    1471.3032    3412.7590
 5121.5544    5121.5544       8.5000    5121.1599       5.1629      16.7943      17.0002    1451.6667    3369.0972
