~VERSION INFORMATION
VERS.           2.0   :CWLS Log ASCII Standard - VERSION 2.0
WRAP.           NO    :One Line per depth step
PROD.  Schlumberger   :LAS Producer
PROG.  DLIS to ASCII 2.3                               :LAS Program name and version
CREA.        2023/07/14 00:15                          :LAS Creation date {YYYY/MM/DD hh:mm}
DLIS_CREA.  2023-Jul-14 00:11                          :DLIS Creation date and time {YYYY-MMM-DD hh:mm}
SOURCE.     LIS_003.dlis                               :DLIS File Name
FILE-ID.     LIS   .003                                :File Identification Number
#--------------------------------------------------
~WELL INFORMATION
#MNEM.UNIT      DATA             DESCRIPTION
#---- ------ --------------   -----------------------------
STRT .M      5239.8168       :START DEPTH     
STOP .M      3827.6784       :STOP DEPTH     
STEP .M        -0.1524       :STEP     
NULL .          -999.25      :NULL VALUE
COMP .        PETROBRAS S.A.                           :COMPANY
WELL .        3-BRSA-293D-SPS                          :WELL
FLD  .        BS-400                                   :FIELD
LOC  .        BASE SAD 69:                             :LOCATION
CNTY .        SANTOS                                   :COUNTY
STAT .        BRASIL                                   :STATE
CTRY .        BRASIL                                   :COUNTRY
API  .                                                 :API NUMBER
UWI  .                                                 :UNIQUE WELL ID
DATE .        22/10/2004                               :LOG DATE
SRVC .        Schlumberger                             :SERVICE COMPANY
LATI .DEG                                              :LATITUDE
LONG .DEG                                              :LONGITUDE
GDAT .                                                 :GeoDetic Datum
#-----------------------------------------------------------------------------
~PARAMETER INFORMATION
#MNEM.UNIT    VALUE                      DESCRIPTION
#---- -----   --------------------       ------------------------
APD  .M               24                 :
BHT  .DEGF           260                 :
BLI  .M       5227.50000                 :
BS   .IN         8.50000                 :
CN   .        PETROBRAS S.A.             :
COUN .        SANTOS                     :
CS   .IN         9.62500                 :
DATE .        22/10/2004                 :
DFD  .LB/G      12.30000                 :
DFL  .C3               2                 :
DFPH .        N/A                        :
DFT  .        SINTETICO                  :
DFV  .S               87                 :
DMF  .        MESA ROTATIVA              :
EDF  .M               24                 :
EGL  .M             -500                 :
EKB  .        N/A                        :
ENGI .        HERNANDEZ/LOCK             :
FL1  .        X   7292392.00 M LAT 24 28 47.189 S :
FL2  .        Y    584087.00 M LON 44 10 12.698 W :
FL3  .        MC  45 GRAUS               :
FN   .        BS-400                     :
LMF  .        MESA ROTATIVA              :
LUL  .        MACAE                      :
MCSS .        PRENSA                     :
MCST .DEGF            80                 :
MFSS .        PRENSA                     :
MFST .DEGF            80                 :
MSS  .        LINHA DE FLUXO             :
MST  .DEGF            80                 :
PDAT .        NIVEL DO MAR               :
R1   .        01. APRESENTAÇÃO DE ACORDO COM REQUERIMENTO DO CLIENTE :
R2   .        02. TEMPERATURA MÁXIMA DO POÇO T1=T2= 260 DEGF @  5180 M :
R3   .        03. INICIO DA CIRCULAÇÃO  13 45 H 21/10/2004 :
R4   .        04. FINAL DA CIRCULAÇÃO   16 00 H 21/10/2004 :
R5   .        05. TEMPO TOTAL DE CIRCULAÇÃO  02 15 H :
R6   .        06. FLUIDO DE PERFURAÇÃO  SINTETICO (BR-MUL  BR-MI)  65% TEOR DO OLEO :
R7   .        07. SALINIDADE DA LAMA  266377 PPM NACL NA FASE DE AGUA :
R8   .        08. INCLINAÇÃO MÁXIMA DO POÇO  37.37 GRAUS @ 5100 M :
R9   .        09. PRIMEIRAS E ULTIMAS LEITURAS  :
RMB  .OHMM    > 10                       :
RMCS .OHMM    > 10                       :
RMFS .OHMM    > 10                       :
RMS  .OHMM    > 10                       :
RUN  .                 1                 :
STAT .        BRASIL                     :
TCS  .        16 00 H                    :
TDD  .M             5230                 :
TDL  .M             5231                 :
TLAB .        N/A                        :
TLI  .M             3850                 :
WITN .        ALCIDIO/VLADIMIR           :
WN   .        3-BRSA-293D-SPS            :
LUN  .              8808                 :
HIDE .        3-SPS-41D                  :
HID2 .        HIGH DEFINITION INDUCTION LOG :
HID3 .        X-MULTIPOLE ARRAY ACOUSTILOG :
HID4 .        GAMMA RAY LOG              :
HID5 .        TTRM SUB                   :
CLAB .        BACIA                      :
SLAB .        PAIS                       :
CMT1 .        ESC  1 1000                :
CMT2 .        PROF. MEDIDA               :
CMT4 .        SONDA  SS-43               :
HDAT .        SAD 69                     :
FL   .        BASE SAD 69                :
OS1  .        GR/CN/ZDL                  :
OS2  .        MREX/GR                    :
OS3  .        RCI/GR                     :
0S4  .        3DEX/GR                    :
OS5  .        SL/GR                      :
LNAM .        MREX/ZDL/CN/XMAC/HDIL/RCI/3DEX/SL/GR :
TOOL .        MREX/ZDL/CN/XMAC/HDIL/RCI/3DEX/SL/GR :
LSOU .        PETROBRAS                  :
LSRV .        OH WIRELINE                :
LTYP .        RAW                        :
EPD  .M                0                 :
LDAT .        22/10/2004                 :
TRIP .                 1                 :
SON  .            772317                 :
CBDR .M             4277                 :
CBLO .M             4277                 :
CBL1 .M             4277                 :
STEM .DEGF    N/A                        :
BSAL .            266377                 :
BARI .        OFF                        :
DLAB .        21/10/2004                 :
MRT  .DEGF           260                 :
TSTR .        HDIL/XMAC/GR/TTRM          :
TSTG .        N/A                        :
STUS .        FINAL                      :
LCNM .        BAKER ATLAS                :
LCC  .               150                 :
NATI .        BRASIL                     :
OPMD .        OH.WIRELINE                :
PANA .        HERNANDEZ/LOCK             :
PCON .        BAKER ATLAS                :
R11  .        SL     5196.0 M/4960.0 M   :
R12  .        GR     4960.0 M/4277.0 M   :
R13  .        XMAC   5202.0 M/3850.0 M   :
R14  .        HDIL   5227.5 M/4277.0 M   :
R15  .        3DEX   5217.0 M/4960.0 M   :
R17  .        10. PONTO FRACO UTILIZADO  10K :
R18  .        11. DECLINAÇÃO MAGNETICA  -20.9 GRAUS :
R19  .        12. COORDENADAS ARATU      :
R21  .        X   7292512.00 M           :
R22  .        Y    583936.00 M           :
R23  .        MC  45 GRAUS               :
R25  .        13. CADASTRO ANP  86316021017 :
PVER .           4.10000                 :
WDFN .        /space/expusr/3-SPS-41D/i77bf03_2spf.xtf :
OCT  .        i77bf                      :
#-----------------------------------------------------------------------------
~CURVE INFORMATION
#MNEM.UNIT   API CODE                                  DESCRIPTION
#---- -----  --------                                  -----------------------
DEPT .M                                                :DEPTH (BOREHOLE) {F10.4}
DEPT .M                                                : {F13.4}
DT   .US/F                                             : {F13.4}
SFN1 .US                                               : {F13.4}
SFN2 .US                                               : {F13.4}
SFN3 .US                                               : {F13.4}
SFN4 .US                                               : {F13.4}
TT   .MS                                               : {F13.4}
#-----------------------------------------------------------------------------
# 
#     DEPT        DEPT         DT           SFN1         SFN2         SFN3         SFN4         TT
#
~A  
# ...
 4035.8568    4035.8568      58.7772     688.8265     720.0012     752.3695     349.9652     264.6332
 4035.7044    4035.7044      59.8760     775.8942     721.3744     318.8756     879.8804     264.6631
 4035.5520    4035.5520      60.1444     691.1284     720.1764     320.0716     783.3014     264.6932
 4035.3996    4035.3996      59.7936     693.2474     287.5279     751.4737     350.6529     264.7230
 4035.2472    4035.2472      59.4856     692.6255     509.8102     752.0000     843.8294     264.7528
 4035.0948    4035.0948      59.5810     691.3756     722.3976     847.9537     349.8634     264.7826
 4034.9424    4034.9424      59.8822     694.3750     724.3750     758.6250     888.0000     264.8126
 4034.7900    4034.7900      60.0220     501.3750     721.6250     753.5000     851.6250     264.8425
 4034.6376    4034.6376      59.9831     691.0003     720.8763     753.3741     851.8752     264.8726
 4034.4852    4034.4852      60.0877     691.4960     722.9970     752.0000     852.1607     264.9026
 4034.3328    4034.3328      60.6354     687.5082     719.4111     752.0099     888.0000     264.9329
 4034.1804    4034.1804      61.4312     693.4912     287.5104     759.2394     888.0000     264.9636
 4034.0280    4034.0280      61.7003     689.1298     728.5125     318.9860     800.0970     264.9944
 4033.8756    4033.8756      60.8354     691.7481     720.2564     751.6821     349.9553     265.0249
 4033.7232    4033.7231      59.1002     693.2500     721.0000     501.8750     784.0000     265.0544
 4033.5708    4033.5708      57.3286     695.2500     720.6250     503.5000     784.0000     265.0831
 4033.4184    4033.4185      56.2197     690.8750     720.0000     316.6250     776.0000     265.1112
 4033.2660    4033.2660      55.8467     691.2515     720.0010     750.2512     351.7489     265.1391
 4033.1136    4033.1136      55.7432     693.2510     721.3729     751.8736     350.2513     265.1670
 4032.9612    4032.9612      55.5913     694.1224     719.5002     750.6211     351.6086     265.1948
 4032.8088    4032.8088      55.5764     692.3774     719.6248     748.0035     509.2866     265.2226
 4032.6564    4032.6564      55.9763     694.4979     719.8748     664.0827     776.9864     265.2505
 4032.5040    4032.5040      56.7852     693.6255     720.3747     749.9471     780.8728     265.2789
 4032.3516    4032.3516      57.6730     689.7500     716.3750     746.0000     350.5000     265.3078
 4032.1992    4032.1992      58.1991     689.1250     718.7500     749.0000     772.8750     265.3369
 4032.0468    4032.0468      58.2760     687.5000     718.8741     750.2498     352.4568     265.3660
 4031.8944    4031.8944      58.2737     687.5051     717.0000     749.8209     772.2505     265.3952
 4031.7420    4031.7420      58.7141     693.5435     717.0000     832.0000     772.8001     265.4246
 4031.5896    4031.5896      59.8788     830.2500     717.2344     831.9872     712.1174     265.4545
 4031.4372    4031.4372      61.5045     830.2500     863.8189     824.0099     785.5343     265.4852
 4031.2848    4031.2848      62.8124     831.3740     864.0000     824.0000     350.8771     265.5166
 4031.1324    4031.1324      63.1646     829.3760     864.0000     824.0000     350.5000     265.5482
 4030.9800    4030.9800      62.8555     830.8750     864.0000     824.0000     835.1250     265.5797
 4030.8276    4030.8276      62.6941     830.5000     864.6250     824.0000     845.3750     265.6110
 4030.6752    4030.6752      63.2380     831.1255     864.0000     824.0000     845.3750     265.6427
 4030.5228    4030.5228      64.2588     832.0000     864.0000     824.0000     845.3750     265.6748
 4030.3704    4030.3704      64.7879     832.0002     864.0000     824.0000     845.3750     265.7072
 4030.2180    4030.2180      64.1462     832.1250     864.0000     824.0000     845.3750     265.7393
 4030.0656    4030.0656      62.5966     832.1250     864.0000     824.0000     845.3750     265.7705
 4029.9132    4029.9132      60.9019     832.1250     864.0000     824.0000     845.3750     265.8009
 4029.7608    4029.7607      59.7185     832.1250     864.0000     824.0000     845.3750     265.8308
 4029.6084    4029.6084      59.3649     832.1250     864.0000     824.0000     852.7500     265.8605
 4029.4560    4029.4561      59.7338     832.1250     864.0000     824.0000     783.8750     265.8904
 4029.3036    4029.3036      60.4977     832.1250     864.0000     755.4318     349.9945     265.9207
 4029.1512    4029.1512      61.2736     832.1250     864.0000     319.2255     342.9794     265.9513
 4028.9988    4028.9988      61.5480     832.1250     864.0000     751.3697     779.3759     265.9821
 4028.8464    4028.8464      61.0366     832.1250     864.0000     321.4634     779.9991     266.0125
 4028.6940    4028.6940      60.0347     832.1250     864.0000     839.4809     779.5005     266.0426
 4028.5416    4028.5416      59.0818     832.1250     864.0000     753.8044     782.2483     266.0721
 4028.3892    4028.3892      58.8119     832.1250     864.0000     752.8750     349.7500     266.1016
 4028.2368    4028.2368      60.2239     832.1250     864.0000     319.2500     348.3750     266.1317
 4028.0844    4028.0844      63.8466     832.1250     864.0000     318.5818     507.1749     266.1636
 4027.9320    4027.9320      68.9561     832.0774     864.0000     751.6348     349.8748     266.1981
 4027.7796    4027.7796      73.4957     775.5569     864.0000     320.3723     350.1432     266.2348
 4027.6272    4027.6272      74.8949     514.1274     864.0000     318.1262     775.3273     266.2723
 4027.4748    4027.4748      72.1738     515.6231     864.0000     318.8741     350.6562     266.3083
 4027.3224    4027.3224      66.7963     685.9746     864.0000     748.4957     775.6244     266.3417
 4027.1700    4027.1700      61.4635     688.1240     800.0328     315.4724     350.3434     266.3724
 4027.0176    4027.0176      58.0009     688.0000     712.6250     370.6250     852.0000     266.4014
 4026.8652    4026.8652      56.6046     689.1250     716.5000     314.0000     852.0000     266.4297
 4026.7128    4026.7128      56.3303     687.9984     715.2508     744.8745     869.2500     266.4579
 4026.5604    4026.5604      56.2347     685.2498     716.4327     744.0012     869.1565     266.4861
 4026.4080    4026.4080      56.2526     685.0040     516.8163     744.7897     771.6760     266.5142
 4026.2556    4026.2556      56.5418     687.9983     286.3495     399.8617     342.4870     266.5425
 4026.1032    4026.1032      57.0130     687.0011     712.0178     318.5921     775.5094     266.5709
 4025.9508    4025.9508      57.4327     687.9992     712.0004     744.5492     349.8259     266.5996
 4025.7984    4025.7984      57.4303     688.0000     560.0600     744.0003     775.8316     266.6283
 4025.6460    4025.6460      56.8613     688.0000     288.5000     475.3750     776.0000     266.6568
 4025.4936    4025.4937      56.1888     687.7500     714.0000     744.0000     350.7500     266.6849
 4025.3412    4025.3412      56.3004     686.7488     716.4973     318.8073     843.7017     266.7130
 4025.1888    4025.1888      57.7635     685.1234     712.7499     749.6193     776.0087     266.7419
 4025.0364    4025.0364      60.1611     683.6304     712.6268     744.3745     783.8680     266.7720
 4024.8840    4024.8840      62.2299     687.3698     713.8733     744.0005     692.8759     266.8031
 4024.7316    4024.7316      62.8395     685.7517     712.3765     744.0000     348.8495     266.8345
 4024.5792    4024.5792      61.8142     687.9985     713.6242     744.0000     844.3044     266.8655
 4024.4268    4024.4268      60.0136     686.1250     713.6250     736.0000     350.2500     266.8954
 4024.2744    4024.2744      58.5275     686.7500     720.0000     818.6250     852.0000     266.9247
 4024.1220    4024.1220      57.8288     684.9997     718.1222     818.8355     850.7090     266.9536
 4023.9696    4023.9696      57.6763     684.1272     711.8351     733.0701     761.6580     266.9825
