~VERSION INFORMATION
VERS.           2.0   :CWLS Log ASCII Standard - VERSION 2.0
WRAP.           NO    :One Line per depth step
PROD.  Schlumberger   :LAS Producer
PROG.  DLIS to ASCII 2.3                               :LAS Program name and version
CREA.        2023/07/14 00:15                          :LAS Creation date {YYYY/MM/DD hh:mm}
DLIS_CREA.  2023-Jul-14 00:11                          :DLIS Creation date and time {YYYY-MMM-DD hh:mm}
SOURCE.     LIS_005.dlis                               :DLIS File Name
FILE-ID.     LIS   .001                                :File Identification Number
#--------------------------------------------------
~WELL INFORMATION
#MNEM.UNIT      DATA             DESCRIPTION
#---- ------ --------------   -----------------------------
STRT .M      5238.7500       :START DEPTH     
STOP .M      5087.2644       :STOP DEPTH     
STEP .M        -0.1524       :STEP     
NULL .          -999.25      :NULL VALUE
COMP .        PETROBRAS S.A.                           :COMPANY
WELL .        3-BRSA-293D-SPS                          :WELL
FLD  .        BS-400                                   :FIELD
LOC  .        BASE SAD 69:                             :LOCATION
CNTY .        SANTOS                                   :COUNTY
STAT .        BRASIL                                   :STATE
CTRY .        SANTOS                                   :COUNTRY
API  .                                                 :API NUMBER
UWI  .                                                 :UNIQUE WELL ID
DATE .        23/10/2004                               :LOG DATE
SRVC .        Schlumberger                             :SERVICE COMPANY
LATI .DEG                                              :LATITUDE
LONG .DEG                                              :LONGITUDE
GDAT .                                                 :GeoDetic Datum
#-----------------------------------------------------------------------------
~PARAMETER INFORMATION
#MNEM.UNIT    VALUE                      DESCRIPTION
#---- -----   --------------------       ------------------------
APD  .M               24                 :
BHT  .DEGF           280                 :
BLI  .M             5230                 :
BS   .IN         8.50000                 :
CN   .        PETROBRAS S.A.             :
COUN .        SANTOS                     :
CS   .IN         9.62500                 :
DATE .        23/10/2004                 :
DFD  .LB/G      12.30000                 :
DFL  .C3               2                 :
DFPH .        N/A                        :
DFT  .        SINTETICO                  :
DFV  .S               87                 :
DMF  .        MESA ROTATIVA              :
EDF  .M               24                 :
EGL  .M             -500                 :
EKB  .        N/A                        :
ENGI .        HERNANDEZ/LOCK             :
FL1  .        X   7292392.00 M LAT 24 28 47.189 S :
FL2  .        Y    584087.00 M LON 44 10 12.698 W :
FL3  .        MC  45 GRAUS               :
FN   .        BS-400                     :
LMF  .        MESA ROTATIVA              :
LUL  .        MACAE                      :
MCSS .        PRENSA                     :
MCST .DEGF            80                 :
MFSS .        PRENSA                     :
MFST .DEGF            80                 :
MSS  .        LINHA DE FLUXO             :
MST  .DEGF            80                 :
PDAT .        NIVEL DO MAR               :
R1   .        01. APRESENTAÇÃO DE ACORDO COM REQUERIMENTO DO CLIENTE :
R2   .        02. TEMPERATURA MÁXIMA DO POÇO T1=T2= 260 DEGF @  5180 M :
R3   .        03. INICIO DA CIRCULAÇÃO  13 45 H 21/10/2004 :
R4   .        04. FINAL DA CIRCULAÇÃO   16 00 H 21/10/2004 :
R5   .        05. TEMPO TOTAL DE CIRCULAÇÃO  02 15 H :
R6   .        06. FLUIDO DE PERFURAÇÃO  SINTETICO (BR-MUL  BR-MI)  65% TEOR DO OLEO :
R7   .        07. SALINIDADE DA LAMA  266377 PPM NACL NA FASE DE AGUA :
R8   .        08. INCLINAÇÃO MÁXIMA DO POÇO  37.37 GRAUS @ 5100 M :
R9   .        09. PRIMEIRAS E ULTIMAS LEITURAS  :
RMB  .OHMM    > 10                       :
RMCS .OHMM    > 10                       :
RMFS .OHMM    > 10                       :
RMS  .OHMM    > 10                       :
RUN  .                 1                 :
STAT .        BRASIL                     :
TCS  .        16 00 H                    :
TDD  .M             5230                 :
TDL  .M             5231                 :
TLAB .        N/A                        :
TLI  .M             4277                 :
WITN .        ALCIDIO/VLADIMIR           :
WN   .        3-BRSA-293D-SPS            :
LUN  .              8808                 :
HIDE .        3-SPS-41D                  :
HID2 .        COMPENSATED Z-DENSILOG     :
HID3 .        COMPENSATED NEUTRON LOG    :
HID4 .        GAMMA RAY LOG              :
HID5 .        TTRM SUB                   :
CLAB .        BACIA                      :
SLAB .        PAIS                       :
CMT1 .        ESC  1 1000                :
CMT2 .        PROF. MEDIDA               :
CMT4 .        SONDA  SS-43               :
HDAT .        SAD 69                     :
FL   .        BASE SAD 69                :
OS1  .        HDIL/XMAC/SL/GR            :
OS3  .        MREX/GR                    :
OS5  .        SL/GR                      :
LNAM .        MREX/ZDL/CN/XMAC/HDIL/3DEX/RCI/SL/GR :
TOOL .        MREX/ZDL/CN/XMAC/HDIL/3DEX/RCI/SL/GR :
LSOU .        PETROBRAS                  :
LSRV .        OH WIRELINE                :
LTYP .        RAW                        :
EPD  .M                0                 :
LDAT .        23/10/2004                 :
TRIP .                 1                 :
SON  .            772317                 :
CBDR .M             4277                 :
CBLO .M             4277                 :
CBL1 .M             4277                 :
STEM .DEGF    N/A                        :
BSAL .            266377                 :
BARI .        OFF                        :
DLAB .        21/10/2004                 :
MRT  .DEGF           280                 :
TSTR .        ZDL/CN/GR/TTRM             :
TSTG .        N/A                        :
STUS .        FINAL                      :
LCNM .        BAKER ATLAS                :
LCC  .               150                 :
NATI .        SANTOS                     :
OPMD .        OH.WIRELINE                :
PANA .        HERNANDEZ/LOCK             :
PCON .        BAKER ATLAS                :
R11  .        GR     5222.5 M/4277.0 M   :
R12  .        ZDL    5230.0 M/4277.0 M   :
R13  .        CN     5224.0 M/4277.0 M   :
R15  .        10. PONTO FRACO UTILIZADO  10K :
R17  .        12. DECLINAÇÃO MAGNETICA  -20.9 GRAUS :
R18  .        13. COORDENADAS BASE       :
R21  .        Y    583936.00 M           :
R22  .        MC  45 GRAUS               :
PVER .           4.10000                 :
WDFN .        /space/expusr/3-SPS-41D/i77bf06_8spf.xtf :
OCT  .        i77bf                      :
0S2  .        3DEX/GR                    :
OS4  .        RCI/GR                     :
R16  .        11. CNC CORREGIDO PELO CALIPER E SALINIDADE  PRESENTADO MATRIZ CARBONATO :
R20  .        X   7292512.00 M           :
R24  .        14. CADASTRO ANP  86316021017 :
#-----------------------------------------------------------------------------
~CURVE INFORMATION
#MNEM.UNIT   API CODE                                  DESCRIPTION
#---- -----  --------                                  -----------------------
DEPT .M                                                :DEPTH (BOREHOLE) {F10.4}
DEPT .M                                                : {F13.4}
BIT  .IN                                               : {F13.4}
GR   .GAPI                                             : {F13.4}
TEN  .LBF                                              : {F13.4}
TTEN .LBF                                              : {F13.4}
CAL  .IN                                               : {F13.4}
CALX .IN                                               : {F13.4}
HRD1 .HZ                                               : {F13.4}
HRD2 .HZ                                               : {F13.4}
PE   .B/E                                              : {F13.4}
SFT2 .HZ                                               : {F13.4}
SOFT .HZ                                               : {F13.4}
SSD  .HZ                                               : {F13.4}
ZCOR .G/C3                                             : {F13.4}
ZDEN .G/C3                                             : {F13.4}
#-----------------------------------------------------------------------------
# 
#     DEPT        DEPT         BIT          GR           TEN          TTEN         CAL          CALX         HRD1         HRD2         PE           SFT2         SOFT         SSD          ZCOR         ZDEN
#
~A  
# ...
 5119.8780    5119.8780       8.5000      62.7980     -66.8130    6503.6822       8.6067       8.6067     648.6857     869.4251       5.4544     496.2978     375.3543    6204.6108      -0.0530       2.5464
 5119.7256    5119.7256       8.5000      62.9465     -16.4290    6553.4593       8.6087       8.6087     625.3551     856.0103       5.4686     490.4407     369.0783    6178.5403      -0.0502       2.5550
 5119.5732    5119.5732       8.5000      63.5619      15.6719    6585.6083       8.6087       8.6087     627.8883     849.2615       5.4469     492.9407     360.7579    6187.4373      -0.0482       2.5565
 5119.4208    5119.4208       8.5000      64.0622       5.1729    6575.2856       8.6075       8.6075     639.8780     857.5787       5.4844     498.0112     353.3909    6205.8669      -0.0492       2.5527
 5119.2684    5119.2684       8.5000      64.5939     -47.8561    6521.8319       8.6073       8.6073     641.5893     858.5934       5.5300     489.8471     350.6372    6214.8179      -0.0484       2.5523
 5119.1160    5119.1160       8.5000      65.3422    -103.1055    6465.2141       8.6083       8.6083     637.0925     851.5639       5.5210     479.2420     355.8042    6235.4512      -0.0433       2.5551
 5118.9636    5118.9636       8.5000      66.2933    -120.9305    6445.4478       8.6092       8.6092     638.1162     853.9981       5.4735     485.1313     361.3616    6275.0025      -0.0382       2.5552
 5118.8112    5118.8112       8.5000      66.9543    -111.0047    6453.4367       8.6091       8.6091     640.5967     862.9889       5.5827     506.7151     358.2155    6317.1475      -0.0343       2.5529
 5118.6588    5118.6588       8.5000      67.6612    -102.5392    6460.1213       8.6081       8.6081     644.1039     870.6737       5.8661     523.5904     349.2261    6334.2151      -0.0338       2.5498
 5118.5064    5118.5064       8.5000      70.0461     -95.5348    6465.4649       8.6068       8.6068     651.3552     880.4821       6.1773     520.7636     340.5240    6314.1294      -0.0397       2.5465
 5118.3540    5118.3540       8.5000      72.8472     -77.7390    6481.8467       8.6066       8.6066     655.1716     875.5685       6.3269     505.0730     331.9322    6282.3387      -0.0441       2.5475
 5118.2016    5118.2016       8.5000      73.2311     -43.4974    6515.1420       8.6084       8.6084     649.9073     848.4920       6.1517     493.6267     328.7815    6271.5380      -0.0399       2.5550
 5118.0492    5118.0492       8.5000      72.1114       7.0933    6565.4923       8.6110       8.6110     640.8796     828.2325       5.7981     487.9372     336.1356    6277.1155      -0.0337       2.5627
 5117.8968    5117.8968       8.5000      72.2852      58.5395    6617.6060       8.6132       8.6132     634.3555     826.2995       5.6454     479.4096     342.0442    6274.3973      -0.0326       2.5658
 5117.7444    5117.7444       8.5000      74.4652      65.3367    6625.5898       8.6160       8.6160     634.0925     830.4593       5.7370     476.6426     338.4625    6251.1488      -0.0366       2.5650
 5117.5920    5117.5920       8.5000      78.4393       3.2439    6564.0633       8.6205       8.6205     638.4622     835.6012       5.7858     484.7076     335.0615    6217.3219      -0.0433       2.5624
 5117.4396    5117.4396       8.5000      81.5732     -86.2040    6473.7353       8.6240       8.6240     637.4155     842.7215       5.7731     493.8527     338.9630    6199.2425      -0.0470       2.5597
 5117.2872    5117.2872       8.5000      80.8666    -144.2249    6413.6147       8.6250       8.6250     633.3276     853.7538       5.7655     498.8325     344.2245    6196.1130      -0.0487       2.5567
 5117.1348    5117.1348       8.5000      78.0246    -157.0174    6398.2867       8.6254       8.6254     633.4904     865.4891       5.7512     502.1834     347.8442    6193.1719      -0.0513       2.5536
 5116.9824    5116.9824       8.5000      75.1799    -141.2921    6411.5938       8.6263       8.6263     632.7134     863.9261       5.7169     505.0310     353.8717    6194.9444      -0.0506       2.5538
 5116.8300    5116.8300       8.5000      70.9542    -105.8234    6445.1662       8.6252       8.6252     630.2595     850.1779       5.6274     505.9288     359.6999    6215.9296      -0.0446       2.5564
 5116.6776    5116.6776       8.5000      66.1082     -72.2713    6477.4313       8.6218       8.6218     631.9021     848.1863       5.5516     506.2743     359.1088    6236.6630      -0.0416       2.5558
 5116.5252    5116.5252       8.5000      63.0572     -65.0897    6483.5741       8.6184       8.6184     631.9186     857.7761       5.5942     505.2805     354.5159    6239.4260      -0.0429       2.5530
 5116.3728    5116.3728       8.5000      61.8823     -67.1006    6480.4747       8.6171       8.6171     630.0603     863.0047       5.6929     500.9409     352.5425    6228.6321      -0.0451       2.5511
 5116.2204    5116.2204       8.5000      61.8275     -46.4971    6500.1822       8.6177       8.6177     635.6346     863.9867       5.8202     492.4928     349.2853    6219.1694      -0.0476       2.5487
 5116.0680    5116.0680       8.5000      63.0499     -19.2549    6526.9946       8.6191       8.6191     647.9176     868.7546       6.0631     485.1108     340.7807    6223.6977      -0.0500       2.5443
 5115.9156    5115.9156       8.5000      65.3279     -23.3470    6522.5973       8.6205       8.6205     654.6909     880.7158       6.2592     481.0812     336.9602    6246.1324      -0.0501       2.5400
 5115.7632    5115.7632       8.5000      67.7928     -52.4063    6492.8204       8.6216       8.6216     650.2247     888.9043       6.2408     480.8314     341.2432    6261.7378      -0.0485       2.5401
 5115.6108    5115.6108       8.5000      69.8098     -70.6096    6473.4876       8.6222       8.6222     639.4480     878.2904       6.0426     485.9726     345.2120    6239.9783      -0.0479       2.5462
 5115.4584    5115.4584       8.5000      72.0449     -63.9536    6479.0286       8.6225       8.6225     632.0262     855.6455       5.7883     492.2141     346.5864    6201.6269      -0.0480       2.5543
 5115.3060    5115.3060       8.5000      75.4691     -46.2806    6495.9075       8.6241       8.6241     629.7196     842.6148       5.6206     493.1792     348.2477    6186.4791      -0.0474       2.5593
 5115.1536    5115.1536       8.5000      79.9240     -33.2467    6508.4921       8.6265       8.6265     631.3861     839.1683       5.5629     492.1727     347.9712    6190.6128      -0.0465       2.5608
 5115.0012    5115.0012       8.5000      82.9023     -23.2558    6518.2670       8.6273       8.6273     638.9003     832.6910       5.5137     490.9240     346.1255    6189.6107      -0.0468       2.5614
 5114.8488    5114.8488       8.5000      81.8306      -8.2447    6533.2318       8.6260       8.6260     649.0456     819.6273       5.4430     487.6336     346.4576    6185.7293      -0.0469       2.5626
 5114.6964    5114.6964       8.5000      77.4259      -6.3107    6535.1570       8.6242       8.6242     652.1576     812.3211       5.4244     486.4510     352.0566    6201.6801      -0.0438       2.5636
 5114.5440    5114.5440       8.5000      73.3425     -39.5119    6501.5673       8.6231       8.6231     645.1566     824.9948       5.4381     488.9100     355.7925    6243.6974      -0.0387       2.5625
 5114.3916    5114.3916       8.5000      70.5265     -80.3957    6459.6385       8.6234       8.6234     635.8288     841.0225       5.4740     491.2427     351.0093    6273.9605      -0.0356       2.5614
 5114.2392    5114.2392       8.5000      68.3354     -81.3195    6457.3739       8.6248       8.6248     633.5882     836.7831       5.5204     490.8601     345.0679    6270.8220      -0.0349       2.5632
 5114.0868    5114.0868       8.5000      67.8595     -40.0163    6497.7680       8.6253       8.6253     632.8236     824.1476       5.5649     489.7186     345.5299    6252.1113      -0.0351       2.5668
