~VERSION INFORMATION
VERS.           2.0   :CWLS Log ASCII Standard - VERSION 2.0
WRAP.           NO    :One Line per depth step
PROD.  Schlumberger   :LAS Producer
PROG.  DLIS to ASCII 2.3                               :LAS Program name and version
CREA.        2023/07/14 00:15                          :LAS Creation date {YYYY/MM/DD hh:mm}
DLIS_CREA.  2023-Jul-14 00:11                          :DLIS Creation date and time {YYYY-MMM-DD hh:mm}
SOURCE.     LIS_009.dlis                               :DLIS File Name
FILE-ID.     LIS   .002                                :File Identification Number
#--------------------------------------------------
~WELL INFORMATION
#MNEM.UNIT      DATA             DESCRIPTION
#---- ------ --------------   -----------------------------
STRT .M      5301.9960       :START DEPTH     
STOP .M      5058.6132       :STOP DEPTH     
STEP .M        -0.1524       :STEP     
NULL .          -999.25      :NULL VALUE
COMP .        PETROBRAS S.A.                           :COMPANY
WELL .        3-BRSA-293D-SPS                          :WELL
FLD  .        BS-400                                   :FIELD
LOC  .        BASE SAD 69:                             :LOCATION
CNTY .        SANTOS                                   :COUNTY
STAT .        BRASIL                                   :STATE
CTRY .        BRASIL                                   :COUNTRY
API  .                                                 :API NUMBER
UWI  .                                                 :UNIQUE WELL ID
DATE .        15/11/2004                               :LOG DATE
SRVC .        Schlumberger                             :SERVICE COMPANY
LATI .DEG                                              :LATITUDE
LONG .DEG                                              :LONGITUDE
GDAT .                                                 :GeoDetic Datum
#-----------------------------------------------------------------------------
~PARAMETER INFORMATION
#MNEM.UNIT    VALUE                      DESCRIPTION
#---- -----   --------------------       ------------------------
APD  .M               24                 :
BHT  .DEGF           260                 :
BLI  .M             5289                 :
BS   .IN         8.50000                 :
CN   .        PETROBRAS S.A.             :
COUN .        SANTOS                     :
CS   .IN         9.62500                 :
DATE .        15/11/2004                 :
DFD  .LB/G      12.30000                 :
DFL  .C3               2                 :
DFPH .        N/A                        :
DFT  .        SINTETICO                  :
DFV  .S               95                 :
DMF  .        MESA ROTATIVA              :
EDF  .M               24                 :
EGL  .M             -500                 :
EKB  .        N/A                        :
ENGI .        HERNANDEZ / LOCK           :
FL1  .        X   7292392.00 M LAT 24 28 47.189 S :
FL2  .        Y    584087.00 M LON 44 10 12.698 W :
FL3  .        MC  45 GRAUS               :
FN   .        BS-400                     :
LMF  .        MESA ROTATIVA              :
LUL  .        MACAE                      :
MCSS .        PRENSA                     :
MCST .DEGF            80                 :
MFSS .        PRENSA                     :
MFST .DEGF            80                 :
MSS  .        LINHA DE FLUXO             :
MST  .DEGF            80                 :
PDAT .        NIVEL DO MAR               :
R1   .        01. APRESENTAÇÃO DE ACORDO COM REQUERIMENTO DO CLIENTE :
R2   .        02. TEMPERATURA MÁXIMA DO POÇO T1=T2= 290 DEGF @  5275 M :
R3   .        03. INICIO DA CIRCULAÇÃO  12/11/2004 09 00 H :
R4   .        04. FINAL DA CIRCULAÇÃO   12/11/2004 18 00 H :
R5   .        05. TEMPO TOTAL DE CIRCULAÇÃO   09 00 H :
R6   .        06. FLUIDO DE PERFURAÇÃO  SINTETICO (BR-MUL  BR-MI)  60% TEOR DO OLEO :
R7   .        07. SALINIDADE DA LAMA  254762 PPM NACL NA FASE DE AGUA :
R8   .        08. INCLINAÇÃO MÁXIMA DO POÇO  37.37 GRAUS @ 5100 M :
R9   .        09. PRIMEIRAS E ULTIMAS LEITURAS  :
RMB  .OHMM    > 10                       :
RMCS .OHMM    > 10                       :
RMFS .OHMM    > 10                       :
RMS  .OHMM    >10                        :
RUN  .                 2                 :
STAT .        BRASIL                     :
TCS  .        18 00 H                    :
TDD  .M             5288                 :
TDL  .M             5293                 :
TLAB .        N/A                        :
TLI  .M             5000                 :
WITN .        ERNANI / ZE MARIA          :
WN   .        3-BRSA-293D-SPS            :
LUN  .              8808                 :
HIDE .        3-SPS-41D                  :
HID2 .        HIGH DEFINITION INDUCTION LOG :
HID3 .        X-MULTIPOLE ARRAY ACOUSTILOG :
HID4 .        GAMMA RAY LOG              :
HID5 .        TTRM SUB                   :
CLAB .        BACIA                      :
SLAB .        PAIS                       :
CMT1 .        ESC  1 200                 :
CMT2 .        PROF. MEDIDA               :
CMT4 .        SONDA  SS-43               :
HDAT .        SAD 69                     :
FL   .        BASE SAD 69                :
OS1  .        RCI/GR                     :
OS2  .        CHECK SHOT                 :
OS3  .        GR/CN/ZDL                  :
OS5  .        RCOR/GR                    :
LNAM .        ZDL/CN/XMAC/HDIL/EARTH IMAGER/RCI/RCOR/CHECK SHOT/GR :
TOOL .        ZDL/CN/XMAC/HDIL/EARTH IMAGER/RCI/RCOR/CHECK SHOT/GR :
LSOU .        PETROBRAS                  :
LSRV .        OH WIRELINE                :
LTYP .        RAW                        :
EPD  .M                0                 :
LDAT .        15/11/2004                 :
TRIP .                 3                 :
SON  .            786588                 :
CBDR .M             4277                 :
CBLO .        NR                         :
CBL1 .        NR                         :
STEM .DEGF    N/A                        :
BSAL .            254762                 :
BARI .        OFF                        :
DLAB .        12/11/2004                 :
MRT  .DEGF           290                 :
TSTR .        HDIL/XMAC/GR/TTRM          :
TSTG .        N/A                        :
STUS .        FINAL                      :
LCNM .        BAKER ATLAS                :
LCC  .               150                 :
NATI .        BRASIL                     :
OPMD .        OH.WIRELINE                :
PANA .        HERNANDEZ / LOCK           :
PCON .        BAKER ATLAS                :
R11  .        SL     5268.3 M / 5000.0 M :
R12  .        GR     5268.3 M / 5000.0 M :
R13  .        XMAC   5279.5 M / 5000.0 M :
R14  .        HDIL   5289.0 M / 5000.0 M :
R17  .        11. DECLINAÇÃO MAGNETICA  -20.9 GRAUS :
R18  .        12. COORDENADAS BASE       :
R21  .        Y    583936.00 M           :
R22  .        MC  45 GRAUS               :
PVER .           4.10000                 :
WDFN .        /space/expusr/3-SPS-41D_RUN2/i77bf01_4spf.xtf :
OCT  .        i77bf                      :
OS4  .        EARTH IMAGER               :
R16  .        10. PONTO FRACO UTILIZADO  10K :
R20  .        X   7292512.00 M           :
R24  .        13. CADASTRO ANP  86316021017 :
#-----------------------------------------------------------------------------
~CURVE INFORMATION
#MNEM.UNIT   API CODE                                  DESCRIPTION
#---- -----  --------                                  -----------------------
DEPT .M                                                :DEPTH (BOREHOLE) {F10.4}
DEPT .M                                                : {F13.4}
BIT  .IN                                               : {F13.4}
GR   .GAPI                                             : {F13.4}
M2R1 .OHMM                                             : {F13.4}
M2R2 .OHMM                                             : {F13.4}
M2R3 .OHMM                                             : {F13.4}
M2R6 .OHMM                                             : {F13.4}
M2R9 .OHMM                                             : {F13.4}
M2RX .OHMM                                             : {F13.4}
SPD  .M/MN                                             : {F13.4}
TEN  .LBF                                              : {F13.4}
TTEN .LBF                                              : {F13.4}
#-----------------------------------------------------------------------------
# 
#     DEPT        DEPT         BIT          GR           M2R1         M2R2         M2R3         M2R6         M2R9         M2RX         SPD          TEN          TTEN
#
~A  
# ...
 5141.0616    5141.0616       8.5000      71.5494       1.0790       1.4958       1.7818       1.9121       1.9409       1.9828       4.7626     156.1900    7679.0102
 5140.9092    5140.9092       8.5000      72.5339       1.1240       1.5403       1.8241       1.9558       1.9870       2.0314       4.7617     130.4210    7656.0420
 5140.7568    5140.7568       8.5000      75.4293       1.1521       1.5642       1.8439       1.9755       2.0087       2.0548       4.7593      83.3997    7611.0029
 5140.6044    5140.6044       8.5000      77.7189       1.1477       1.5499       1.8213       1.9498       1.9842       2.0308       4.7584      44.6889    7573.3896
 5140.4520    5140.4520       8.5000      77.8272       1.1270       1.5196       1.7821       1.9065       1.9413       1.9878       4.7602      17.6401    7546.8151
 5140.2996    5140.2996       8.5000      77.1269       1.1150       1.5039       1.7614       1.8828       1.9179       1.9648       4.7629       2.6192    7531.9023
 5140.1472    5140.1472       8.5000      77.1733       1.1202       1.5117       1.7686       1.8888       1.9242       1.9721       4.7684       0.6121    7529.9232
 5139.9948    5139.9948       8.5000      77.7601       1.1359       1.5335       1.7917       1.9113       1.9467       1.9964       4.7800       3.6558    7533.0682
 5139.8424    5139.8424       8.5000      78.3476       1.1558       1.5601       1.8196       1.9387       1.9738       2.0256       4.7847      12.2449    7541.8806
 5139.6900    5139.6900       8.5000      77.4978       1.1786       1.5865       1.8457       1.9643       1.9987       2.0529       4.7733      25.1978    7555.2538
 5139.5376    5139.5376       8.5000      74.0326       1.2060       1.6089       1.8646       1.9825       2.0160       2.0728       4.7594      15.2811    7545.7313
 5139.3852    5139.3852       8.5000      69.6747       1.2615       1.6519       1.9036       2.0228       2.0561       2.1164       4.7573     -22.6715    7507.6035
 5139.2328    5139.2328       8.5000      67.9153       1.3775       1.7524       2.0049       2.1302       2.1648       2.2311       4.7629     -44.7253    7484.7706
 5139.0804    5139.0804       8.5000      69.6461       1.5478       1.8999       2.1569       2.2931       2.3309       2.4050       4.7653     -27.0891    7501.6905
 5138.9280    5138.9280       8.5000      73.0745       1.7118       2.0316       2.2920       2.4400       2.4818       2.5636       4.7671      -2.0568    7526.5140
 5138.7756    5138.7756       8.5000      76.0828       1.8052       2.1022       2.3655       2.5229       2.5689       2.6558       4.7695       4.9771    7533.6104
 5138.6232    5138.6232       8.5000      77.2755       1.7945       2.1018       2.3711       2.5343       2.5841       2.6730       4.7703      15.2361    7544.0442
 5138.4708    5138.4708       8.5000      77.2242       1.6768       2.0257       2.3031       2.4662       2.5183       2.6051       4.7704      55.6276    7585.1579
 5138.3184    5138.3184       8.5000      77.5105       1.5066       1.9064       2.1925       2.3505       2.4032       2.4847       4.7707      93.0676    7624.1934
 5138.1660    5138.1660       8.5000      77.6934       1.3678       1.8169       2.1157       2.2677       2.3202       2.3960       4.7667      80.6698    7613.5986
 5138.0136    5138.0136       8.5000      76.4931       1.2931       1.7876       2.1024       2.2499       2.3018       2.3726       4.7575      50.4064    7584.5704
 5137.8612    5137.8612       8.5000      74.7531       1.2618       1.7881       2.1139       2.2548       2.3045       2.3694       4.7497      53.1366    7588.2116
 5137.7088    5137.7088       8.5000      74.1041       1.2520       1.7884       2.1130       2.2440       2.2892       2.3464       4.7488      70.9331    7607.1590
 5137.5564    5137.5564       8.5000      74.8545       1.2698       1.8017       2.1174       2.2380       2.2775       2.3263       4.7533      68.4638    7605.9614
 5137.4040    5137.4040       8.5000      76.2088       1.3289       1.8555       2.1641       2.2778       2.3119       2.3526       4.7597      57.6790    7596.2540
 5137.2516    5137.2516       8.5000      76.5163       1.4158       1.9369       2.2428       2.3540       2.3837       2.4166       4.7657      51.7428    7591.2238
 5137.0992    5137.0992       8.5000      76.0302       1.4864       1.9916       2.2946       2.4064       2.4327       2.4576       4.7668      55.0652    7595.4839
 5136.9468    5136.9468       8.5000      75.7395       1.5262       2.0074       2.3071       2.4225       2.4471       2.4646       4.7621      73.4086    7615.0763
 5136.7944    5136.7944       8.5000      75.0683       1.5707       2.0361       2.3389       2.4639       2.4899       2.5019       4.7565      81.1609    7624.4079
 5136.6420    5136.6420       8.5000      72.7482       1.6382       2.1026       2.4159       2.5570       2.5875       2.5963       4.7509      62.8186    7607.4574
 5136.4896    5136.4896       8.5000      69.8967       1.7120       2.1862       2.5119       2.6732       2.7116       2.7203       4.7452      60.4724    7606.1812
 5136.3372    5136.3372       8.5000      67.7385       1.7581       2.2447       2.5773       2.7581       2.8067       2.8185       4.7464      87.8049    7634.8458
 5136.1848    5136.1848       8.5000      67.0696       1.7502       2.2450       2.5745       2.7711       2.8312       2.8499       4.7584      96.3434    7645.1031
 5136.0324    5136.0324       8.5000      67.6679       1.7104       2.2118       2.5343       2.7440       2.8166       2.8462       4.7711      77.9649    7628.3020
 5135.8800    5135.8800       8.5000      67.8584       1.6768       2.1863       2.5077       2.7332       2.8205       2.8656       4.7718      74.5264    7626.2316
 5135.7276    5135.7276       8.5000      67.0574       1.6557       2.1662       2.4944       2.7401       2.8449       2.9105       4.7625      88.8188    7642.0441
 5135.5752    5135.5752       8.5000      67.9826       1.6743       2.1824       2.5328       2.8096       2.9367       3.0299       4.7539      88.7471    7643.6396
 5135.4228    5135.4229       8.5000      71.3528       1.7948       2.3239       2.7280       3.0618       3.2239       3.3590       4.7499      64.4074    7620.6875
 5135.2704    5135.2704       8.5000      73.6667       2.0423       2.6505       3.1557       3.5899       3.8094       4.0127       4.7486      47.7278    7604.9427
 5135.1180    5135.1180       8.5000      73.3538       2.2995       3.0434       3.6745       4.2403       4.5350       4.8328       4.7452      62.5224    7620.6870
 5134.9656    5134.9656       8.5000      72.1413       2.3147       3.1560       3.8522       4.5066       4.8559       5.2356       4.7409      86.7389    7646.3377
 5134.8132    5134.8132       8.5000      70.9350       2.1121       2.9275       3.5929       4.2516       4.6105       5.0267       4.7443      94.9444    7656.3417
 5134.6608    5134.6608       8.5000      69.7944       2.0349       2.7877       3.4239       4.0815       4.4445       4.8913       4.7578      85.6370    7648.8005
 5134.5084    5134.5084       8.5000      69.4664       2.2490       2.9730       3.6453       4.3577       4.7524       5.2683       4.7667      50.4286    7614.8452
 5134.3560    5134.3560       8.5000      69.5353       2.7707       3.4929       4.2741       5.0992       5.5485       6.1769       4.7647      -7.6152    7557.0263
 5134.2036    5134.2036       8.5000      69.8412       3.4657       4.1588       5.0779       6.0223       6.5104       7.2497       4.7584     -46.2870    7517.5630
 5134.0512    5134.0512       8.5000      71.7799       4.2812       4.8839       5.9327       6.9774       7.4659       8.2867       4.7530     -38.9733    7523.8473
 5133.8988    5133.8988       8.5000      76.8531       5.3408       5.7792       6.9473       8.0957       8.5515       9.4332       4.7512      -0.5587    7561.7633
