~VERSION INFORMATION
VERS.           2.0   :CWLS Log ASCII Standard - VERSION 2.0
WRAP.           NO    :One Line per depth step
PROD.  Schlumberger   :LAS Producer
PROG.  DLIS to ASCII 2.3                               :LAS Program name and version
CREA.        2023/07/14 00:15                          :LAS Creation date {YYYY/MM/DD hh:mm}
DLIS_CREA.  2023-Jul-14 00:11                          :DLIS Creation date and time {YYYY-MMM-DD hh:mm}
SOURCE.     LIS_005.dlis                               :DLIS File Name
FILE-ID.     LIS   .001                                :File Identification Number
#--------------------------------------------------
~WELL INFORMATION
#MNEM.UNIT      DATA             DESCRIPTION
#---- ------ --------------   -----------------------------
STRT .M      5238.7500       :START DEPTH     
STOP .M      5087.2644       :STOP DEPTH     
STEP .M        -0.1524       :STEP     
NULL .          -999.25      :NULL VALUE
COMP .        PETROBRAS S.A.                           :COMPANY
WELL .        3-BRSA-293D-SPS                          :WELL
FLD  .        BS-400                                   :FIELD
LOC  .        BASE SAD 69:                             :LOCATION
CNTY .        SANTOS                                   :COUNTY
STAT .        BRASIL                                   :STATE
CTRY .        SANTOS                                   :COUNTRY
API  .                                                 :API NUMBER
UWI  .                                                 :UNIQUE WELL ID
DATE .        23/10/2004                               :LOG DATE
SRVC .        Schlumberger                             :SERVICE COMPANY
LATI .DEG                                              :LATITUDE
LONG .DEG                                              :LONGITUDE
GDAT .                                                 :GeoDetic Datum
#-----------------------------------------------------------------------------
~PARAMETER INFORMATION
#MNEM.UNIT    VALUE                      DESCRIPTION
#---- -----   --------------------       ------------------------
APD  .M               24                 :
BHT  .DEGF           280                 :
BLI  .M             5230                 :
BS   .IN         8.50000                 :
CN   .        PETROBRAS S.A.             :
COUN .        SANTOS                     :
CS   .IN         9.62500                 :
DATE .        23/10/2004                 :
DFD  .LB/G      12.30000                 :
DFL  .C3               2                 :
DFPH .        N/A                        :
DFT  .        SINTETICO                  :
DFV  .S               87                 :
DMF  .        MESA ROTATIVA              :
EDF  .M               24                 :
EGL  .M             -500                 :
EKB  .        N/A                        :
ENGI .        HERNANDEZ/LOCK             :
FL1  .        X   7292392.00 M LAT 24 28 47.189 S :
FL2  .        Y    584087.00 M LON 44 10 12.698 W :
FL3  .        MC  45 GRAUS               :
FN   .        BS-400                     :
LMF  .        MESA ROTATIVA              :
LUL  .        MACAE                      :
MCSS .        PRENSA                     :
MCST .DEGF            80                 :
MFSS .        PRENSA                     :
MFST .DEGF            80                 :
MSS  .        LINHA DE FLUXO             :
MST  .DEGF            80                 :
PDAT .        NIVEL DO MAR               :
R1   .        01. APRESENTAÇÃO DE ACORDO COM REQUERIMENTO DO CLIENTE :
R2   .        02. TEMPERATURA MÁXIMA DO POÇO T1=T2= 260 DEGF @  5180 M :
R3   .        03. INICIO DA CIRCULAÇÃO  13 45 H 21/10/2004 :
R4   .        04. FINAL DA CIRCULAÇÃO   16 00 H 21/10/2004 :
R5   .        05. TEMPO TOTAL DE CIRCULAÇÃO  02 15 H :
R6   .        06. FLUIDO DE PERFURAÇÃO  SINTETICO (BR-MUL  BR-MI)  65% TEOR DO OLEO :
R7   .        07. SALINIDADE DA LAMA  266377 PPM NACL NA FASE DE AGUA :
R8   .        08. INCLINAÇÃO MÁXIMA DO POÇO  37.37 GRAUS @ 5100 M :
R9   .        09. PRIMEIRAS E ULTIMAS LEITURAS  :
RMB  .OHMM    > 10                       :
RMCS .OHMM    > 10                       :
RMFS .OHMM    > 10                       :
RMS  .OHMM    > 10                       :
RUN  .                 1                 :
STAT .        BRASIL                     :
TCS  .        16 00 H                    :
TDD  .M             5230                 :
TDL  .M             5231                 :
TLAB .        N/A                        :
TLI  .M             4277                 :
WITN .        ALCIDIO/VLADIMIR           :
WN   .        3-BRSA-293D-SPS            :
LUN  .              8808                 :
HIDE .        3-SPS-41D                  :
HID2 .        COMPENSATED Z-DENSILOG     :
HID3 .        COMPENSATED NEUTRON LOG    :
HID4 .        GAMMA RAY LOG              :
HID5 .        TTRM SUB                   :
CLAB .        BACIA                      :
SLAB .        PAIS                       :
CMT1 .        ESC  1 1000                :
CMT2 .        PROF. MEDIDA               :
CMT4 .        SONDA  SS-43               :
HDAT .        SAD 69                     :
FL   .        BASE SAD 69                :
OS1  .        HDIL/XMAC/SL/GR            :
OS3  .        MREX/GR                    :
OS5  .        SL/GR                      :
LNAM .        MREX/ZDL/CN/XMAC/HDIL/3DEX/RCI/SL/GR :
TOOL .        MREX/ZDL/CN/XMAC/HDIL/3DEX/RCI/SL/GR :
LSOU .        PETROBRAS                  :
LSRV .        OH WIRELINE                :
LTYP .        RAW                        :
EPD  .M                0                 :
LDAT .        23/10/2004                 :
TRIP .                 1                 :
SON  .            772317                 :
CBDR .M             4277                 :
CBLO .M             4277                 :
CBL1 .M             4277                 :
STEM .DEGF    N/A                        :
BSAL .            266377                 :
BARI .        OFF                        :
DLAB .        21/10/2004                 :
MRT  .DEGF           280                 :
TSTR .        ZDL/CN/GR/TTRM             :
TSTG .        N/A                        :
STUS .        FINAL                      :
LCNM .        BAKER ATLAS                :
LCC  .               150                 :
NATI .        SANTOS                     :
OPMD .        OH.WIRELINE                :
PANA .        HERNANDEZ/LOCK             :
PCON .        BAKER ATLAS                :
R11  .        GR     5222.5 M/4277.0 M   :
R12  .        ZDL    5230.0 M/4277.0 M   :
R13  .        CN     5224.0 M/4277.0 M   :
R15  .        10. PONTO FRACO UTILIZADO  10K :
R17  .        12. DECLINAÇÃO MAGNETICA  -20.9 GRAUS :
R18  .        13. COORDENADAS BASE       :
R21  .        Y    583936.00 M           :
R22  .        MC  45 GRAUS               :
PVER .           4.10000                 :
WDFN .        /space/expusr/3-SPS-41D/i77bf06_8spf.xtf :
OCT  .        i77bf                      :
0S2  .        3DEX/GR                    :
OS4  .        RCI/GR                     :
R16  .        11. CNC CORREGIDO PELO CALIPER E SALINIDADE  PRESENTADO MATRIZ CARBONATO :
R20  .        X   7292512.00 M           :
R24  .        14. CADASTRO ANP  86316021017 :
#-----------------------------------------------------------------------------
~CURVE INFORMATION
#MNEM.UNIT   API CODE                                  DESCRIPTION
#---- -----  --------                                  -----------------------
DEPT .M                                                :DEPTH (BOREHOLE) {F10.4}
DEPT .M                                                : {F13.4}
BIT  .IN                                               : {F13.4}
GR   .GAPI                                             : {F13.4}
TEN  .LBF                                              : {F13.4}
TTEN .LBF                                              : {F13.4}
CAL  .IN                                               : {F13.4}
CALX .IN                                               : {F13.4}
HRD1 .HZ                                               : {F13.4}
HRD2 .HZ                                               : {F13.4}
PE   .B/E                                              : {F13.4}
SFT2 .HZ                                               : {F13.4}
SOFT .HZ                                               : {F13.4}
SSD  .HZ                                               : {F13.4}
ZCOR .G/C3                                             : {F13.4}
ZDEN .G/C3                                             : {F13.4}
#-----------------------------------------------------------------------------
# 
#     DEPT        DEPT         BIT          GR           TEN          TTEN         CAL          CALX         HRD1         HRD2         PE           SFT2         SOFT         SSD          ZCOR         ZDEN
#
~A  
# ...
 5203.0884    5203.0884       8.5000      55.9118      33.6374    6553.1324       8.6044       8.6044     902.1049    1132.5359       3.1535     779.2340     647.6086    7047.0131      -0.0174       2.4375
 5202.9360    5202.9360       8.5000      54.4607      50.1868    6570.3419       8.6061       8.6061     900.1870    1130.3503       3.0981     764.4186     652.6909    7037.2890      -0.0181       2.4396
 5202.7836    5202.7836       8.5000      54.0127      45.4883    6566.3712       8.6050       8.6050     899.3141    1115.1586       3.0704     741.3581     653.7865    7002.6255      -0.0204       2.4440
 5202.6312    5202.6312       8.5000      54.3081      31.6020    6553.0321       8.6018       8.6018     890.0199    1090.0185       3.0705     732.3524     639.2748    6929.0717      -0.0252       2.4515
 5202.4788    5202.4788       8.5000      54.9340      19.7638    6541.5354       8.5992       8.5992     867.9670    1070.9110       3.1326     733.1275     615.5219    6835.7774      -0.0318       2.4604
 5202.3264    5202.3264       8.5000      55.4095      12.9604    6534.9534       8.5983       8.5983     843.3537    1061.6393       3.2446     732.9793     597.5328    6798.3549      -0.0320       2.4672
 5202.1740    5202.1740       8.5000      56.0445      10.2524    6532.4181       8.5992       8.5992     834.7477    1055.6781       3.3196     733.0737     585.9567    6864.7927      -0.0212       2.4693
 5202.0216    5202.0216       8.5000      56.7707       6.4115    6528.7119       8.6005       8.6005     842.2535    1055.1827       3.3524     738.7845     581.0939    6959.0370      -0.0099       2.4661
 5201.8692    5201.8692       8.5000      56.8686      -1.5746    6520.7491       8.6001       8.6001     861.2414    1070.2707       3.3851     751.0436     591.6296    7000.8716      -0.0093       2.4577
 5201.7168    5201.7168       8.5000      56.3435      -9.2355    6512.9685       8.5991       8.5991     887.2404    1094.5404       3.4164     759.8138     604.8969    6988.2093      -0.0178       2.4471
 5201.5644    5201.5644       8.5000      55.7231      -7.0075    6515.0410       8.5994       8.5994     902.9030    1114.8863       3.4796     753.8967     603.6348    6952.1100      -0.0273       2.4396
 5201.4120    5201.4120       8.5000      55.4898      10.5827    6532.6769       8.6002       8.6002     893.6473    1126.4200       3.5098     739.0029     598.4393    6890.2448      -0.0357       2.4384
 5201.2596    5201.2596       8.5000      55.6988      31.4142    6553.9124       8.6004       8.6004     874.9273    1126.9697       3.4920     723.3082     600.8705    6812.2942      -0.0435       2.4418
 5201.1072    5201.1072       8.5000      55.6369      35.9042    6559.0014       8.6008       8.6008     861.5108    1116.4109       3.4867     710.6012     603.2950    6762.7567      -0.0468       2.4464
 5200.9548    5200.9548       8.5000      55.1267      20.6396    6544.1932       8.6028       8.6028     857.5779    1109.9463       3.4851     714.4394     603.0571    6772.7618      -0.0441       2.4480
 5200.8024    5200.8024       8.5000      55.6744     -13.1640    6510.3854       8.6062       8.6062     865.6213    1122.0251       3.4730     739.3273     608.5781    6824.1001      -0.0400       2.4436
 5200.6500    5200.6500       8.5000      59.3802     -53.7683    6469.1494       8.6087       8.6087     876.7083    1140.7632       3.4591     767.5940     617.2585    6892.0077      -0.0351       2.4369
 5200.4976    5200.4976       8.5000      65.3838     -71.0512    6450.8119       8.6109       8.6109     878.1578    1148.0925       3.4501     780.9390     623.0976    6957.3890      -0.0278       2.4337
 5200.3452    5200.3452       8.5000      69.8241     -51.5556    6469.3510       8.6176       8.6176     871.8326    1139.6811       3.4441     772.7966     625.5605    6972.0262      -0.0239       2.4353
 5200.1928    5200.1928       8.5000      69.8673     -20.8471    6499.5232       8.6280       8.6280     866.5699    1120.5187       3.4389     755.2717     622.7796    6930.0791      -0.0261       2.4393
 5200.0404    5200.0404       8.5000      66.4643      -3.6530    6516.5319       8.6360       8.6360     864.2365    1113.8358       3.4345     751.6906     615.7697    6905.8971      -0.0280       2.4408
 5199.8880    5199.8880       8.5000      62.4559      -2.4757    6517.6627       8.6386       8.6386     868.6180    1134.7588       3.4675     763.9840     609.8733    6925.4767      -0.0289       2.4364
 5199.7356    5199.7356       8.5000      59.6641      -9.0427    6511.0166       8.6384       8.6384     884.3887    1160.3795       3.5027     779.7923     619.3902    6957.5535      -0.0302       2.4290
 5199.5832    5199.5832       8.5000      57.5998     -12.9778    6506.9317       8.6384       8.6384     905.9524    1172.2161       3.3692     796.1357     646.7483    6989.7411      -0.0304       2.4222
 5199.4308    5199.4308       8.5000      55.7095     -10.5215    6509.2372       8.6387       8.6387     925.1526    1185.2882       3.1977     812.8270     675.9244    7016.5054      -0.0311       2.4157
 5199.2784    5199.2784       8.5000      55.2919     -11.1237    6508.5052       8.6375       8.6375     937.7141    1206.9958       3.1531     823.3945     690.2200    7019.3001      -0.0351       2.4092
 5199.1260    5199.1260       8.5000      56.2873     -29.1349    6490.1822       8.6355       8.6355     950.4738    1218.6628       3.1298     830.6756     696.0183    7012.9507      -0.0390       2.4043
 5198.9736    5198.9736       8.5000      56.9164     -60.1044    6458.4464       8.6349       8.6349     960.5171    1215.1171       3.0973     838.1256     699.5887    7013.7005      -0.0397       2.4026
 5198.8212    5198.8212       8.5000      56.5908     -86.2664    6431.0133       8.6358       8.6358     951.1944    1191.3843       3.0715     830.0300     690.5938    7003.0923      -0.0369       2.4071
 5198.6688    5198.6688       8.5000      56.1334     -99.8884    6415.7863       8.6378       8.6378     922.5735    1145.3756       3.0644     803.3992     673.2469    6951.4169      -0.0340       2.4175
 5198.5164    5198.5164       8.5000      56.4324     -96.0146    6418.0194       8.6398       8.6398     904.1949    1117.3006       3.0738     785.2160     663.9602    6907.2197      -0.0337       2.4230
 5198.3640    5198.3640       8.5000      57.2950     -68.4731    6444.2495       8.6406       8.6406     922.1653    1148.8684       3.0565     804.7683     666.5754    6950.2321      -0.0346       2.4132
 5198.2116    5198.2116       8.5000      57.7622     -35.3245    6476.6147       8.6402       8.6402     959.9214    1214.4531       3.0647     848.6068     683.6510    7061.0312      -0.0335       2.3939
 5198.0592    5198.0592       8.5000      57.5524     -27.8994    6483.5149       8.6396       8.6396     989.0138    1262.0141       3.0529     879.7554     719.5675    7155.9885      -0.0308       2.3791
 5197.9068    5197.9068       8.5000      58.3815     -47.7929    6462.9029       8.6394       8.6394     990.7415    1268.4582       2.9697     876.0866     748.1772    7156.3968      -0.0317       2.3771
 5197.7544    5197.7544       8.5000      62.2730     -63.0063    6446.6600       8.6394       8.6394     954.2773    1224.0571       2.9092     840.3683     732.0506    6972.9747      -0.0453       2.3926
 5197.6020    5197.6020       8.5000      71.1261     -49.2585    6459.3997       8.6394       8.6394     883.1100    1131.9512       2.9828     777.3861     669.1776    6625.6734      -0.0702       2.4254
 5197.4496    5197.4496       8.5000      83.1091     -17.1545    6490.9287       8.6394       8.6394     803.0009    1021.3805       3.2952     688.9075     577.0265    6351.5213      -0.0815       2.4656
 5197.2972    5197.2972       8.5000      90.1263      11.4835    6519.5162       8.6387       8.6387     744.1349     946.8944       3.9228     611.3903     484.1442    6332.8734      -0.0637       2.4942
