~VERSION INFORMATION
VERS.           2.0   :CWLS Log ASCII Standard - VERSION 2.0
WRAP.           NO    :One Line per depth step
PROD.  Schlumberger   :LAS Producer
PROG.  DLIS to ASCII 2.3                               :LAS Program name and version
CREA.        2023/07/14 00:15                          :LAS Creation date {YYYY/MM/DD hh:mm}
DLIS_CREA.  2023-Jul-14 00:11                          :DLIS Creation date and time {YYYY-MMM-DD hh:mm}
SOURCE.     LIS_011.dlis                               :DLIS File Name
FILE-ID.     LIS   .004                                :File Identification Number
#--------------------------------------------------
~WELL INFORMATION
#MNEM.UNIT      DATA             DESCRIPTION
#---- ------ --------------   -----------------------------
STRT .M      5300.3196       :START DEPTH     
STOP .M      4931.0544       :STOP DEPTH     
STEP .M        -0.1524       :STEP     
NULL .          -999.25      :NULL VALUE
COMP .        PETROBRAS S.A.                           :COMPANY
WELL .        3-BRSA-293D-SPS                          :WELL
FLD  .        BS-400                                   :FIELD
LOC  .        BASE SAD 69:                             :LOCATION
CNTY .        SANTOS                                   :COUNTY
STAT .        BRASIL                                   :STATE
CTRY .        BRASIL                                   :COUNTRY
API  .                                                 :API NUMBER
UWI  .                                                 :UNIQUE WELL ID
DATE .        15/11/2004                               :LOG DATE
SRVC .        Schlumberger                             :SERVICE COMPANY
LATI .DEG                                              :LATITUDE
LONG .DEG                                              :LONGITUDE
GDAT .                                                 :GeoDetic Datum
#-----------------------------------------------------------------------------
~PARAMETER INFORMATION
#MNEM.UNIT    VALUE                      DESCRIPTION
#---- -----   --------------------       ------------------------
APD  .M               24                 :
BHT  .DEGF           260                 :
BLI  .M             5289                 :
BS   .IN         8.50000                 :
CN   .        PETROBRAS S.A.             :
COUN .        SANTOS                     :
CS   .IN         9.62500                 :
DATE .        15/11/2004                 :
DFD  .LB/G      12.30000                 :
DFL  .C3               2                 :
DFPH .        N/A                        :
DFT  .        SINTETICO                  :
DFV  .S               95                 :
DMF  .        MESA ROTATIVA              :
EDF  .M               24                 :
EGL  .M             -500                 :
EKB  .        N/A                        :
ENGI .        HERNANDEZ / LOCK           :
FL1  .        X   7292392.00 M LAT 24 28 47.189 S :
FL2  .        Y    584087.00 M LON 44 10 12.698 W :
FL3  .        MC  45 GRAUS               :
FN   .        BS-400                     :
LMF  .        MESA ROTATIVA              :
LUL  .        MACAE                      :
MCSS .        PRENSA                     :
MCST .DEGF            80                 :
MFSS .        PRENSA                     :
MFST .DEGF            80                 :
MSS  .        LINHA DE FLUXO             :
MST  .DEGF            80                 :
PDAT .        NIVEL DO MAR               :
R1   .        01. APRESENTAÇÃO DE ACORDO COM REQUERIMENTO DO CLIENTE :
R2   .        02. TEMPERATURA MÁXIMA DO POÇO T1=T2= 290 DEGF @  5275 M :
R3   .        03. INICIO DA CIRCULAÇÃO  12/11/2004 09 00 H :
R4   .        04. FINAL DA CIRCULAÇÃO   12/11/2004 18 00 H :
R5   .        05. TEMPO TOTAL DE CIRCULAÇÃO   09 00 H :
R6   .        06. FLUIDO DE PERFURAÇÃO  SINTETICO (BR-MUL  BR-MI)  60% TEOR DO OLEO :
R7   .        07. SALINIDADE DA LAMA  254762 PPM NACL NA FASE DE AGUA :
R8   .        08. INCLINAÇÃO MÁXIMA DO POÇO  37.37 GRAUS @ 5100 M :
R9   .        09. PRIMEIRAS E ULTIMAS LEITURAS  :
RMB  .OHMM    > 10                       :
RMCS .OHMM    > 10                       :
RMFS .OHMM    > 10                       :
RMS  .OHMM    >10                        :
RUN  .                 2                 :
STAT .        BRASIL                     :
TCS  .        18 00 H                    :
TDD  .M             5288                 :
TDL  .M             5293                 :
TLAB .        N/A                        :
TLI  .M             5000                 :
WITN .        ERNANI / ZE MARIA          :
WN   .        3-BRSA-293D-SPS            :
LUN  .              8808                 :
HIDE .        3-SPS-41D                  :
HID2 .        HIGH DEFINITION INDUCTION LOG :
HID3 .        X-MULTIPOLE ARRAY ACOUSTILOG :
HID4 .        GAMMA RAY LOG              :
HID5 .        TTRM SUB                   :
CLAB .        BACIA                      :
SLAB .        PAIS                       :
CMT1 .        ESC  1 200                 :
CMT2 .        PROF. MEDIDA               :
CMT4 .        SONDA  SS-43               :
HDAT .        SAD 69                     :
FL   .        BASE SAD 69                :
OS1  .        RCI/GR                     :
OS2  .        CHECK SHOT                 :
OS3  .        GR/CN/ZDL                  :
OS5  .        RCOR/GR                    :
LNAM .        ZDL/CN/XMAC/HDIL/EARTH IMAGER/RCI/RCOR/CHECK SHOT/GR :
TOOL .        ZDL/CN/XMAC/HDIL/EARTH IMAGER/RCI/RCOR/CHECK SHOT/GR :
LSOU .        PETROBRAS                  :
LSRV .        OH WIRELINE                :
LTYP .        RAW                        :
EPD  .M                0                 :
LDAT .        15/11/2004                 :
TRIP .                 3                 :
SON  .            786588                 :
CBDR .M             4277                 :
CBLO .        NR                         :
CBL1 .        NR                         :
STEM .DEGF    N/A                        :
BSAL .            254762                 :
BARI .        OFF                        :
DLAB .        12/11/2004                 :
MRT  .DEGF           290                 :
TSTR .        HDIL/XMAC/GR/TTRM          :
TSTG .        N/A                        :
STUS .        FINAL                      :
LCNM .        BAKER ATLAS                :
LCC  .               150                 :
NATI .        BRASIL                     :
OPMD .        OH.WIRELINE                :
PANA .        HERNANDEZ / LOCK           :
PCON .        BAKER ATLAS                :
R11  .        SL     5268.3 M / 5000.0 M :
R12  .        GR     5268.3 M / 5000.0 M :
R13  .        XMAC   5279.5 M / 5000.0 M :
R14  .        HDIL   5289.0 M / 5000.0 M :
R17  .        11. DECLINAÇÃO MAGNETICA  -20.9 GRAUS :
R18  .        12. COORDENADAS BASE       :
R21  .        Y    583936.00 M           :
R22  .        MC  45 GRAUS               :
PVER .           4.10000                 :
WDFN .        /space/expusr/3-SPS-41D_RUN2/i77bf02_4spf.xtf :
OCT  .        i77bf                      :
OS4  .        EARTH IMAGER               :
R16  .        10. PONTO FRACO UTILIZADO  10K :
R20  .        X   7292512.00 M           :
R24  .        13. CADASTRO ANP  86316021017 :
#-----------------------------------------------------------------------------
~CURVE INFORMATION
#MNEM.UNIT   API CODE                                  DESCRIPTION
#---- -----  --------                                  -----------------------
DEPT .M                                                :DEPTH (BOREHOLE) {F10.4}
DEPT .M                                                : {F13.4}
BIT  .IN                                               : {F13.4}
GR   .GAPI                                             : {F13.4}
M2R1 .OHMM                                             : {F13.4}
M2R2 .OHMM                                             : {F13.4}
M2R3 .OHMM                                             : {F13.4}
M2R6 .OHMM                                             : {F13.4}
M2R9 .OHMM                                             : {F13.4}
M2RX .OHMM                                             : {F13.4}
SPD  .M/MN                                             : {F13.4}
TEN  .LBF                                              : {F13.4}
TTEN .LBF                                              : {F13.4}
#-----------------------------------------------------------------------------
# 
#     DEPT        DEPT         BIT          GR           M2R1         M2R2         M2R3         M2R6         M2R9         M2RX         SPD          TEN          TTEN
#
~A  
# ...
 5139.3852    5139.3852       8.5000      72.4874       1.0862       1.5525       1.8747       2.0073       2.0360       2.0853       4.8567       8.2612    7506.3160
 5139.2328    5139.2328       8.5000      68.4561       1.1557       1.6264       1.9573       2.0954       2.1243       2.1788       4.8681      -7.0491    7490.9086
 5139.0804    5139.0804       8.5000      66.8379       1.2538       1.7319       2.0763       2.2239       2.2543       2.3157       4.8786     -12.9628    7484.7243
 5138.9280    5138.9280       8.5000      68.8517       1.3695       1.8643       2.2288       2.3900       2.4235       2.4938       4.8836     -14.2731    7483.1348
 5138.7756    5138.7756       8.5000      73.5365       1.4467       1.9598       2.3418       2.5157       2.5529       2.6314       4.8808     -21.1258    7475.9586
 5138.6232    5138.6232       8.5000      78.1886       1.4164       1.9298       2.3110       2.4879       2.5276       2.6093       4.8695     -18.2117    7478.5024
 5138.4708    5138.4708       8.5000      80.4205       1.3060       1.8008       2.1654       2.3364       2.3766       2.4566       4.8588      22.2793    7519.0621
 5138.3184    5138.3184       8.5000      80.0364       1.2074       1.6876       2.0386       2.2038       2.2443       2.3221       4.8530      90.3463    7588.2744
 5138.1660    5138.1660       8.5000      78.5679       1.1624       1.6444       1.9943       2.1589       2.2006       2.2780       4.8503     141.1480    7641.3037
 5138.0136    5138.0136       8.5000      77.2151       1.1570       1.6509       2.0067       2.1738       2.2170       2.2953       4.8573     139.9569    7642.7035
 5137.8612    5137.8612       8.5000      75.3728       1.1677       1.6718       2.0323       2.2015       2.2458       2.3244       4.8694      96.8252    7601.6264
 5137.7088    5137.7088       8.5000      73.1848       1.1953       1.7070       2.0705       2.2420       2.2871       2.3658       4.8740      65.1628    7571.2689
 5137.5564    5137.5564       8.5000      72.4542       1.2572       1.7809       2.1515       2.3285       2.3752       2.4551       4.8728      65.3170    7572.5211
 5137.4040    5137.4040       8.5000      73.7060       1.3397       1.8736       2.2525       2.4373       2.4864       2.5682       4.8662      66.8462    7575.2713
 5137.2516    5137.2516       8.5000      74.9984       1.3894       1.9146       2.2908       2.4794       2.5307       2.6122       4.8528      61.7932    7571.3845
 5137.0992    5137.0992       8.5000      75.7295       1.3973       1.9020       2.2669       2.4553       2.5084       2.5881       4.8421      69.3206    7580.0550
 5136.9468    5136.9468       8.5000      76.5824       1.4228       1.9281       2.2899       2.4828       2.5401       2.6207       4.8402      79.3157    7591.3582
 5136.7944    5136.7944       8.5000      76.6918       1.4986       2.0404       2.4136       2.6195       2.6846       2.7708       4.8453      68.5503    7581.8888
 5136.6420    5136.6420       8.5000      74.3820       1.5723       2.1592       2.5398       2.7573       2.8314       2.9247       4.8563      46.3957    7560.7161
 5136.4896    5136.4896       8.5000      70.7168       1.5762       2.1694       2.5326       2.7480       2.8276       2.9246       4.8655      45.0080    7560.1135
 5136.3372    5136.3372       8.5000      68.0944       1.5560       2.1164       2.4495       2.6545       2.7368       2.8359       4.8654      65.9391    7582.0855
 5136.1848    5136.1848       8.5000      67.4451       1.5804       2.1012       2.4135       2.6120       2.6983       2.8025       4.8576      74.8554    7592.3681
 5136.0324    5136.0324       8.5000      68.2175       1.6206       2.1047       2.4068       2.6037       2.6955       2.8073       4.8527      51.8111    7570.5171
 5135.8800    5135.8800       8.5000      69.6541       1.6260       2.0785       2.3771       2.5759       2.6733       2.7932       4.8536      17.8245    7537.1157
 5135.7276    5135.7276       8.5000      70.7389       1.6186       2.0554       2.3627       2.5728       2.6783       2.8087       4.8532       4.4222    7523.8124
 5135.5752    5135.5752       8.5000      70.5807       1.6433       2.0875       2.4245       2.6638       2.7839       2.9311       4.8466      29.1639    7548.7969
 5135.4228    5135.4229       8.5000      69.7827       1.7314       2.2179       2.6163       2.9124       3.0585       3.2342       4.8447      72.3026    7592.9150
 5135.2704    5135.2704       8.5000      69.8867       1.9084       2.5044       3.0158       3.4135       3.6056       3.8300       4.8553      96.6505    7618.9154
 5135.1180    5135.1180       8.5000      71.4346       2.1184       2.9131       3.5891       4.1396       4.4013       4.6967       4.8698     103.7066    7627.8215
 5134.9656    5134.9656       8.5000      72.3169       2.1833       3.1894       4.0101       4.7110       5.0431       5.4056       4.8771     130.3414    7656.5725
 5134.8132    5134.8132       8.5000      71.5977       2.0468       3.1270       3.9791       4.7472       5.1145       5.5055       4.8697     185.3555    7714.5509
 5134.6608    5134.6608       8.5000      70.4740       1.8778       2.8688       3.6511       4.3970       4.7596       5.1417       4.8541     248.1052    7781.4151
 5134.5084    5134.5084       8.5000      70.1483       1.8523       2.7109       3.4204       4.1292       4.4796       4.8538       4.8469     283.2280    7821.5366
 5134.3560    5134.3560       8.5000      69.8498       2.0773       2.8417       3.5431       4.2612       4.6184       5.0154       4.8539     249.2800    7792.5000
 5134.2036    5134.2036       8.5000      69.2479       2.6091       3.3148       4.0872       4.8771       5.2628       5.7245       4.8606     150.7878    7697.5175
 5134.0512    5134.0512       8.5000      69.5245       3.3545       3.9691       4.8544       5.7403       6.1459       6.6876       4.8632      50.3504    7598.6909
 5133.8988    5133.8988       8.5000      73.3505       4.2254       4.6840       5.6945       6.6875       7.0906       7.7109       4.8658       1.2628    7549.8977
 5133.7464    5133.7464       8.5000      83.7266       5.2851       5.5598       6.7324       7.8818       8.2664       8.9756       4.8708       1.7033    7550.2793
 5133.5940    5133.5940       8.5000     101.2975       6.3125       6.5015       7.8755       9.2360       9.5907      10.3907       4.8753      34.5023    7583.3781
 5133.4416    5133.4416       8.5000     120.3884       7.0429       7.4915       9.1362      10.7635      11.0807      11.9674       4.8738      84.7339    7634.7460
 5133.2892    5133.2892       8.5000     132.9860       6.8302       7.8889       9.7456      11.5427      11.8100      12.7067       4.8633     141.7940    7694.0336
 5133.1368    5133.1368       8.5000     135.7141       5.3038       6.7424       8.4656      10.0663      10.2620      10.9938       4.8508     198.4017    7753.9244
 5132.9844    5132.9844       8.5000     131.6974       3.7936       5.1791       6.5878       7.8325       7.9719       8.5007       4.8423     239.6668    7799.2773
 5132.8320    5132.8320       8.5000     126.0813       2.9555       4.2163       5.3928       6.3697       6.4730       6.8660       4.8422     222.1295    7785.9326
 5132.6796    5132.6796       8.5000     122.0420       2.5554       3.7554       4.8041       5.6146       5.6966       6.0111       4.8528     127.6946    7694.5586
 5132.5272    5132.5272       8.5000     119.8941       2.3458       3.5156       4.4764       5.1610       5.2204       5.4797       4.8662      21.7327    7589.7462
 5132.3748    5132.3748       8.5000     119.5631       2.2036       3.3340       4.2081       4.7862       4.8227       5.0388       4.8739     -15.7279    7552.1842
 5132.2224    5132.2224       8.5000     120.4079       2.0977       3.1752       3.9645       4.4507       4.4642       4.6461       4.8744       8.9827    7576.8241
