~VERSION INFORMATION
VERS.           2.0   :CWLS Log ASCII Standard - VERSION 2.0
WRAP.           NO    :One Line per depth step
PROD.  Schlumberger   :LAS Producer
PROG.  DLIS to ASCII 2.3                               :LAS Program name and version
CREA.        2023/07/14 00:15                          :LAS Creation date {YYYY/MM/DD hh:mm}
DLIS_CREA.  2023-Jul-14 00:11                          :DLIS Creation date and time {YYYY-MMM-DD hh:mm}
SOURCE.     LIS_011.dlis                               :DLIS File Name
FILE-ID.     LIS   .004                                :File Identification Number
#--------------------------------------------------
~WELL INFORMATION
#MNEM.UNIT      DATA             DESCRIPTION
#---- ------ --------------   -----------------------------
STRT .M      5300.3196       :START DEPTH     
STOP .M      4931.0544       :STOP DEPTH     
STEP .M        -0.1524       :STEP     
NULL .          -999.25      :NULL VALUE
COMP .        PETROBRAS S.A.                           :COMPANY
WELL .        3-BRSA-293D-SPS                          :WELL
FLD  .        BS-400                                   :FIELD
LOC  .        BASE SAD 69:                             :LOCATION
CNTY .        SANTOS                                   :COUNTY
STAT .        BRASIL                                   :STATE
CTRY .        BRASIL                                   :COUNTRY
API  .                                                 :API NUMBER
UWI  .                                                 :UNIQUE WELL ID
DATE .        15/11/2004                               :LOG DATE
SRVC .        Schlumberger                             :SERVICE COMPANY
LATI .DEG                                              :LATITUDE
LONG .DEG                                              :LONGITUDE
GDAT .                                                 :GeoDetic Datum
#-----------------------------------------------------------------------------
~PARAMETER INFORMATION
#MNEM.UNIT    VALUE                      DESCRIPTION
#---- -----   --------------------       ------------------------
APD  .M               24                 :
BHT  .DEGF           260                 :
BLI  .M             5289                 :
BS   .IN         8.50000                 :
CN   .        PETROBRAS S.A.             :
COUN .        SANTOS                     :
CS   .IN         9.62500                 :
DATE .        15/11/2004                 :
DFD  .LB/G      12.30000                 :
DFL  .C3               2                 :
DFPH .        N/A                        :
DFT  .        SINTETICO                  :
DFV  .S               95                 :
DMF  .        MESA ROTATIVA              :
EDF  .M               24                 :
EGL  .M             -500                 :
EKB  .        N/A                        :
ENGI .        HERNANDEZ / LOCK           :
FL1  .        X   7292392.00 M LAT 24 28 47.189 S :
FL2  .        Y    584087.00 M LON 44 10 12.698 W :
FL3  .        MC  45 GRAUS               :
FN   .        BS-400                     :
LMF  .        MESA ROTATIVA              :
LUL  .        MACAE                      :
MCSS .        PRENSA                     :
MCST .DEGF            80                 :
MFSS .        PRENSA                     :
MFST .DEGF            80                 :
MSS  .        LINHA DE FLUXO             :
MST  .DEGF            80                 :
PDAT .        NIVEL DO MAR               :
R1   .        01. APRESENTAÇÃO DE ACORDO COM REQUERIMENTO DO CLIENTE :
R2   .        02. TEMPERATURA MÁXIMA DO POÇO T1=T2= 290 DEGF @  5275 M :
R3   .        03. INICIO DA CIRCULAÇÃO  12/11/2004 09 00 H :
R4   .        04. FINAL DA CIRCULAÇÃO   12/11/2004 18 00 H :
R5   .        05. TEMPO TOTAL DE CIRCULAÇÃO   09 00 H :
R6   .        06. FLUIDO DE PERFURAÇÃO  SINTETICO (BR-MUL  BR-MI)  60% TEOR DO OLEO :
R7   .        07. SALINIDADE DA LAMA  254762 PPM NACL NA FASE DE AGUA :
R8   .        08. INCLINAÇÃO MÁXIMA DO POÇO  37.37 GRAUS @ 5100 M :
R9   .        09. PRIMEIRAS E ULTIMAS LEITURAS  :
RMB  .OHMM    > 10                       :
RMCS .OHMM    > 10                       :
RMFS .OHMM    > 10                       :
RMS  .OHMM    >10                        :
RUN  .                 2                 :
STAT .        BRASIL                     :
TCS  .        18 00 H                    :
TDD  .M             5288                 :
TDL  .M             5293                 :
TLAB .        N/A                        :
TLI  .M             5000                 :
WITN .        ERNANI / ZE MARIA          :
WN   .        3-BRSA-293D-SPS            :
LUN  .              8808                 :
HIDE .        3-SPS-41D                  :
HID2 .        HIGH DEFINITION INDUCTION LOG :
HID3 .        X-MULTIPOLE ARRAY ACOUSTILOG :
HID4 .        GAMMA RAY LOG              :
HID5 .        TTRM SUB                   :
CLAB .        BACIA                      :
SLAB .        PAIS                       :
CMT1 .        ESC  1 200                 :
CMT2 .        PROF. MEDIDA               :
CMT4 .        SONDA  SS-43               :
HDAT .        SAD 69                     :
FL   .        BASE SAD 69                :
OS1  .        RCI/GR                     :
OS2  .        CHECK SHOT                 :
OS3  .        GR/CN/ZDL                  :
OS5  .        RCOR/GR                    :
LNAM .        ZDL/CN/XMAC/HDIL/EARTH IMAGER/RCI/RCOR/CHECK SHOT/GR :
TOOL .        ZDL/CN/XMAC/HDIL/EARTH IMAGER/RCI/RCOR/CHECK SHOT/GR :
LSOU .        PETROBRAS                  :
LSRV .        OH WIRELINE                :
LTYP .        RAW                        :
EPD  .M                0                 :
LDAT .        15/11/2004                 :
TRIP .                 3                 :
SON  .            786588                 :
CBDR .M             4277                 :
CBLO .        NR                         :
CBL1 .        NR                         :
STEM .DEGF    N/A                        :
BSAL .            254762                 :
BARI .        OFF                        :
DLAB .        12/11/2004                 :
MRT  .DEGF           290                 :
TSTR .        HDIL/XMAC/GR/TTRM          :
TSTG .        N/A                        :
STUS .        FINAL                      :
LCNM .        BAKER ATLAS                :
LCC  .               150                 :
NATI .        BRASIL                     :
OPMD .        OH.WIRELINE                :
PANA .        HERNANDEZ / LOCK           :
PCON .        BAKER ATLAS                :
R11  .        SL     5268.3 M / 5000.0 M :
R12  .        GR     5268.3 M / 5000.0 M :
R13  .        XMAC   5279.5 M / 5000.0 M :
R14  .        HDIL   5289.0 M / 5000.0 M :
R17  .        11. DECLINAÇÃO MAGNETICA  -20.9 GRAUS :
R18  .        12. COORDENADAS BASE       :
R21  .        Y    583936.00 M           :
R22  .        MC  45 GRAUS               :
PVER .           4.10000                 :
WDFN .        /space/expusr/3-SPS-41D_RUN2/i77bf02_4spf.xtf :
OCT  .        i77bf                      :
OS4  .        EARTH IMAGER               :
R16  .        10. PONTO FRACO UTILIZADO  10K :
R20  .        X   7292512.00 M           :
R24  .        13. CADASTRO ANP  86316021017 :
#-----------------------------------------------------------------------------
~CURVE INFORMATION
#MNEM.UNIT   API CODE                                  DESCRIPTION
#---- -----  --------                                  -----------------------
DEPT .M                                                :DEPTH (BOREHOLE) {F10.4}
DEPT .M                                                : {F13.4}
BIT  .IN                                               : {F13.4}
GR   .GAPI                                             : {F13.4}
M2R1 .OHMM                                             : {F13.4}
M2R2 .OHMM                                             : {F13.4}
M2R3 .OHMM                                             : {F13.4}
M2R6 .OHMM                                             : {F13.4}
M2R9 .OHMM                                             : {F13.4}
M2RX .OHMM                                             : {F13.4}
SPD  .M/MN                                             : {F13.4}
TEN  .LBF                                              : {F13.4}
TTEN .LBF                                              : {F13.4}
#-----------------------------------------------------------------------------
# 
#     DEPT        DEPT         BIT          GR           M2R1         M2R2         M2R3         M2R6         M2R9         M2RX         SPD          TEN          TTEN
#
~A  
# ...
 5117.4396    5117.4396       8.5000      94.7452       2.1187       3.2782       4.2878       5.0062       5.1864       5.3302       4.8699      33.5396    7668.2154
 5117.2872    5117.2872       8.5000      87.2504       2.0205       3.1262       4.0749       4.7443       4.9131       5.0515       4.8617      14.7162    7649.8088
 5117.1348    5117.1348       8.5000      82.0561       2.0007       3.0842       4.0005       4.6405       4.8010       4.9378       4.8469      -0.6289    7634.4854
 5116.9824    5116.9824       8.5000      79.6416       2.0452       3.1315       4.0398       4.6683       4.8236       4.9619       4.8393      10.7195    7645.8359
 5116.8300    5116.8300       8.5000      79.2171       2.1350       3.2381       4.1561       4.7867       4.9392       5.0815       4.8489      21.0363    7656.4073
 5116.6776    5116.6776       8.5000      79.8342       2.2587       3.3895       4.3332       4.9786       5.1313       5.2797       4.8627       3.7095    7639.2654
 5116.5252    5116.5252       8.5000      80.5842       2.3973       3.5633       4.5450       5.2155       5.3717       5.5277       4.8653     -12.8380    7622.5972
 5116.3728    5116.3728       8.5000      81.5166       2.5183       3.7171       4.7385       5.4371       5.5989       5.7625       4.8602      -0.1521    7635.2096
 5116.2204    5116.2204       8.5000      83.3959       2.6091       3.8338       4.8910       5.6173       5.7866       5.9569       4.8587      31.2775    7667.0174
 5116.0680    5116.0680       8.5000      85.3544       2.6794       3.9257       5.0146       5.7683       5.9472       6.1237       4.8610      60.9993    7697.6292
 5115.9156    5115.9156       8.5000      86.3535       2.7367       4.0010       5.1152       5.8943       6.0839       6.2662       4.8617      64.6496    7702.3967
 5115.7632    5115.7632       8.5000      88.3972       2.7825       4.0599       5.1885       5.9873       6.1872       6.3744       4.8565      28.5156    7666.9874
 5115.6108    5115.6108       8.5000      93.2595       2.8066       4.0837       5.2076       6.0133       6.2200       6.4098       4.8491     -22.4583    7615.8927
 5115.4584    5115.4584       8.5000      98.2347       2.7959       4.0483       5.1409       5.9336       6.1409       6.3297       4.8469     -56.9192    7580.5949
 5115.3060    5115.3060       8.5000      98.8390       2.7570       3.9632       5.0026       5.7641       5.9656       6.1501       4.8553     -63.8062    7572.6211
 5115.1536    5115.1536       8.5000      94.0908       2.7093       3.8637       4.8422       5.5628       5.7540       5.9327       4.8673     -45.2233    7590.3121
 5115.0012    5115.0012       8.5000      87.6877       2.6632       3.7746       4.6965       5.3744       5.5530       5.7258       4.8725      -8.4426    7626.7510
 5114.8488    5114.8488       8.5000      83.7431       2.6180       3.7012       4.5771       5.2141       5.3793       5.5464       4.8695      24.0317    7659.5438
 5114.6964    5114.6964       8.5000      83.0168       2.5890       3.6650       4.5127       5.1168       5.2696       5.4325       4.8632      18.7479    7654.7765
 5114.5440    5114.5439       8.5000      83.7169       2.6161       3.7179       4.5663       5.1546       5.2983       5.4609       4.8602     -27.2352    7608.7188
 5114.3916    5114.3916       8.5000      84.0325       2.7080       3.8651       4.7414       5.3317       5.4699       5.6357       4.8580     -56.8208    7578.3447
 5114.2392    5114.2393       8.5000      83.4627       2.8162       4.0272       4.9374       5.5358       5.6694       5.8385       4.8503     -23.4334    7611.0752
 5114.0868    5114.0868       8.5000      82.0948       2.8950       4.1289       5.0595       5.6617       5.7898       5.9589       4.8376      51.5593    7686.4242
 5113.9344    5113.9344       8.5000      81.4168       2.9540       4.1852       5.1259       5.7304       5.8536       6.0203       4.8351     124.6056    7761.0712
 5113.7820    5113.7820       8.5000      83.4755       3.0281       4.2563       5.2114       5.8248       5.9460       6.1103       4.8452     175.3294    7814.4015
 5113.6296    5113.6296       8.5000      87.6495       3.1268       4.3671       5.3478       5.9788       6.1019       6.2647       4.8557     203.4724    7845.8450
 5113.4772    5113.4772       8.5000      91.0229       3.2293       4.4962       5.5094       6.1616       6.2897       6.4513       4.8613     225.8163    7872.0451
 5113.3248    5113.3248       8.5000      93.1903       3.3036       4.6046       5.6478       6.3172       6.4518       6.6108       4.8580     237.3955    7887.9296
 5113.1724    5113.1724       8.5000      96.4831       3.3196       4.6524       5.7124       6.3877       6.5283       6.6822       4.8469     186.5160    7840.9516
 5113.0200    5113.0200       8.5000     101.3204       3.2635       4.6155       5.6710       6.3363       6.4801       6.6263       4.8400      71.1574    7727.7509
 5112.8676    5112.8676       8.5000     105.6825       3.1425       4.4913       5.5177       6.1569       6.2998       6.4357       4.8444     -28.7962    7627.9071
 5112.7152    5112.7152       8.5000     105.8715       2.9793       4.2963       5.2709       5.8710       6.0084       6.1329       4.8495     -56.6203    7599.1247
 5112.5628    5112.5628       8.5000      99.5186       2.8124       4.0750       4.9829       5.5421       5.6706       5.7842       4.8547     -30.0089    7624.8912
 5112.4104    5112.4104       8.5000      90.4375       2.6854       3.8893       4.7393       5.2592       5.3784       5.4836       4.8607      22.2800    7677.1382
 5112.2580    5112.2580       8.5000      84.3092       2.6257       3.7851       4.5962       5.0897       5.2012       5.3021       4.8627      73.1125    7728.9172
 5112.1056    5112.1056       8.5000      82.4840       2.6475       3.7926       4.5935       5.0787       5.1857       5.2874       4.8631      87.9206    7745.2568
 5111.9532    5111.9532       8.5000      82.7373       2.7470       3.9167       4.7401       5.2369       5.3438       5.4517       4.8623      50.2120    7708.7954
 5111.8008    5111.8008       8.5000      83.5376       2.8821       4.1048       4.9753       5.4988       5.6094       5.7282       4.8548     -12.7324    7646.0986
 5111.6484    5111.6484       8.5000      83.9377       2.9890       4.2661       5.1891       5.7443       5.8608       5.9931       4.8443     -46.0738    7612.1123
 5111.4960    5111.4960       8.5000      83.7178       3.0465       4.3650       5.3371       5.9204       6.0447       6.1915       4.8411     -22.1645    7635.4090
 5111.3436    5111.3436       8.5000      84.1590       3.0802       4.4293       5.4410       6.0541       6.1886       6.3509       4.8488      26.2069    7683.9475
 5111.1912    5111.1912       8.5000      84.9452       3.1117       4.4810       5.5197       6.1616       6.3080       6.4866       4.8625      51.4182    7709.9411
 5111.0388    5111.0388       8.5000      84.5377       3.1452       4.5180       5.5638       6.2266       6.3851       6.5790       4.8713      33.2549    7692.4383
 5110.8864    5110.8864       8.5000      82.7290       3.1813       4.5361       5.5645       6.2348       6.4035       6.6100       4.8697     -14.1843    7644.9260
 5110.7340    5110.7340       8.5000      80.9666       3.2193       4.5365       5.5250       6.1871       6.3628       6.5780       4.8637     -56.9890    7601.2015
 5110.5816    5110.5816       8.5000      80.0215       3.2561       4.5228       5.4567       6.0960       6.2749       6.4942       4.8598     -65.5049    7591.3509
 5110.4292    5110.4292       8.5000      79.5286       3.2875       4.5021       5.3760       5.9819       6.1608       6.3798       4.8566     -50.7989    7604.8938
 5110.2768    5110.2768       8.5000      80.0287       3.3065       4.4752       5.2887       5.8545       6.0306       6.2452       4.8533     -49.1637    7605.5767
