~VERSION INFORMATION
VERS.           2.0   :CWLS Log ASCII Standard - VERSION 2.0
WRAP.           NO    :One Line per depth step
PROD.  Schlumberger   :LAS Producer
PROG.  DLIS to ASCII 2.3                               :LAS Program name and version
CREA.        2023/07/14 00:15                          :LAS Creation date {YYYY/MM/DD hh:mm}
DLIS_CREA.  2023-Jul-14 00:11                          :DLIS Creation date and time {YYYY-MMM-DD hh:mm}
SOURCE.     LIS_008.dlis                               :DLIS File Name
FILE-ID.     LIS   .001                                :File Identification Number
#--------------------------------------------------
~WELL INFORMATION
#MNEM.UNIT      DATA             DESCRIPTION
#---- ------ --------------   -----------------------------
STRT .M      5286.4512       :START DEPTH     
STOP .M      5066.6904       :STOP DEPTH     
STEP .M        -0.1524       :STEP     
NULL .          -999.25      :NULL VALUE
COMP .        PETROBRAS S.A.                           :COMPANY
WELL .        3-BRSA-293D-SPS                          :WELL
FLD  .        BS-400                                   :FIELD
LOC  .        BASE SAD 69:                             :LOCATION
CNTY .        SANTOS                                   :COUNTY
STAT .        BRASIL                                   :STATE
CTRY .        BRASIL                                   :COUNTRY
API  .                                                 :API NUMBER
UWI  .                                                 :UNIQUE WELL ID
DATE .        15/11/2004                               :LOG DATE
SRVC .        Schlumberger                             :SERVICE COMPANY
LATI .DEG                                              :LATITUDE
LONG .DEG                                              :LONGITUDE
GDAT .                                                 :GeoDetic Datum
#-----------------------------------------------------------------------------
~PARAMETER INFORMATION
#MNEM.UNIT    VALUE                      DESCRIPTION
#---- -----   --------------------       ------------------------
APD  .M               24                 :
BHT  .DEGF           260                 :
BLI  .M             5289                 :
BS   .IN         8.50000                 :
CN   .        PETROBRAS S.A.             :
COUN .        SANTOS                     :
CS   .IN         9.62500                 :
DATE .        15/11/2004                 :
DFD  .LB/G      12.30000                 :
DFL  .C3               2                 :
DFPH .        N/A                        :
DFT  .        SINTETICO                  :
DFV  .S               95                 :
DMF  .        MESA ROTATIVA              :
EDF  .M               24                 :
EGL  .M             -500                 :
EKB  .        N/A                        :
ENGI .        HERNANDEZ / LOCK           :
FL1  .        X   7292392.00 M LAT 24 28 47.189 S :
FL2  .        Y    584087.00 M LON 44 10 12.698 W :
FL3  .        MC  45 GRAUS               :
FN   .        BS-400                     :
LMF  .        MESA ROTATIVA              :
LUL  .        MACAE                      :
MCSS .        PRENSA                     :
MCST .DEGF            80                 :
MFSS .        PRENSA                     :
MFST .DEGF            80                 :
MSS  .        LINHA DE FLUXO             :
MST  .DEGF            80                 :
PDAT .        NIVEL DO MAR               :
R1   .        01. APRESENTAÇÃO DE ACORDO COM REQUERIMENTO DO CLIENTE :
R2   .        02. TEMPERATURA MÁXIMA DO POÇO T1=T2= 290 DEGF @  5275 M :
R3   .        03. INICIO DA CIRCULAÇÃO  12/11/2004 09 00 H :
R4   .        04. FINAL DA CIRCULAÇÃO   12/11/2004 18 00 H :
R5   .        05. TEMPO TOTAL DE CIRCULAÇÃO   09 00 H :
R6   .        06. FLUIDO DE PERFURAÇÃO  SINTETICO (BR-MUL  BR-MI)  60% TEOR DO OLEO :
R7   .        07. SALINIDADE DA LAMA  254762 PPM NACL NA FASE DE AGUA :
R8   .        08. INCLINAÇÃO MÁXIMA DO POÇO  37.37 GRAUS @ 5100 M :
R9   .        09. PRIMEIRAS E ULTIMAS LEITURAS  :
RMB  .OHMM    > 10                       :
RMCS .OHMM    > 10                       :
RMFS .OHMM    > 10                       :
RMS  .OHMM    >10                        :
RUN  .                 2                 :
STAT .        BRASIL                     :
TCS  .        18 00 H                    :
TDD  .M             5288                 :
TDL  .M             5293                 :
TLAB .        N/A                        :
TLI  .M             5000                 :
WITN .        ERNANI / ZE MARIA          :
WN   .        3-BRSA-293D-SPS            :
LUN  .              8808                 :
HIDE .        3-SPS-41D                  :
HID2 .        HIGH DEFINITION INDUCTION LOG :
HID3 .        X-MULTIPOLE ARRAY ACOUSTILOG :
HID4 .        GAMMA RAY LOG              :
HID5 .        TTRM SUB                   :
CLAB .        BACIA                      :
SLAB .        PAIS                       :
CMT1 .        ESC  1 200                 :
CMT2 .        PROF. MEDIDA               :
CMT4 .        SONDA  SS-43               :
HDAT .        SAD 69                     :
FL   .        BASE SAD 69                :
OS1  .        RCI/GR                     :
OS2  .        CHECK SHOT                 :
OS3  .        GR/CN/ZDL                  :
OS5  .        RCOR/GR                    :
LNAM .        ZDL/CN/XMAC/HDIL/EARTH IMAGER/RCI/RCOR/CHECK SHOT/GR :
TOOL .        ZDL/CN/XMAC/HDIL/EARTH IMAGER/RCI/RCOR/CHECK SHOT/GR :
LSOU .        PETROBRAS                  :
LSRV .        OH WIRELINE                :
LTYP .        RAW                        :
EPD  .M                0                 :
LDAT .        15/11/2004                 :
TRIP .                 3                 :
SON  .            786588                 :
CBDR .M             4277                 :
CBLO .        NR                         :
CBL1 .        NR                         :
STEM .DEGF    N/A                        :
BSAL .            254762                 :
BARI .        OFF                        :
DLAB .        12/11/2004                 :
MRT  .DEGF           290                 :
TSTR .        HDIL/XMAC/GR/TTRM          :
TSTG .        N/A                        :
STUS .        FINAL                      :
LCNM .        BAKER ATLAS                :
LCC  .               150                 :
NATI .        BRASIL                     :
OPMD .        OH.WIRELINE                :
PANA .        HERNANDEZ / LOCK           :
PCON .        BAKER ATLAS                :
R11  .        SL     5268.3 M / 5000.0 M :
R12  .        GR     5268.3 M / 5000.0 M :
R13  .        XMAC   5279.5 M / 5000.0 M :
R14  .        HDIL   5289.0 M / 5000.0 M :
R17  .        11. DECLINAÇÃO MAGNETICA  -20.9 GRAUS :
R18  .        12. COORDENADAS BASE       :
R21  .        Y    583936.00 M           :
R22  .        MC  45 GRAUS               :
PVER .           4.10000                 :
WDFN .        /space/expusr/3-SPS-41D_RUN2/i77bf01_2spf.xtf :
OCT  .        i77bf                      :
OS4  .        EARTH IMAGER               :
R16  .        10. PONTO FRACO UTILIZADO  10K :
R20  .        X   7292512.00 M           :
R24  .        13. CADASTRO ANP  86316021017 :
#-----------------------------------------------------------------------------
~CURVE INFORMATION
#MNEM.UNIT   API CODE                                  DESCRIPTION
#---- -----  --------                                  -----------------------
DEPT .M                                                :DEPTH (BOREHOLE) {F10.4}
DEPT .M                                                : {F13.4}
DT   .US/F                                             : {F13.4}
SFN1 .US                                               : {F13.4}
SFN2 .US                                               : {F13.4}
SFN3 .US                                               : {F13.4}
SFN4 .US                                               : {F13.4}
TT   .MS                                               : {F13.4}
#-----------------------------------------------------------------------------
# 
#     DEPT        DEPT         DT           SFN1         SFN2         SFN3         SFN4         TT
#
~A  
# ...
 5178.0948    5178.0948      70.3005     710.9926     737.8591     747.4983     781.6240      22.6101
 5177.9424    5177.9424      69.4670     704.6250     736.0000     773.8750     790.3750      22.6448
 5177.7900    5177.7900      67.4365     704.7500     734.7500     770.2500     801.5000      22.6785
 5177.6376    5177.6376      65.3772     703.9991     735.9996     768.0000     801.7469      22.7112
 5177.4852    5177.4852      64.1371     702.4960     735.6730     768.0000     796.7529      22.7433
 5177.3328    5177.3328      63.7339     698.5058    1034.4591     768.0000     799.6255      22.7752
 5177.1804    5177.1804      63.7799     702.7302     729.4261     768.0000     799.9983      22.8069
 5177.0280    5177.0280      63.7742     701.1320     734.7209     764.7640     793.5280      22.8388
 5176.8756    5176.8756      63.4568     696.0202     732.3844     770.8509     797.6088      22.8705
 5176.7232    5176.7232      63.0475     696.0000     725.7736     765.5192     799.1196      22.9021
 5176.5708    5176.5708      62.9377     696.0000     723.5072     758.2732     792.0228      22.9336
 5176.4184    5176.4184      63.3634     689.0198     720.0099     752.1423     784.0226      22.9653
 5176.2660    5176.2660      64.1372     688.0025     717.2568     753.4966     791.9803      22.9973
 5176.1136    5176.1136      64.6947     684.7568     717.3747     759.4874     790.8774      23.0297
 5175.9612    5175.9612      64.5342     695.2319     718.6228     753.3856     788.7537      23.0620
 5175.8088    5175.8088      63.7004     692.2541     720.6223     754.8730     788.5003      23.0938
 5175.6564    5175.6564      62.7153     675.6414     714.8807     757.6223     784.0044      23.1252
 5175.5040    5175.5040      62.2308     673.6262     704.2565     751.6287     783.0006      23.1563
 5175.3516    5175.3516      62.7666     665.6250     705.8750     736.5000     779.3750      23.1877
 5175.1992    5175.1992      64.3313     672.0000     697.2500     740.8750     769.3750      23.2199
 5175.0468    5175.0468      66.4203     667.6272     701.9998     733.2526     773.4973      23.2531
 5174.8944    5174.8944      68.2331     672.0042     701.5022     738.6262     768.0064      23.2873
 5174.7420    5174.7420      69.0275     676.8781     704.0075     740.0049     775.3727      23.3218
 5174.5896    5174.5896      68.6081     679.3631     710.0957     743.9809     773.5090      23.3559
 5174.4372    5174.4372      67.4067     678.3794     709.7517     744.0000     775.9889      23.3896
 5174.2848    5174.2848      66.0712     677.0056     708.1316     744.6225     776.0000      23.4226
 5174.1324    5174.1324      64.9316     674.3847     703.7662     737.5264     771.7657      23.4551
 5173.9800    5173.9800      63.9252     672.0079     707.7367     741.2375     772.3729      23.4871
 5173.8276    5173.8276      63.0116     675.9881     704.0111     743.9918     771.1287      23.5186
 5173.6752    5173.6752      62.5213     672.0104     702.0052     736.0208     769.5042      23.5499
 5173.5228    5173.5228      63.0189     670.0045     700.5033     735.7506     765.0100      23.5814
 5173.3704    5173.3704      64.7860     671.4972     697.2560     735.9995     768.2440      23.6138
 5173.2180    5173.2180      67.3721     672.7481     703.4907     736.0000     769.7478      23.6475
 5173.0656    5173.0656      69.7757     679.4925     708.1198     743.3668     772.2472      23.6824
 5172.9132    5172.9132      71.1825     679.9996     712.1220     747.7467     777.9957      23.7180
 5172.7608    5172.7607      71.4618     690.6250     713.3750     752.0000     783.3750      23.7538
 5172.6084    5172.6084      71.0967     694.6250     725.0000     752.0000     784.0000      23.7893
 5172.4560    5172.4561      70.6853     693.6250     724.3750     760.0000     784.0000      23.8247
 5172.3036    5172.3036      70.4314     695.6225     727.9993     764.6248     796.8761      23.8599
 5172.1512    5172.1512      70.1041     692.1255     727.0005     764.3762     798.3768      23.8950
 5171.9988    5171.9988      69.5015     692.6225     727.4975     765.4945     799.9920      23.9295
 5171.8464    5171.8464      68.6911     690.8830     724.6382     760.3984     795.2717      23.9639
 5171.6940    5171.6940      67.8373     689.6303     720.2684     760.0016     792.5116      23.9978
 5171.5416    5171.5416      67.0836     690.4966     722.2423     757.8832     792.0019      24.0313
 5171.3892    5171.3892      66.6654     695.9809     727.6064     763.1068     793.3702      24.0647
 5171.2368    5171.2368      67.1852     699.7384     727.9988     765.6173     797.9857      24.0983
 5171.0844    5171.0844      69.5538     701.7445     730.6178     766.3730     798.6233      24.1331
 5170.9320    5170.9320      73.9312     703.1218     728.0062     763.5068     792.2650      24.1701
 5170.7796    5170.7796      78.6538     705.8695     735.9841     766.3693     798.1133      24.2094
 5170.6272    5170.6272      81.0936     722.8475     757.3404     788.4641     817.7182      24.2500
 5170.4748    5170.4748      79.8451     700.1535     733.0305     770.1480     802.7688      24.2899
 5170.3224    5170.3224      76.0450     745.2102     780.3332     770.3748     802.7500      24.3279
 5170.1700    5170.1700      72.4770     680.0335     720.0310     753.5087     792.0055      24.3642
 5170.0176    5170.0176      71.0508     688.0000     720.0000     760.3750     793.5000      24.3997
 5169.8652    5169.8652      71.2238     693.7500     726.1250     760.1250     802.5000      24.4354
 5169.7128    5169.7128      71.0088     698.1197     731.8695     763.8769     801.0004      24.4709
 5169.5604    5169.5604      69.1324     689.2487     722.6223     767.1163     801.7424      24.5055
 5169.4080    5169.4080      65.9136     687.8649     719.8659     758.1169     793.8631      24.5384
 5169.2556    5169.2556      62.8254     680.2857     713.0322     752.0287     784.9171      24.5696
 5169.1032    5169.1032      61.1928     674.4005     707.5239     744.4081     782.5103      24.6003
 5168.9508    5168.9508      61.4348     675.1220     702.6444     740.8889     775.6523      24.6310
 5168.7984    5168.7984      63.0901     672.0113     704.8669     738.5086     772.7604      24.6625
 5168.6460    5168.6460      65.2280     692.4338     711.6032     743.9822     775.9895      24.6952
 5168.4936    5168.4936      66.9245     715.9328     731.9417     750.7307     783.2293      24.7286
 5168.3412    5168.3412      67.7387     692.1845     726.3890     756.9844     787.8635      24.7625
 5168.1888    5168.1888      67.9408     672.0427     718.6415     764.2346     790.7439      24.7965
 5168.0364    5168.0364      68.1022     660.0210     703.4017     754.7667     789.2526      24.8306
 5167.8840    5167.8840      68.6249     700.8184     723.2225     739.3963     787.1279      24.8649
 5167.7316    5167.7316      69.5219     675.4009     702.1465     729.1354     768.3940      24.8997
 5167.5792    5167.5792      70.4073     681.9957     703.9988     737.8693     794.2333      24.9349
 5167.4268    5167.4268      70.8561     686.5000     715.7500     744.0000     777.6250      24.9703
 5167.2744    5167.2744      70.6709     687.6250     723.1250     754.7500     784.0000      25.0057
 5167.1220    5167.1220      70.0386     739.2228     717.8723     757.1226     788.7523      25.0407
 5166.9696    5166.9696      69.4234     680.3758     712.0000     751.9942     793.7437      25.0754
 5166.8172    5166.8172      69.2043     681.3786     712.0034     745.0083     786.1266      25.1100
 5166.6648    5166.6648      69.3162     684.3606     714.8612     751.9663     787.4934      25.1445
 5166.5124    5166.5124      69.3016     687.8593     717.7371     753.8666     786.5045      25.1792
 5166.3600    5166.3600      68.8459     695.9667     719.9908     755.6178     786.2510      25.2136
 5166.2076    5166.2076      68.0641     707.0835     727.9701     754.2551     786.2500      25.2476
