~VERSION INFORMATION
VERS.           2.0   :CWLS Log ASCII Standard - VERSION 2.0
WRAP.           NO    :One Line per depth step
PROD.  Schlumberger   :LAS Producer
PROG.  DLIS to ASCII 2.3                               :LAS Program name and version
CREA.        2023/07/14 00:15                          :LAS Creation date {YYYY/MM/DD hh:mm}
DLIS_CREA.  2023-Jul-14 00:11                          :DLIS Creation date and time {YYYY-MMM-DD hh:mm}
SOURCE.     LIS_003.dlis                               :DLIS File Name
FILE-ID.     LIS   .003                                :File Identification Number
#--------------------------------------------------
~WELL INFORMATION
#MNEM.UNIT      DATA             DESCRIPTION
#---- ------ --------------   -----------------------------
STRT .M      5239.8168       :START DEPTH     
STOP .M      3827.6784       :STOP DEPTH     
STEP .M        -0.1524       :STEP     
NULL .          -999.25      :NULL VALUE
COMP .        PETROBRAS S.A.                           :COMPANY
WELL .        3-BRSA-293D-SPS                          :WELL
FLD  .        BS-400                                   :FIELD
LOC  .        BASE SAD 69:                             :LOCATION
CNTY .        SANTOS                                   :COUNTY
STAT .        BRASIL                                   :STATE
CTRY .        BRASIL                                   :COUNTRY
API  .                                                 :API NUMBER
UWI  .                                                 :UNIQUE WELL ID
DATE .        22/10/2004                               :LOG DATE
SRVC .        Schlumberger                             :SERVICE COMPANY
LATI .DEG                                              :LATITUDE
LONG .DEG                                              :LONGITUDE
GDAT .                                                 :GeoDetic Datum
#-----------------------------------------------------------------------------
~PARAMETER INFORMATION
#MNEM.UNIT    VALUE                      DESCRIPTION
#---- -----   --------------------       ------------------------
APD  .M               24                 :
BHT  .DEGF           260                 :
BLI  .M       5227.50000                 :
BS   .IN         8.50000                 :
CN   .        PETROBRAS S.A.             :
COUN .        SANTOS                     :
CS   .IN         9.62500                 :
DATE .        22/10/2004                 :
DFD  .LB/G      12.30000                 :
DFL  .C3               2                 :
DFPH .        N/A                        :
DFT  .        SINTETICO                  :
DFV  .S               87                 :
DMF  .        MESA ROTATIVA              :
EDF  .M               24                 :
EGL  .M             -500                 :
EKB  .        N/A                        :
ENGI .        HERNANDEZ/LOCK             :
FL1  .        X   7292392.00 M LAT 24 28 47.189 S :
FL2  .        Y    584087.00 M LON 44 10 12.698 W :
FL3  .        MC  45 GRAUS               :
FN   .        BS-400                     :
LMF  .        MESA ROTATIVA              :
LUL  .        MACAE                      :
MCSS .        PRENSA                     :
MCST .DEGF            80                 :
MFSS .        PRENSA                     :
MFST .DEGF            80                 :
MSS  .        LINHA DE FLUXO             :
MST  .DEGF            80                 :
PDAT .        NIVEL DO MAR               :
R1   .        01. APRESENTAÇÃO DE ACORDO COM REQUERIMENTO DO CLIENTE :
R2   .        02. TEMPERATURA MÁXIMA DO POÇO T1=T2= 260 DEGF @  5180 M :
R3   .        03. INICIO DA CIRCULAÇÃO  13 45 H 21/10/2004 :
R4   .        04. FINAL DA CIRCULAÇÃO   16 00 H 21/10/2004 :
R5   .        05. TEMPO TOTAL DE CIRCULAÇÃO  02 15 H :
R6   .        06. FLUIDO DE PERFURAÇÃO  SINTETICO (BR-MUL  BR-MI)  65% TEOR DO OLEO :
R7   .        07. SALINIDADE DA LAMA  266377 PPM NACL NA FASE DE AGUA :
R8   .        08. INCLINAÇÃO MÁXIMA DO POÇO  37.37 GRAUS @ 5100 M :
R9   .        09. PRIMEIRAS E ULTIMAS LEITURAS  :
RMB  .OHMM    > 10                       :
RMCS .OHMM    > 10                       :
RMFS .OHMM    > 10                       :
RMS  .OHMM    > 10                       :
RUN  .                 1                 :
STAT .        BRASIL                     :
TCS  .        16 00 H                    :
TDD  .M             5230                 :
TDL  .M             5231                 :
TLAB .        N/A                        :
TLI  .M             3850                 :
WITN .        ALCIDIO/VLADIMIR           :
WN   .        3-BRSA-293D-SPS            :
LUN  .              8808                 :
HIDE .        3-SPS-41D                  :
HID2 .        HIGH DEFINITION INDUCTION LOG :
HID3 .        X-MULTIPOLE ARRAY ACOUSTILOG :
HID4 .        GAMMA RAY LOG              :
HID5 .        TTRM SUB                   :
CLAB .        BACIA                      :
SLAB .        PAIS                       :
CMT1 .        ESC  1 1000                :
CMT2 .        PROF. MEDIDA               :
CMT4 .        SONDA  SS-43               :
HDAT .        SAD 69                     :
FL   .        BASE SAD 69                :
OS1  .        GR/CN/ZDL                  :
OS2  .        MREX/GR                    :
OS3  .        RCI/GR                     :
0S4  .        3DEX/GR                    :
OS5  .        SL/GR                      :
LNAM .        MREX/ZDL/CN/XMAC/HDIL/RCI/3DEX/SL/GR :
TOOL .        MREX/ZDL/CN/XMAC/HDIL/RCI/3DEX/SL/GR :
LSOU .        PETROBRAS                  :
LSRV .        OH WIRELINE                :
LTYP .        RAW                        :
EPD  .M                0                 :
LDAT .        22/10/2004                 :
TRIP .                 1                 :
SON  .            772317                 :
CBDR .M             4277                 :
CBLO .M             4277                 :
CBL1 .M             4277                 :
STEM .DEGF    N/A                        :
BSAL .            266377                 :
BARI .        OFF                        :
DLAB .        21/10/2004                 :
MRT  .DEGF           260                 :
TSTR .        HDIL/XMAC/GR/TTRM          :
TSTG .        N/A                        :
STUS .        FINAL                      :
LCNM .        BAKER ATLAS                :
LCC  .               150                 :
NATI .        BRASIL                     :
OPMD .        OH.WIRELINE                :
PANA .        HERNANDEZ/LOCK             :
PCON .        BAKER ATLAS                :
R11  .        SL     5196.0 M/4960.0 M   :
R12  .        GR     4960.0 M/4277.0 M   :
R13  .        XMAC   5202.0 M/3850.0 M   :
R14  .        HDIL   5227.5 M/4277.0 M   :
R15  .        3DEX   5217.0 M/4960.0 M   :
R17  .        10. PONTO FRACO UTILIZADO  10K :
R18  .        11. DECLINAÇÃO MAGNETICA  -20.9 GRAUS :
R19  .        12. COORDENADAS ARATU      :
R21  .        X   7292512.00 M           :
R22  .        Y    583936.00 M           :
R23  .        MC  45 GRAUS               :
R25  .        13. CADASTRO ANP  86316021017 :
PVER .           4.10000                 :
WDFN .        /space/expusr/3-SPS-41D/i77bf03_2spf.xtf :
OCT  .        i77bf                      :
#-----------------------------------------------------------------------------
~CURVE INFORMATION
#MNEM.UNIT   API CODE                                  DESCRIPTION
#---- -----  --------                                  -----------------------
DEPT .M                                                :DEPTH (BOREHOLE) {F10.4}
DEPT .M                                                : {F13.4}
DT   .US/F                                             : {F13.4}
SFN1 .US                                               : {F13.4}
SFN2 .US                                               : {F13.4}
SFN3 .US                                               : {F13.4}
SFN4 .US                                               : {F13.4}
TT   .MS                                               : {F13.4}
#-----------------------------------------------------------------------------
# 
#     DEPT        DEPT         DT           SFN1         SFN2         SFN3         SFN4         TT
#
~A  
# ...
 3951.5796    3951.5796      62.4644     680.0000     707.8750     736.0000     760.6250     281.8552
 3951.4272    3951.4272      65.3119     680.6250     710.7500     739.7500     767.0000     281.8879
 3951.2748    3951.2748      65.4422     686.1237     706.0025     735.9993     763.2483     281.9206
 3951.1224    3951.1224      62.8021     684.2464     709.7522     735.0047     760.7492     281.9520
 3950.9700    3950.9700      59.0304     680.7489     711.8690     739.5007     760.0091     281.9815
 3950.8176    3950.8176      55.8980     680.0011     707.6310     739.9993     766.4908     282.0094
 3950.6652    3950.6652      54.0966     681.4984     709.4980     736.5037     767.9984     282.0365
 3950.5128    3950.5128      53.3753     682.9990     707.8761     736.0003     761.5045     282.0632
 3950.3604    3950.3604      53.1463     682.6250     709.3750     736.0000     760.7500     282.0897
 3950.2080    3950.2080      53.0789     682.1250     710.2500     736.8750     760.1250     282.1163
 3950.0556    3950.0556      53.1332     683.1252     707.8761     739.2486     763.7509     282.1429
 3949.9032    3949.9032      53.2184     683.4982     710.5004     736.0020     765.8743     282.1695
 3949.7508    3949.7508      53.2716     681.2496     710.9941     738.4971     764.9962     282.1961
 3949.5984    3949.5984      53.4521     680.8737     705.8761     736.0000     761.7511     282.2229
 3949.4460    3949.4460      53.7615     680.0011     706.6240     736.0000     762.4990     282.2497
 3949.2936    3949.2936      54.0438     680.2498     708.3734     738.7474     765.2474     282.2767
 3949.1412    3949.1412      54.5856     680.3749     705.7515     736.0016     762.6265     282.3040
 3948.9888    3948.9888      55.9085     681.6250     710.3750     736.0000     763.1250     282.3320
 3948.8364    3948.8364      58.0278     683.6250     710.0000     740.0000     761.5000     282.3610
 3948.6840    3948.6840      60.1074     682.3735     648.0000     736.0002     764.6234     282.3911
 3948.5316    3948.5316      60.8536     679.5047     648.0559     736.3775     761.6279     282.4215
 3948.3792    3948.3792      59.6278     684.6191     709.6229     739.1202     764.8709     282.4513
 3948.2268    3948.2268      57.2045     680.0000     707.9947     735.3760     761.6223     282.4800
 3948.0744    3948.0744      55.0698     680.0000     704.7539     735.9993     760.0019     282.5074
 3947.9220    3947.9220      53.9787     687.4938     709.4961     737.6237     765.9951     282.5344
 3947.7696    3947.7696      53.7691     687.7499     710.2497     737.8749     765.3753     282.5613
 3947.6172    3947.6172      53.8896     680.0000     705.0000     733.5000     761.1250     282.5883
 3947.4648    3947.4648      53.9583     684.6250     708.6250     735.1250     762.8750     282.6152
 3947.3124    3947.3124      54.0078     681.0010     708.4981     736.2493     504.8994     282.6422
 3947.1600    3947.1600      54.0651     682.5056     705.6309     735.1277     351.9123     282.6693
 3947.0076    3947.0076      53.8962     687.9981     711.3745     737.7483     509.7814     282.6963
 3946.8552    3946.8552      53.3982     686.6270     711.0005     736.5018     352.9759     282.7229
 3946.7028    3946.7028      53.1193     687.9985     710.7503     739.3719     765.1825     282.7494
 3946.5504    3946.5504      53.9693     686.2512     709.2511     736.5020     767.3738     282.7764
 3946.3980    3946.3979      56.3156     683.8750     707.7500     734.3750     765.1250     282.8046
 3946.2456    3946.2456      59.4700     686.8750     706.2500     735.6250     765.2500     282.8344
 3946.0932    3946.0932      61.8982     683.3737     711.6225     733.5000     761.9999     282.8653
 3945.9408    3945.9408      62.2739     680.1251     705.3758     733.5017     761.7519     282.8964
 3945.7884    3945.7884      60.5830     680.2506     706.3737     735.7487     764.2473     282.9267
 3945.6360    3945.6360      58.0640     680.7575     705.2555     734.6267     761.8769     282.9558
 3945.4836    3945.4836      56.1055     685.7434     708.8702     735.7485     763.1234     282.9837
 3945.3312    3945.3312      55.3025     681.8787     710.8731     735.9998     761.3767     283.0114
 3945.1788    3945.1788      55.4138     680.2510     705.0034     736.4997     828.0860     283.0391
 3945.0264    3945.0264      55.8104     680.0000     707.6250     736.0000     764.5000     283.0670
 3944.8740    3944.8740      56.0772     681.6250     709.0000     737.2500     763.5000     283.0951
 3944.7216    3944.7216      56.2205     682.8735     709.3733     736.0000     763.2494     283.1232
 3944.5692    3944.5692      56.4801     680.0011     706.1276     736.0000     762.1268     283.1515
 3944.4168    3944.4168      57.1368     681.2484     708.9989     736.0000     764.1222     283.1800
 3944.2644    3944.2644      58.2594     680.0130     708.1325     736.0108     761.8850     283.2092
 3944.1120    3944.1120      59.5205     687.9904     712.7444     742.6170     767.9926     283.2388
 3943.9596    3943.9596      60.5991     695.9933     719.9939     746.3719     712.6713     283.2691
 3943.8072    3943.8072      61.5473     693.1263     723.1235     751.8724     775.9704     283.2999
 3943.6548    3943.6548      62.5809     686.8750     712.0000     742.2500     767.5000     283.3312
 3943.5024    3943.5024      63.5770     631.6250     714.0000     743.6250     768.0000     283.3630
 3943.3500    3943.3500      63.8986     631.9949     715.8750     744.0002     770.3779     283.3950
 3943.1976    3943.1976      62.9209     624.0647     715.8749     744.2497     774.8718     283.4264
 3943.0452    3943.0452      60.7920     688.0014     715.7519     744.0007     771.7481     283.4568
 3942.8928    3942.8928      58.5672     688.9985     717.1230     744.4993     770.3770     283.4860
 3942.7404    3942.7404      57.2672     688.0011     717.8742     744.0005     770.0004     283.5147
 3942.5880    3942.5880      57.0367     688.9993     716.5010     746.3733     773.6224     283.5432
 3942.4356    3942.4355      57.1854     689.0000     717.7500     744.0000     775.0000     283.5718
 3942.2832    3942.2832      56.7625     690.0000     718.3750     745.8750     775.7500     283.6002
 3942.1308    3942.1309      55.3831     688.1250     719.0000     747.5000     704.0000     283.6279
 3941.9784    3941.9784      53.6138     688.0005     717.7505     744.3766     776.0000     283.6547
 3941.8260    3941.8260      52.5082     688.6242     718.3726     746.4979     775.9965     283.6809
 3941.6736    3941.6736      52.8449     687.8750     716.2498     744.6263     772.8772     283.7074
 3941.5212    3941.5212      54.6394     687.8750     716.1252     745.4988     774.3730     283.7346
 3941.3688    3941.3688      57.1223     688.3745     717.3738     745.1254     775.9984     283.7632
 3941.2164    3941.2164      59.0906     683.6279     719.2489     749.3724     776.0000     283.7928
 3941.0640    3941.0640      59.7963     681.2500     714.1250     749.1250     776.0000     283.8227
 3940.9116    3940.9116      59.3742     682.0000     711.8750     744.0000     776.0000     283.8524
 3940.7592    3940.7592      58.5199     681.5399     780.1249     743.6246     774.1219     283.8817
 3940.6068    3940.6068      58.0857     760.0000     779.9940     742.7511     768.0005     283.9107
 3940.4544    3940.4544      58.5720     759.9093     773.1329     744.0000     768.6342     283.9400
 3940.3020    3940.3020      59.7922     687.3593     779.5002     743.3112     776.0000     283.9700
 3940.1496    3940.1496      61.0787     755.0424     779.6248     316.7704     776.0000     284.0004
 3939.9972    3939.9972      61.8434     765.1165     719.8010     751.6291     350.8622     284.0313
 3939.8448    3939.8448      61.9155     689.2866     717.5011     749.7511     352.2492     284.0623
 3939.6924    3939.6924      61.4523     689.6250     720.0000     742.7500     851.3750     284.0930
