~VERSION INFORMATION
VERS.           2.0   :CWLS Log ASCII Standard - VERSION 2.0
WRAP.           NO    :One Line per depth step
PROD.  Schlumberger   :LAS Producer
PROG.  DLIS to ASCII 2.3                               :LAS Program name and version
CREA.        2023/07/14 00:15                          :LAS Creation date {YYYY/MM/DD hh:mm}
DLIS_CREA.  2023-Jul-14 00:11                          :DLIS Creation date and time {YYYY-MMM-DD hh:mm}
SOURCE.     LIS_011.dlis                               :DLIS File Name
FILE-ID.     LIS   .004                                :File Identification Number
#--------------------------------------------------
~WELL INFORMATION
#MNEM.UNIT      DATA             DESCRIPTION
#---- ------ --------------   -----------------------------
STRT .M      5300.3196       :START DEPTH     
STOP .M      4931.0544       :STOP DEPTH     
STEP .M        -0.1524       :STEP     
NULL .          -999.25      :NULL VALUE
COMP .        PETROBRAS S.A.                           :COMPANY
WELL .        3-BRSA-293D-SPS                          :WELL
FLD  .        BS-400                                   :FIELD
LOC  .        BASE SAD 69:                             :LOCATION
CNTY .        SANTOS                                   :COUNTY
STAT .        BRASIL                                   :STATE
CTRY .        BRASIL                                   :COUNTRY
API  .                                                 :API NUMBER
UWI  .                                                 :UNIQUE WELL ID
DATE .        15/11/2004                               :LOG DATE
SRVC .        Schlumberger                             :SERVICE COMPANY
LATI .DEG                                              :LATITUDE
LONG .DEG                                              :LONGITUDE
GDAT .                                                 :GeoDetic Datum
#-----------------------------------------------------------------------------
~PARAMETER INFORMATION
#MNEM.UNIT    VALUE                      DESCRIPTION
#---- -----   --------------------       ------------------------
APD  .M               24                 :
BHT  .DEGF           260                 :
BLI  .M             5289                 :
BS   .IN         8.50000                 :
CN   .        PETROBRAS S.A.             :
COUN .        SANTOS                     :
CS   .IN         9.62500                 :
DATE .        15/11/2004                 :
DFD  .LB/G      12.30000                 :
DFL  .C3               2                 :
DFPH .        N/A                        :
DFT  .        SINTETICO                  :
DFV  .S               95                 :
DMF  .        MESA ROTATIVA              :
EDF  .M               24                 :
EGL  .M             -500                 :
EKB  .        N/A                        :
ENGI .        HERNANDEZ / LOCK           :
FL1  .        X   7292392.00 M LAT 24 28 47.189 S :
FL2  .        Y    584087.00 M LON 44 10 12.698 W :
FL3  .        MC  45 GRAUS               :
FN   .        BS-400                     :
LMF  .        MESA ROTATIVA              :
LUL  .        MACAE                      :
MCSS .        PRENSA                     :
MCST .DEGF            80                 :
MFSS .        PRENSA                     :
MFST .DEGF            80                 :
MSS  .        LINHA DE FLUXO             :
MST  .DEGF            80                 :
PDAT .        NIVEL DO MAR               :
R1   .        01. APRESENTAÇÃO DE ACORDO COM REQUERIMENTO DO CLIENTE :
R2   .        02. TEMPERATURA MÁXIMA DO POÇO T1=T2= 290 DEGF @  5275 M :
R3   .        03. INICIO DA CIRCULAÇÃO  12/11/2004 09 00 H :
R4   .        04. FINAL DA CIRCULAÇÃO   12/11/2004 18 00 H :
R5   .        05. TEMPO TOTAL DE CIRCULAÇÃO   09 00 H :
R6   .        06. FLUIDO DE PERFURAÇÃO  SINTETICO (BR-MUL  BR-MI)  60% TEOR DO OLEO :
R7   .        07. SALINIDADE DA LAMA  254762 PPM NACL NA FASE DE AGUA :
R8   .        08. INCLINAÇÃO MÁXIMA DO POÇO  37.37 GRAUS @ 5100 M :
R9   .        09. PRIMEIRAS E ULTIMAS LEITURAS  :
RMB  .OHMM    > 10                       :
RMCS .OHMM    > 10                       :
RMFS .OHMM    > 10                       :
RMS  .OHMM    >10                        :
RUN  .                 2                 :
STAT .        BRASIL                     :
TCS  .        18 00 H                    :
TDD  .M             5288                 :
TDL  .M             5293                 :
TLAB .        N/A                        :
TLI  .M             5000                 :
WITN .        ERNANI / ZE MARIA          :
WN   .        3-BRSA-293D-SPS            :
LUN  .              8808                 :
HIDE .        3-SPS-41D                  :
HID2 .        HIGH DEFINITION INDUCTION LOG :
HID3 .        X-MULTIPOLE ARRAY ACOUSTILOG :
HID4 .        GAMMA RAY LOG              :
HID5 .        TTRM SUB                   :
CLAB .        BACIA                      :
SLAB .        PAIS                       :
CMT1 .        ESC  1 200                 :
CMT2 .        PROF. MEDIDA               :
CMT4 .        SONDA  SS-43               :
HDAT .        SAD 69                     :
FL   .        BASE SAD 69                :
OS1  .        RCI/GR                     :
OS2  .        CHECK SHOT                 :
OS3  .        GR/CN/ZDL                  :
OS5  .        RCOR/GR                    :
LNAM .        ZDL/CN/XMAC/HDIL/EARTH IMAGER/RCI/RCOR/CHECK SHOT/GR :
TOOL .        ZDL/CN/XMAC/HDIL/EARTH IMAGER/RCI/RCOR/CHECK SHOT/GR :
LSOU .        PETROBRAS                  :
LSRV .        OH WIRELINE                :
LTYP .        RAW                        :
EPD  .M                0                 :
LDAT .        15/11/2004                 :
TRIP .                 3                 :
SON  .            786588                 :
CBDR .M             4277                 :
CBLO .        NR                         :
CBL1 .        NR                         :
STEM .DEGF    N/A                        :
BSAL .            254762                 :
BARI .        OFF                        :
DLAB .        12/11/2004                 :
MRT  .DEGF           290                 :
TSTR .        HDIL/XMAC/GR/TTRM          :
TSTG .        N/A                        :
STUS .        FINAL                      :
LCNM .        BAKER ATLAS                :
LCC  .               150                 :
NATI .        BRASIL                     :
OPMD .        OH.WIRELINE                :
PANA .        HERNANDEZ / LOCK           :
PCON .        BAKER ATLAS                :
R11  .        SL     5268.3 M / 5000.0 M :
R12  .        GR     5268.3 M / 5000.0 M :
R13  .        XMAC   5279.5 M / 5000.0 M :
R14  .        HDIL   5289.0 M / 5000.0 M :
R17  .        11. DECLINAÇÃO MAGNETICA  -20.9 GRAUS :
R18  .        12. COORDENADAS BASE       :
R21  .        Y    583936.00 M           :
R22  .        MC  45 GRAUS               :
PVER .           4.10000                 :
WDFN .        /space/expusr/3-SPS-41D_RUN2/i77bf02_4spf.xtf :
OCT  .        i77bf                      :
OS4  .        EARTH IMAGER               :
R16  .        10. PONTO FRACO UTILIZADO  10K :
R20  .        X   7292512.00 M           :
R24  .        13. CADASTRO ANP  86316021017 :
#-----------------------------------------------------------------------------
~CURVE INFORMATION
#MNEM.UNIT   API CODE                                  DESCRIPTION
#---- -----  --------                                  -----------------------
DEPT .M                                                :DEPTH (BOREHOLE) {F10.4}
DEPT .M                                                : {F13.4}
BIT  .IN                                               : {F13.4}
GR   .GAPI                                             : {F13.4}
M2R1 .OHMM                                             : {F13.4}
M2R2 .OHMM                                             : {F13.4}
M2R3 .OHMM                                             : {F13.4}
M2R6 .OHMM                                             : {F13.4}
M2R9 .OHMM                                             : {F13.4}
M2RX .OHMM                                             : {F13.4}
SPD  .M/MN                                             : {F13.4}
TEN  .LBF                                              : {F13.4}
TTEN .LBF                                              : {F13.4}
#-----------------------------------------------------------------------------
# 
#     DEPT        DEPT         BIT          GR           M2R1         M2R2         M2R3         M2R6         M2R9         M2RX         SPD          TEN          TTEN
#
~A  
# ...
 5073.5484    5073.5484       8.5000      79.6381       4.2057       5.5548       6.4482       6.9827       7.1002       7.2888       4.9456     -25.7706    7629.8401
 5073.3960    5073.3960       8.5000      90.6997       3.8959       5.0759       5.8369       6.3099       6.4146       6.5825       4.9552     -25.7686    7629.4162
 5073.2436    5073.2436       8.5000     100.4558       3.8002       4.9110       5.6100       6.0569       6.1578       6.3164       4.9592     -16.6488    7638.1956
 5073.0912    5073.0912       8.5000     105.3675       3.8394       4.9503       5.6389       6.0855       6.1895       6.3464       4.9576      -6.9211    7647.7715
 5072.9388    5072.9388       8.5000     104.3264       3.8177       4.9332       5.6243       6.0747       6.1835       6.3380       4.9502     -20.8617    7633.6221
 5072.7864    5072.7864       8.5000      99.6976       3.6659       4.7606       5.4459       5.8936       6.0058       6.1541       4.9382     -65.5010    7588.1667
 5072.6340    5072.6340       8.5000      93.1703       3.5273       4.6079       5.2986       5.7515       5.8687       6.0125       4.9335    -105.2508    7546.7938
 5072.4816    5072.4816       8.5000      83.9486       3.5505       4.6617       5.3923       5.8731       6.0006       6.1469       4.9388    -109.6243    7540.4387
 5072.3292    5072.3292       8.5000      75.5661       3.7519       4.9453       5.7552       6.2887       6.4320       6.5886       4.9494     -87.6363    7560.6655
 5072.1768    5072.1768       8.5000      73.0824       4.0191       5.3156       6.2201       6.8134       6.9738       7.1435       4.9579     -48.7181    7598.4004
 5072.0244    5072.0244       8.5000      74.5877       4.1524       5.5106       6.4744       7.1017       7.2706       7.4477       4.9595      -2.3678    7644.3418
 5071.8720    5071.8720       8.5000      76.6941       4.0882       5.4490       6.4159       7.0385       7.2044       7.3801       4.9577      13.1311    7659.9656
 5071.7196    5071.7196       8.5000      78.2098       3.9523       5.2998       6.2421       6.8411       6.9983       7.1690       4.9550     -25.4798    7621.1803
 5071.5672    5071.5672       8.5000      78.3908       3.8545       5.2113       6.1306       6.7062       6.8548       7.0220       4.9512     -73.1038    7572.5096
 5071.4148    5071.4148       8.5000      78.3676       3.8176       5.2091       6.1154       6.6735       6.8149       6.9812       4.9487     -83.7666    7560.3323
 5071.2624    5071.2624       8.5000      81.0590       3.8313       5.2667       6.1672       6.7120       6.8477       7.0151       4.9460     -73.5035    7569.2282
 5071.1100    5071.1100       8.5000      86.4063       3.8560       5.3145       6.2069       6.7373       6.8671       7.0354       4.9434     -68.1373    7573.3905
 5070.9576    5070.9576       8.5000      92.0566       3.8347       5.2650       6.1353       6.6435       6.7659       6.9323       4.9495     -63.4706    7576.8681
 5070.8052    5070.8052       8.5000      95.7792       3.7938       5.1616       6.0062       6.4918       6.6065       6.7697       4.9585     -56.8502    7582.3861
 5070.6528    5070.6528       8.5000      96.3174       3.8291       5.1477       5.9867       6.4650       6.5753       6.7387       4.9478     -55.1675    7583.0956
 5070.5004    5070.5004       8.5000      93.1201       3.9790       5.2819       6.1452       6.6385       6.7487       6.9175       4.9176     -61.3066    7575.9576
 5070.3480    5070.3480       8.5000      87.1419       4.2576       5.5911       6.5149       7.0511       7.1662       7.3469       4.8837     -68.7181    7567.4151
 5070.1956    5070.1956       8.5000      81.7169       4.7261       6.1668       7.2081       7.8279       7.9546       8.1571       4.8590     -65.8365    7569.1306
 5070.0432    5070.0432       8.5000      78.5788       5.3198       6.9313       8.1399       8.8798       9.0234       9.2553       4.8464     -51.2069    7582.8080
 5069.8908    5069.8908       8.5000      77.2418       5.6378       7.3739       8.7135       9.5558       9.7112       9.9635       4.8511     -42.2056    7591.1277
 5069.7384    5069.7384       8.5000      76.7263       5.3460       7.0731       8.4202       9.2854       9.4392       9.6871       4.8833     -47.6618    7585.0222
 5069.5860    5069.5860       8.5000      77.5555       4.6811       6.3123       7.5707       8.3915       8.5347       8.7614       4.9325     -49.9541    7581.9773
 5069.4336    5069.4336       8.5000      81.9020       4.0527       5.5855       6.7405       7.5014       7.6349       7.8398       4.9645     -41.0000    7590.1924
 5069.2812    5069.2813       8.5000      89.5811       3.6108       5.0667       6.1403       6.8525       6.9814       7.1701       4.9692     -40.5214    7589.9277
 5069.1288    5069.1288       8.5000      95.7647       3.3350       4.7249       5.7374       6.4139       6.5429       6.7206       4.9671     -52.4838    7577.0390
 5068.9764    5068.9764       8.5000      98.0956       3.1910       4.5273       5.4971       6.1503       6.2833       6.4542       4.9590     -58.6161    7569.8213
 5068.8240    5068.8240       8.5000      99.0736       3.1467       4.4528       5.4007       6.0427       6.1830       6.3507       4.9432     -58.9045    7568.4115
 5068.6716    5068.6716       8.5000     100.5362       3.1632       4.4717       5.4184       6.0592       6.2086       6.3758       4.9355     -51.7242    7574.5241
 5068.5192    5068.5192       8.5000     102.5033       3.2069       4.5563       5.5205       6.1662       6.3252       6.4935       4.9372     -17.1118    7608.5075
 5068.3668    5068.3668       8.5000     106.2209       3.2283       4.6365       5.6221       6.2694       6.4349       6.6032       4.9427      25.0921    7650.9073
 5068.2144    5068.2144       8.5000     110.4829       3.1336       4.5519       5.5252       6.1487       6.3106       6.4725       4.9586      26.2626    7652.6794
 5068.0620    5068.0620       8.5000     112.1987       2.8971       4.2335       5.1418       5.7093       5.8551       6.0020       4.9725     -11.4797    7615.0576
 5067.9096    5067.9096       8.5000     109.5648       2.6557       3.8759       4.7051       5.2166       5.3423       5.4734       4.9659     -36.5126    7589.4328
 5067.7572    5067.7572       8.5000     102.7851       2.5590       3.7126       4.5065       4.9881       5.0984       5.2210       4.9574     -23.7309    7601.5103
 5067.6048    5067.6048       8.5000      94.3927       2.6337       3.7885       4.5991       5.0862       5.1869       5.3098       4.9604       4.9317    7629.9372
 5067.4524    5067.4524       8.5000      87.9805       2.8163       4.0116       4.8734       5.3909       5.4847       5.6136       4.9575      23.0092    7648.2601
 5067.3000    5067.3000       8.5000      84.4834       3.0128       4.2450       5.1647       5.7215       5.8086       5.9452       4.9473      15.9030    7641.5135
 5067.1476    5067.1476       8.5000      82.5823       3.1881       4.4408       5.4171       6.0123       6.0934       6.2381       4.9433     -21.6389    7603.9704
 5066.9952    5066.9952       8.5000      81.6557       3.3584       4.6323       5.6648       6.3087       6.3870       6.5408       4.9518     -68.8699    7556.0273
 5066.8428    5066.8428       8.5000      81.4264       3.5102       4.8189       5.9141       6.6128       6.6924       6.8562       4.9692     -80.5007    7543.1787
 5066.6904    5066.6904       8.5000      82.3206       3.5409       4.8797       6.0231       6.7637       6.8473       7.0168       4.9817     -51.3633    7571.2627
 5066.5380    5066.5380       8.5000      86.4240       3.3527       4.6870       5.8344       6.5800       6.6672       6.8326       4.9750     -25.2032    7596.8550
 5066.3856    5066.3856       8.5000      94.3914       3.0138       4.3114       5.4232       6.1402       6.2288       6.3814       4.9577     -16.2795    7605.4802
