~VERSION INFORMATION
VERS.           2.0   :CWLS Log ASCII Standard - VERSION 2.0
WRAP.           NO    :One Line per depth step
PROD.  Schlumberger   :LAS Producer
PROG.  DLIS to ASCII 2.3                               :LAS Program name and version
CREA.        2023/07/14 00:15                          :LAS Creation date {YYYY/MM/DD hh:mm}
DLIS_CREA.  2023-Jul-14 00:11                          :DLIS Creation date and time {YYYY-MMM-DD hh:mm}
SOURCE.     LIS_005.dlis                               :DLIS File Name
FILE-ID.     LIS   .001                                :File Identification Number
#--------------------------------------------------
~WELL INFORMATION
#MNEM.UNIT      DATA             DESCRIPTION
#---- ------ --------------   -----------------------------
STRT .M      5238.7500       :START DEPTH     
STOP .M      5087.2644       :STOP DEPTH     
STEP .M        -0.1524       :STEP     
NULL .          -999.25      :NULL VALUE
COMP .        PETROBRAS S.A.                           :COMPANY
WELL .        3-BRSA-293D-SPS                          :WELL
FLD  .        BS-400                                   :FIELD
LOC  .        BASE SAD 69:                             :LOCATION
CNTY .        SANTOS                                   :COUNTY
STAT .        BRASIL                                   :STATE
CTRY .        SANTOS                                   :COUNTRY
API  .                                                 :API NUMBER
UWI  .                                                 :UNIQUE WELL ID
DATE .        23/10/2004                               :LOG DATE
SRVC .        Schlumberger                             :SERVICE COMPANY
LATI .DEG                                              :LATITUDE
LONG .DEG                                              :LONGITUDE
GDAT .                                                 :GeoDetic Datum
#-----------------------------------------------------------------------------
~PARAMETER INFORMATION
#MNEM.UNIT    VALUE                      DESCRIPTION
#---- -----   --------------------       ------------------------
APD  .M               24                 :
BHT  .DEGF           280                 :
BLI  .M             5230                 :
BS   .IN         8.50000                 :
CN   .        PETROBRAS S.A.             :
COUN .        SANTOS                     :
CS   .IN         9.62500                 :
DATE .        23/10/2004                 :
DFD  .LB/G      12.30000                 :
DFL  .C3               2                 :
DFPH .        N/A                        :
DFT  .        SINTETICO                  :
DFV  .S               87                 :
DMF  .        MESA ROTATIVA              :
EDF  .M               24                 :
EGL  .M             -500                 :
EKB  .        N/A                        :
ENGI .        HERNANDEZ/LOCK             :
FL1  .        X   7292392.00 M LAT 24 28 47.189 S :
FL2  .        Y    584087.00 M LON 44 10 12.698 W :
FL3  .        MC  45 GRAUS               :
FN   .        BS-400                     :
LMF  .        MESA ROTATIVA              :
LUL  .        MACAE                      :
MCSS .        PRENSA                     :
MCST .DEGF            80                 :
MFSS .        PRENSA                     :
MFST .DEGF            80                 :
MSS  .        LINHA DE FLUXO             :
MST  .DEGF            80                 :
PDAT .        NIVEL DO MAR               :
R1   .        01. APRESENTAÇÃO DE ACORDO COM REQUERIMENTO DO CLIENTE :
R2   .        02. TEMPERATURA MÁXIMA DO POÇO T1=T2= 260 DEGF @  5180 M :
R3   .        03. INICIO DA CIRCULAÇÃO  13 45 H 21/10/2004 :
R4   .        04. FINAL DA CIRCULAÇÃO   16 00 H 21/10/2004 :
R5   .        05. TEMPO TOTAL DE CIRCULAÇÃO  02 15 H :
R6   .        06. FLUIDO DE PERFURAÇÃO  SINTETICO (BR-MUL  BR-MI)  65% TEOR DO OLEO :
R7   .        07. SALINIDADE DA LAMA  266377 PPM NACL NA FASE DE AGUA :
R8   .        08. INCLINAÇÃO MÁXIMA DO POÇO  37.37 GRAUS @ 5100 M :
R9   .        09. PRIMEIRAS E ULTIMAS LEITURAS  :
RMB  .OHMM    > 10                       :
RMCS .OHMM    > 10                       :
RMFS .OHMM    > 10                       :
RMS  .OHMM    > 10                       :
RUN  .                 1                 :
STAT .        BRASIL                     :
TCS  .        16 00 H                    :
TDD  .M             5230                 :
TDL  .M             5231                 :
TLAB .        N/A                        :
TLI  .M             4277                 :
WITN .        ALCIDIO/VLADIMIR           :
WN   .        3-BRSA-293D-SPS            :
LUN  .              8808                 :
HIDE .        3-SPS-41D                  :
HID2 .        COMPENSATED Z-DENSILOG     :
HID3 .        COMPENSATED NEUTRON LOG    :
HID4 .        GAMMA RAY LOG              :
HID5 .        TTRM SUB                   :
CLAB .        BACIA                      :
SLAB .        PAIS                       :
CMT1 .        ESC  1 1000                :
CMT2 .        PROF. MEDIDA               :
CMT4 .        SONDA  SS-43               :
HDAT .        SAD 69                     :
FL   .        BASE SAD 69                :
OS1  .        HDIL/XMAC/SL/GR            :
OS3  .        MREX/GR                    :
OS5  .        SL/GR                      :
LNAM .        MREX/ZDL/CN/XMAC/HDIL/3DEX/RCI/SL/GR :
TOOL .        MREX/ZDL/CN/XMAC/HDIL/3DEX/RCI/SL/GR :
LSOU .        PETROBRAS                  :
LSRV .        OH WIRELINE                :
LTYP .        RAW                        :
EPD  .M                0                 :
LDAT .        23/10/2004                 :
TRIP .                 1                 :
SON  .            772317                 :
CBDR .M             4277                 :
CBLO .M             4277                 :
CBL1 .M             4277                 :
STEM .DEGF    N/A                        :
BSAL .            266377                 :
BARI .        OFF                        :
DLAB .        21/10/2004                 :
MRT  .DEGF           280                 :
TSTR .        ZDL/CN/GR/TTRM             :
TSTG .        N/A                        :
STUS .        FINAL                      :
LCNM .        BAKER ATLAS                :
LCC  .               150                 :
NATI .        SANTOS                     :
OPMD .        OH.WIRELINE                :
PANA .        HERNANDEZ/LOCK             :
PCON .        BAKER ATLAS                :
R11  .        GR     5222.5 M/4277.0 M   :
R12  .        ZDL    5230.0 M/4277.0 M   :
R13  .        CN     5224.0 M/4277.0 M   :
R15  .        10. PONTO FRACO UTILIZADO  10K :
R17  .        12. DECLINAÇÃO MAGNETICA  -20.9 GRAUS :
R18  .        13. COORDENADAS BASE       :
R21  .        Y    583936.00 M           :
R22  .        MC  45 GRAUS               :
PVER .           4.10000                 :
WDFN .        /space/expusr/3-SPS-41D/i77bf06_8spf.xtf :
OCT  .        i77bf                      :
0S2  .        3DEX/GR                    :
OS4  .        RCI/GR                     :
R16  .        11. CNC CORREGIDO PELO CALIPER E SALINIDADE  PRESENTADO MATRIZ CARBONATO :
R20  .        X   7292512.00 M           :
R24  .        14. CADASTRO ANP  86316021017 :
#-----------------------------------------------------------------------------
~CURVE INFORMATION
#MNEM.UNIT   API CODE                                  DESCRIPTION
#---- -----  --------                                  -----------------------
DEPT .M                                                :DEPTH (BOREHOLE) {F10.4}
DEPT .M                                                : {F13.4}
BIT  .IN                                               : {F13.4}
GR   .GAPI                                             : {F13.4}
TEN  .LBF                                              : {F13.4}
TTEN .LBF                                              : {F13.4}
CAL  .IN                                               : {F13.4}
CALX .IN                                               : {F13.4}
HRD1 .HZ                                               : {F13.4}
HRD2 .HZ                                               : {F13.4}
PE   .B/E                                              : {F13.4}
SFT2 .HZ                                               : {F13.4}
SOFT .HZ                                               : {F13.4}
SSD  .HZ                                               : {F13.4}
ZCOR .G/C3                                             : {F13.4}
ZDEN .G/C3                                             : {F13.4}
#-----------------------------------------------------------------------------
# 
#     DEPT        DEPT         BIT          GR           TEN          TTEN         CAL          CALX         HRD1         HRD2         PE           SFT2         SOFT         SSD          ZCOR         ZDEN
#
~A  
 5238.7500    5238.7500 -961825.9169    -999.2500    -999.2500    -999.2500    -999.2500    -999.2500    -999.2500    -999.2500    -999.2500    -999.2500    -999.2500    -999.2500    -999.2500    -999.2500
 5238.5976    5238.5976       8.5000    -999.2500    -999.2500    -999.2500    -999.2500    -999.2500    -999.2500    -999.2500       2.5018    -999.2500    -999.2500    -999.2500    -999.2500 -999999.9999
 5238.4452    5238.4452       8.5000    -999.2500    -999.2500    -999.2500    -999.2500    -999.2500    -999.2500    -999.2500       2.5056    -999.2500    -999.2500    -999.2500    -999.2500       2.4995
 5238.2928    5238.2928       8.5000    -999.2500     847.9868    4786.0200    -999.2500    -999.2500    -999.2500    -999.2500       2.5013    -999.2500    -999.2500    -999.2500    -999.2500       2.4981
 5238.1404    5238.1404       8.5000    -999.2500     902.9879    4858.5481    -999.2500    -999.2500    -999.2500    -999.2500       2.5000    -999.2500    -999.2500    -999.2500    -999.2500       2.4966
 5237.9880    5237.9880       8.5000    -999.2500     958.7527    4930.8315    -999.2500    -999.2500    -999.2500    -999.2500       2.5001    -999.2500    -999.2500    -999.2500    -999.2500       2.4953
 5237.8356    5237.8356       8.5000    -999.2500    1011.6623    4999.9671    -999.2500    -999.2500    -999.2500    -999.2500       2.5004    -999.2500    -999.2500    -999.2500    -999.2500       2.4941
 5237.6832    5237.6832       8.5000    -999.2500    1050.3945    5055.3413    -999.2500    -999.2500    -999.2500    -999.2500       2.5001    -999.2500    -999.2500    -999.2500    -999.2500       2.4928
 5237.5308    5237.5308       8.5000    -999.2500    1077.3364    5099.8387    -999.2500    -999.2500    -999.2500    -999.2500       2.5000    -999.2500    -999.2500    -999.2500    -999.2500       2.4916
 5237.3784    5237.3784       8.5000    -999.2500    1105.4881    5146.8396    -999.2500 -999999.9999    -999.2500    -999.2500       3.0385    -999.2500    -999.2500    -999.2500    -999.2500       2.4927
 5237.2260    5237.2260       8.5000    -999.2500    1131.7663    5192.9978    -999.2500       8.4603     580.5389     800.0070       5.4223     431.7054     300.7078 -999999.9999 -999999.9999       2.5383
 5237.0736    5237.0736       8.5000    -999.2500    1152.2278    5233.3562 -999999.9999       8.4585     593.5109     789.9282       6.4350     439.0937     299.3744    6203.8711      -0.0281       2.6106
 5236.9212    5236.9212       8.5000    -999.2500    1175.1979    5276.0415       8.4577       8.4577     595.5509     779.9610       6.4475     453.4308     296.3648    6207.5608      -0.0260       2.6224
 5236.7688    5236.7688       8.5000    -999.2500    1199.1170    5320.1999       8.4585       8.4585     589.6873     783.7651       6.4433     463.0169     293.8727    6226.9545      -0.0228       2.6219
 5236.6164    5236.6164       8.5000    -999.2500    1207.3232    5349.0281       8.4589       8.4589     585.3151     794.1803       6.4171     458.7874     297.3349    6254.4504      -0.0201       2.6194
 5236.4640    5236.4640       8.5000    -999.2500    1197.4332    5359.5152       8.4581       8.4581     584.8348     797.4682       6.4080     447.9468     305.2132    6271.9760      -0.0181       2.6179
 5236.3116    5236.3116       8.5000    -999.2500    1186.3647    5368.5319       8.4583       8.4583     588.7691     787.6910       6.3428     444.5187     308.0182    6274.4474      -0.0166       2.6183
 5236.1592    5236.1592       8.5000    -999.2500    1177.6244    5379.6914       8.4591       8.4591     589.3964     783.6091       6.3736     449.7381     300.9650    6274.7220      -0.0159       2.6182
 5236.0068    5236.0068       8.5000    -999.2500    1165.9720    5387.8432       8.4584       8.4584     581.6058     792.9378       6.6191     457.4067     292.2851    6293.0426      -0.0135       2.6170
 5235.8544    5235.8544       8.5000    -999.2500    1164.1064    5405.8593       8.4575       8.4575     574.7137     801.6852       6.6055     463.8163     286.8426    6311.8798      -0.0112       2.6168
 5235.7020    5235.7020       8.5000    -999.2500    1182.7383    5444.4006       8.4578       8.4578     571.9844     794.5716       6.5278     462.7032     283.6359    6284.2076      -0.0132       2.6207
 5235.5496    5235.5496       8.5000    -999.2500    1214.1418    5495.7544       8.4584       8.4584     566.1780     775.7503       6.5489     451.3081     283.7677    6226.6637      -0.0166       2.6283
 5235.3972    5235.3972       8.5000    -999.2500    1247.3331    5549.3479       8.4589       8.4589     563.3413     761.6662       6.5736     439.8713     288.2594    6209.9523      -0.0156       2.6334
 5235.2448    5235.2448       8.5000    -999.2500    1270.1260    5593.2937       8.4592       8.4592     574.8646     761.1013       6.5807     435.8299     290.2383    6233.5059      -0.0144       2.6311
 5235.0924    5235.0924       8.5000    -999.2500    1279.0109    5623.9740       8.4592       8.4592     593.7961     765.1333       6.5693     435.9416     290.2734    6252.8111      -0.0162       2.6249
 5234.9400    5234.9400       8.5000    -999.2500    1293.1109    5659.9064       8.4590       8.4590     600.6403     769.0196       6.5768     441.0776     294.0463    6260.4468      -0.0173       2.6210
 5234.7876    5234.7876       8.5000    -999.2500    1323.8277    5712.8515       8.4592       8.4592     587.0448     784.6798       6.5794     451.3225     300.4965    6265.4675      -0.0169       2.6192
 5234.6352    5234.6352       8.5000    -999.2500    1359.1572    5771.2564       8.4609       8.4609     569.1338     807.2392       6.5707     459.8478     303.7318    6264.8599      -0.0179       2.6172
 5234.4828    5234.4828       8.5000    -999.2500    1387.2882    5822.8542       8.4631       8.4631     565.1893     818.4170       6.7103     461.9732     299.7897    6283.6600      -0.0167       2.6149
 5234.3304    5234.3304       8.5000    -999.2500    1401.5041    5860.6264       8.4633       8.4633     568.0226     812.0010       6.7634     457.0130     290.5390    6309.9774      -0.0122       2.6156
 5234.1780    5234.1780       8.5000    -999.2500    1408.9346    5891.6912       8.4622       8.4622     568.3997     791.4390       6.8016     449.1455     284.7064    6296.6657      -0.0101       2.6204
 5234.0256    5234.0256       8.5000    -999.2500    1428.8112    5935.2885       8.4623       8.4623     578.9702     766.4391       6.5564     446.6381     288.0928    6252.0526      -0.0137       2.6237
 5233.8732    5233.8732       8.5000    -999.2500    1461.4196    5991.8873       8.4645       8.4645     597.4545     758.9398       6.4142     451.5293     292.5870    6226.7248      -0.0195       2.6206
 5233.7208    5233.7208       8.5000    -999.2500    1490.8713    6045.9177       8.4669       8.4669     608.1993     771.9261       6.4155     450.8905     293.0013    6230.2316      -0.0237       2.6138
 5233.5684    5233.5684       8.5000    -999.2500    1516.1370    6096.1443       8.4679       8.4679     612.4485     781.8825       6.3679     437.4287     295.6300    6247.0446      -0.0240       2.6090
 5233.4160    5233.4160       8.5000    -999.2500    1539.5694    6144.6656       8.4678       8.4678     613.8860     779.9832       6.2831     424.3141     303.7460    6262.0634      -0.0217       2.6074
 5233.2636    5233.2636       8.5000    -999.2500    1553.0097    6183.3640       8.4680       8.4680     610.2825     787.4358       6.2716     424.5117     311.4399    6261.9043      -0.0225       2.6056
 5233.1112    5233.1112       8.5000    -999.2500    1559.0624    6215.5233       8.4699       8.4699     603.9969     797.2114       6.3062     431.9544     313.3085    6250.2289      -0.0249       2.6046
 5232.9588    5232.9588       8.5000    -999.2500    1574.7727    6258.6210       8.4734       8.4734     596.9850     790.6442       6.3156     435.9131     309.4007    6242.0978      -0.0234       2.6076
