~VERSION INFORMATION
VERS.           2.0   :CWLS Log ASCII Standard - VERSION 2.0
WRAP.           NO    :One Line per depth step
PROD.  Schlumberger   :LAS Producer
PROG.  DLIS to ASCII 2.3                               :LAS Program name and version
CREA.        2023/07/14 00:15                          :LAS Creation date {YYYY/MM/DD hh:mm}
DLIS_CREA.  2023-Jul-14 00:11                          :DLIS Creation date and time {YYYY-MMM-DD hh:mm}
SOURCE.     LIS_009.dlis                               :DLIS File Name
FILE-ID.     LIS   .002                                :File Identification Number
#--------------------------------------------------
~WELL INFORMATION
#MNEM.UNIT      DATA             DESCRIPTION
#---- ------ --------------   -----------------------------
STRT .M      5301.9960       :START DEPTH     
STOP .M      5058.6132       :STOP DEPTH     
STEP .M        -0.1524       :STEP     
NULL .          -999.25      :NULL VALUE
COMP .        PETROBRAS S.A.                           :COMPANY
WELL .        3-BRSA-293D-SPS                          :WELL
FLD  .        BS-400                                   :FIELD
LOC  .        BASE SAD 69:                             :LOCATION
CNTY .        SANTOS                                   :COUNTY
STAT .        BRASIL                                   :STATE
CTRY .        BRASIL                                   :COUNTRY
API  .                                                 :API NUMBER
UWI  .                                                 :UNIQUE WELL ID
DATE .        15/11/2004                               :LOG DATE
SRVC .        Schlumberger                             :SERVICE COMPANY
LATI .DEG                                              :LATITUDE
LONG .DEG                                              :LONGITUDE
GDAT .                                                 :GeoDetic Datum
#-----------------------------------------------------------------------------
~PARAMETER INFORMATION
#MNEM.UNIT    VALUE                      DESCRIPTION
#---- -----   --------------------       ------------------------
APD  .M               24                 :
BHT  .DEGF           260                 :
BLI  .M             5289                 :
BS   .IN         8.50000                 :
CN   .        PETROBRAS S.A.             :
COUN .        SANTOS                     :
CS   .IN         9.62500                 :
DATE .        15/11/2004                 :
DFD  .LB/G      12.30000                 :
DFL  .C3               2                 :
DFPH .        N/A                        :
DFT  .        SINTETICO                  :
DFV  .S               95                 :
DMF  .        MESA ROTATIVA              :
EDF  .M               24                 :
EGL  .M             -500                 :
EKB  .        N/A                        :
ENGI .        HERNANDEZ / LOCK           :
FL1  .        X   7292392.00 M LAT 24 28 47.189 S :
FL2  .        Y    584087.00 M LON 44 10 12.698 W :
FL3  .        MC  45 GRAUS               :
FN   .        BS-400                     :
LMF  .        MESA ROTATIVA              :
LUL  .        MACAE                      :
MCSS .        PRENSA                     :
MCST .DEGF            80                 :
MFSS .        PRENSA                     :
MFST .DEGF            80                 :
MSS  .        LINHA DE FLUXO             :
MST  .DEGF            80                 :
PDAT .        NIVEL DO MAR               :
R1   .        01. APRESENTAÇÃO DE ACORDO COM REQUERIMENTO DO CLIENTE :
R2   .        02. TEMPERATURA MÁXIMA DO POÇO T1=T2= 290 DEGF @  5275 M :
R3   .        03. INICIO DA CIRCULAÇÃO  12/11/2004 09 00 H :
R4   .        04. FINAL DA CIRCULAÇÃO   12/11/2004 18 00 H :
R5   .        05. TEMPO TOTAL DE CIRCULAÇÃO   09 00 H :
R6   .        06. FLUIDO DE PERFURAÇÃO  SINTETICO (BR-MUL  BR-MI)  60% TEOR DO OLEO :
R7   .        07. SALINIDADE DA LAMA  254762 PPM NACL NA FASE DE AGUA :
R8   .        08. INCLINAÇÃO MÁXIMA DO POÇO  37.37 GRAUS @ 5100 M :
R9   .        09. PRIMEIRAS E ULTIMAS LEITURAS  :
RMB  .OHMM    > 10                       :
RMCS .OHMM    > 10                       :
RMFS .OHMM    > 10                       :
RMS  .OHMM    >10                        :
RUN  .                 2                 :
STAT .        BRASIL                     :
TCS  .        18 00 H                    :
TDD  .M             5288                 :
TDL  .M             5293                 :
TLAB .        N/A                        :
TLI  .M             5000                 :
WITN .        ERNANI / ZE MARIA          :
WN   .        3-BRSA-293D-SPS            :
LUN  .              8808                 :
HIDE .        3-SPS-41D                  :
HID2 .        HIGH DEFINITION INDUCTION LOG :
HID3 .        X-MULTIPOLE ARRAY ACOUSTILOG :
HID4 .        GAMMA RAY LOG              :
HID5 .        TTRM SUB                   :
CLAB .        BACIA                      :
SLAB .        PAIS                       :
CMT1 .        ESC  1 200                 :
CMT2 .        PROF. MEDIDA               :
CMT4 .        SONDA  SS-43               :
HDAT .        SAD 69                     :
FL   .        BASE SAD 69                :
OS1  .        RCI/GR                     :
OS2  .        CHECK SHOT                 :
OS3  .        GR/CN/ZDL                  :
OS5  .        RCOR/GR                    :
LNAM .        ZDL/CN/XMAC/HDIL/EARTH IMAGER/RCI/RCOR/CHECK SHOT/GR :
TOOL .        ZDL/CN/XMAC/HDIL/EARTH IMAGER/RCI/RCOR/CHECK SHOT/GR :
LSOU .        PETROBRAS                  :
LSRV .        OH WIRELINE                :
LTYP .        RAW                        :
EPD  .M                0                 :
LDAT .        15/11/2004                 :
TRIP .                 3                 :
SON  .            786588                 :
CBDR .M             4277                 :
CBLO .        NR                         :
CBL1 .        NR                         :
STEM .DEGF    N/A                        :
BSAL .            254762                 :
BARI .        OFF                        :
DLAB .        12/11/2004                 :
MRT  .DEGF           290                 :
TSTR .        HDIL/XMAC/GR/TTRM          :
TSTG .        N/A                        :
STUS .        FINAL                      :
LCNM .        BAKER ATLAS                :
LCC  .               150                 :
NATI .        BRASIL                     :
OPMD .        OH.WIRELINE                :
PANA .        HERNANDEZ / LOCK           :
PCON .        BAKER ATLAS                :
R11  .        SL     5268.3 M / 5000.0 M :
R12  .        GR     5268.3 M / 5000.0 M :
R13  .        XMAC   5279.5 M / 5000.0 M :
R14  .        HDIL   5289.0 M / 5000.0 M :
R17  .        11. DECLINAÇÃO MAGNETICA  -20.9 GRAUS :
R18  .        12. COORDENADAS BASE       :
R21  .        Y    583936.00 M           :
R22  .        MC  45 GRAUS               :
PVER .           4.10000                 :
WDFN .        /space/expusr/3-SPS-41D_RUN2/i77bf01_4spf.xtf :
OCT  .        i77bf                      :
OS4  .        EARTH IMAGER               :
R16  .        10. PONTO FRACO UTILIZADO  10K :
R20  .        X   7292512.00 M           :
R24  .        13. CADASTRO ANP  86316021017 :
#-----------------------------------------------------------------------------
~CURVE INFORMATION
#MNEM.UNIT   API CODE                                  DESCRIPTION
#---- -----  --------                                  -----------------------
DEPT .M                                                :DEPTH (BOREHOLE) {F10.4}
DEPT .M                                                : {F13.4}
BIT  .IN                                               : {F13.4}
GR   .GAPI                                             : {F13.4}
M2R1 .OHMM                                             : {F13.4}
M2R2 .OHMM                                             : {F13.4}
M2R3 .OHMM                                             : {F13.4}
M2R6 .OHMM                                             : {F13.4}
M2R9 .OHMM                                             : {F13.4}
M2RX .OHMM                                             : {F13.4}
SPD  .M/MN                                             : {F13.4}
TEN  .LBF                                              : {F13.4}
TTEN .LBF                                              : {F13.4}
#-----------------------------------------------------------------------------
# 
#     DEPT        DEPT         BIT          GR           M2R1         M2R2         M2R3         M2R6         M2R9         M2RX         SPD          TEN          TTEN
#
~A  
# ...
 5265.4200    5265.4200       8.5000     106.0837       3.6835       5.2123       6.4731       7.3447       7.4936       7.4950       4.6542     -28.9795    7670.5169
 5265.2676    5265.2676       8.5000     109.7481       3.7943       5.3402       6.5833       7.4303       7.5801       7.5899       4.6506     -38.0257    7660.7998
 5265.1152    5265.1152       8.5000     111.4349       3.7009       5.2127       6.3752       7.1413       7.2830       7.3045       4.6447      -8.3993    7690.0234
 5264.9628    5264.9628       8.5000     111.5383       3.5446       5.0221       6.0972       6.7775       6.9078       6.9430       4.6406      49.3140    7748.2640
 5264.8104    5264.8104       8.5000     108.8289       3.4213       4.8817       5.9008       6.5047       6.6240       6.6740       4.6400      82.8249    7783.1845
 5264.6580    5264.6580       8.5000     103.1669       3.3608       4.8077       5.7917       6.3402       6.4490       6.5148       4.6397      66.7258    7768.5305
 5264.5056    5264.5056       8.5000      95.1052       3.3355       4.7403       5.6906       6.1996       6.2977       6.3789       4.6363      24.4272    7726.9674
 5264.3532    5264.3532       8.5000      85.0376       3.3103       4.6292       5.5358       6.0163       6.1033       6.1978       4.6381      -7.0029    7695.5579
 5264.2008    5264.2008       8.5000      76.7659       3.3270       4.5625       5.4370       5.9076       5.9864       6.0928       4.6471     -10.9115    7691.4043
 5264.0484    5264.0484       8.5000      77.6587       3.4628       4.6855       5.5706       6.0611       6.1374       6.2583       4.6542      16.3836    7718.7427
 5263.8960    5263.8960       8.5000      86.6581       3.6461       4.9354       5.8642       6.3949       6.4749       6.6116       4.6521      49.5205    7752.5406
 5263.7436    5263.7436       8.5000      94.6150       3.6790       5.0432       5.9963       6.5515       6.6372       6.7830       4.6455      53.3918    7757.3990
 5263.5912    5263.5912       8.5000      98.9493       3.5598       4.9549       5.8903       6.4468       6.5390       6.6845       4.6367      24.1240    7728.8227
 5263.4388    5263.4388       8.5000     104.2027       3.4258       4.7966       5.6943       6.2326       6.3324       6.4720       4.6294      -5.1374    7699.6965
 5263.2864    5263.2864       8.5000     108.1846       3.3368       4.6302       5.4762       5.9904       6.0987       6.2294       4.6294     -11.4665    7693.2086
 5263.1340    5263.1340       8.5000     106.1330       3.3318       4.5293       5.3298       5.8258       5.9438       6.0657       4.6389      -8.9996    7695.4446
 5262.9816    5262.9816       8.5000      99.3625       3.4764       4.6221       5.4149       5.9147       6.0469       6.1647       4.6467      -6.5584    7697.5910
 5262.8292    5262.8292       8.5000      92.5416       3.7550       4.9277       5.7585       6.2875       6.4397       6.5587       4.6462       9.5990    7713.6051
 5262.6768    5262.6768       8.5000      88.3632       3.9704       5.2161       6.0918       6.6519       6.8232       6.9434       4.6439      30.2759    7734.6025
 5262.5244    5262.5244       8.5000      86.6721       3.9717       5.2736       6.1594       6.7278       6.9082       7.0256       4.6444      31.0072    7735.9717
 5262.3720    5262.3720       8.5000      85.8138       3.8888       5.2108       6.0831       6.6464       6.8285       6.9423       4.6437       9.0935    7714.4921
 5262.2196    5262.2196       8.5000      84.9332       3.8727       5.1858       6.0441       6.6036       6.7846       6.8976       4.6390     -27.5067    7677.6690
 5262.0672    5262.0672       8.5000      84.0737       3.8998       5.1668       6.0093       6.5637       6.7405       6.8545       4.6345     -61.9434    7642.2217
 5261.9148    5261.9148       8.5000      83.0004       3.9231       5.1204       5.9469       6.4936       6.6622       6.7780       4.6314     -57.0567    7645.7927
 5261.7624    5261.7624       8.5000      82.4614       3.9957       5.1486       5.9815       6.5318       6.6927       6.8129       4.6345      -6.6122    7695.5506
 5261.6100    5261.6100       8.5000      82.4056       4.1863       5.3580       6.2388       6.8177       6.9744       7.1039       4.6440      31.6231    7734.0434
 5261.4576    5261.4576       8.5000      81.4648       4.4609       5.7106       6.6760       7.3064       7.4607       7.6034       4.6392      19.4756    7722.3720
 5261.3052    5261.3052       8.5000      82.7705       4.6849       6.0328       7.0866       7.7718       7.9209       8.0756       4.6130     -11.4133    7691.4625
 5261.1528    5261.1528       8.5000      88.4100       4.7831       6.2219       7.3425       8.0698       8.2096       8.3717       4.5973      -7.6726    7694.9462
 5261.0004    5261.0004       8.5000      94.2203       4.7542       6.2655       7.4197       8.1675       8.2954       8.4593       4.6116      30.7325    7733.5958
 5260.8480    5260.8480       8.5000      96.1629       4.6259       6.1834       7.3350       8.0777       8.1938       8.3541       4.6300      69.9648    7773.8771
 5260.6956    5260.6956       8.5000      96.4576       4.4650       6.0439       7.1665       7.8833       7.9898       8.1429       4.6329      86.0800    7791.6083
 5260.5432    5260.5432       8.5000      97.3711       4.2941       5.8604       6.9299       7.6030       7.7031       7.8463       4.6321      74.6187    7781.7804
 5260.3908    5260.3908       8.5000      98.7394       4.1110       5.6213       6.6139       7.2295       7.3255       7.4564       4.6378      50.2469    7758.6049
 5260.2384    5260.2384       8.5000      98.5246       3.9662       5.4008       6.3128       6.8720       6.9665       7.0853       4.6473      29.8474    7738.9161
 5260.0860    5260.0860       8.5000      95.6637       3.9099       5.2795       6.1285       6.6456       6.7419       6.8508       4.6535      11.5170    7720.9436
 5259.9336    5259.9336       8.5000      91.0281       3.9516       5.2808       6.0956       6.5901       6.6912       6.7929       4.6508     -15.1798    7694.1611
 5259.7812    5259.7813       8.5000      87.3343       4.0534       5.3614       6.1694       6.6581       6.7658       6.8622       4.6398     -33.8865    7674.9072
 5259.6288    5259.6288       8.5000      86.3356       4.1662       5.4619       6.2846       6.7795       6.8941       6.9861       4.6306     -23.4939    7684.7187
 5259.4764    5259.4764       8.5000      87.2217       4.2985       5.5982       6.4577       6.9710       7.0929       7.1817       4.6285       3.6789    7711.7516
 5259.3240    5259.3240       8.5000      87.3512       4.4683       5.8008       6.7192       7.2641       7.3940       7.4816       4.6276      19.3957    7727.7412
 5259.1716    5259.1716       8.5000      85.8295       4.6448       6.0430       7.0332       7.6171       7.7551       7.8430       4.6257      26.3390    7735.0600
 5259.0192    5259.0192       8.5000      83.6894       4.7756       6.2724       7.3332       7.9551       8.0997       8.1890       4.6292      44.3966    7753.6778
 5258.8668    5258.8668       8.5000      82.0183       4.7772       6.3743       7.4793       8.1227       8.2699       8.3600       4.6366      58.6495    7768.8609
 5258.7144    5258.7144       8.5000      82.4800       4.5725       6.2070       7.2999       7.9313       8.0736       8.1617       4.6395      52.8410    7764.1352
 5258.5620    5258.5620       8.5000      88.3155       4.2506       5.8390       6.8633       7.4625       7.5940       7.6779       4.6372      46.1011    7758.3710
 5258.4096    5258.4096       8.5000      97.2729       4.0016       5.5143       6.4744       7.0304       7.1507       7.2314       4.6316      60.6886    7774.0193
 5258.2572    5258.2572       8.5000     102.9966       3.9017       5.3523       6.2683       6.7938       6.9054       6.9850       4.6201      91.8671    7806.6925
