~VERSION INFORMATION
VERS.           2.0   :CWLS Log ASCII Standard - VERSION 2.0
WRAP.           NO    :One Line per depth step
PROD.  Schlumberger   :LAS Producer
PROG.  DLIS to ASCII 2.3                               :LAS Program name and version
CREA.        2023/07/14 00:15                          :LAS Creation date {YYYY/MM/DD hh:mm}
DLIS_CREA.  2023-Jul-14 00:11                          :DLIS Creation date and time {YYYY-MMM-DD hh:mm}
SOURCE.     LIS_005.dlis                               :DLIS File Name
FILE-ID.     LIS   .001                                :File Identification Number
#--------------------------------------------------
~WELL INFORMATION
#MNEM.UNIT      DATA             DESCRIPTION
#---- ------ --------------   -----------------------------
STRT .M      5238.7500       :START DEPTH     
STOP .M      5087.2644       :STOP DEPTH     
STEP .M        -0.1524       :STEP     
NULL .          -999.25      :NULL VALUE
COMP .        PETROBRAS S.A.                           :COMPANY
WELL .        3-BRSA-293D-SPS                          :WELL
FLD  .        BS-400                                   :FIELD
LOC  .        BASE SAD 69:                             :LOCATION
CNTY .        SANTOS                                   :COUNTY
STAT .        BRASIL                                   :STATE
CTRY .        SANTOS                                   :COUNTRY
API  .                                                 :API NUMBER
UWI  .                                                 :UNIQUE WELL ID
DATE .        23/10/2004                               :LOG DATE
SRVC .        Schlumberger                             :SERVICE COMPANY
LATI .DEG                                              :LATITUDE
LONG .DEG                                              :LONGITUDE
GDAT .                                                 :GeoDetic Datum
#-----------------------------------------------------------------------------
~PARAMETER INFORMATION
#MNEM.UNIT    VALUE                      DESCRIPTION
#---- -----   --------------------       ------------------------
APD  .M               24                 :
BHT  .DEGF           280                 :
BLI  .M             5230                 :
BS   .IN         8.50000                 :
CN   .        PETROBRAS S.A.             :
COUN .        SANTOS                     :
CS   .IN         9.62500                 :
DATE .        23/10/2004                 :
DFD  .LB/G      12.30000                 :
DFL  .C3               2                 :
DFPH .        N/A                        :
DFT  .        SINTETICO                  :
DFV  .S               87                 :
DMF  .        MESA ROTATIVA              :
EDF  .M               24                 :
EGL  .M             -500                 :
EKB  .        N/A                        :
ENGI .        HERNANDEZ/LOCK             :
FL1  .        X   7292392.00 M LAT 24 28 47.189 S :
FL2  .        Y    584087.00 M LON 44 10 12.698 W :
FL3  .        MC  45 GRAUS               :
FN   .        BS-400                     :
LMF  .        MESA ROTATIVA              :
LUL  .        MACAE                      :
MCSS .        PRENSA                     :
MCST .DEGF            80                 :
MFSS .        PRENSA                     :
MFST .DEGF            80                 :
MSS  .        LINHA DE FLUXO             :
MST  .DEGF            80                 :
PDAT .        NIVEL DO MAR               :
R1   .        01. APRESENTAÇÃO DE ACORDO COM REQUERIMENTO DO CLIENTE :
R2   .        02. TEMPERATURA MÁXIMA DO POÇO T1=T2= 260 DEGF @  5180 M :
R3   .        03. INICIO DA CIRCULAÇÃO  13 45 H 21/10/2004 :
R4   .        04. FINAL DA CIRCULAÇÃO   16 00 H 21/10/2004 :
R5   .        05. TEMPO TOTAL DE CIRCULAÇÃO  02 15 H :
R6   .        06. FLUIDO DE PERFURAÇÃO  SINTETICO (BR-MUL  BR-MI)  65% TEOR DO OLEO :
R7   .        07. SALINIDADE DA LAMA  266377 PPM NACL NA FASE DE AGUA :
R8   .        08. INCLINAÇÃO MÁXIMA DO POÇO  37.37 GRAUS @ 5100 M :
R9   .        09. PRIMEIRAS E ULTIMAS LEITURAS  :
RMB  .OHMM    > 10                       :
RMCS .OHMM    > 10                       :
RMFS .OHMM    > 10                       :
RMS  .OHMM    > 10                       :
RUN  .                 1                 :
STAT .        BRASIL                     :
TCS  .        16 00 H                    :
TDD  .M             5230                 :
TDL  .M             5231                 :
TLAB .        N/A                        :
TLI  .M             4277                 :
WITN .        ALCIDIO/VLADIMIR           :
WN   .        3-BRSA-293D-SPS            :
LUN  .              8808                 :
HIDE .        3-SPS-41D                  :
HID2 .        COMPENSATED Z-DENSILOG     :
HID3 .        COMPENSATED NEUTRON LOG    :
HID4 .        GAMMA RAY LOG              :
HID5 .        TTRM SUB                   :
CLAB .        BACIA                      :
SLAB .        PAIS                       :
CMT1 .        ESC  1 1000                :
CMT2 .        PROF. MEDIDA               :
CMT4 .        SONDA  SS-43               :
HDAT .        SAD 69                     :
FL   .        BASE SAD 69                :
OS1  .        HDIL/XMAC/SL/GR            :
OS3  .        MREX/GR                    :
OS5  .        SL/GR                      :
LNAM .        MREX/ZDL/CN/XMAC/HDIL/3DEX/RCI/SL/GR :
TOOL .        MREX/ZDL/CN/XMAC/HDIL/3DEX/RCI/SL/GR :
LSOU .        PETROBRAS                  :
LSRV .        OH WIRELINE                :
LTYP .        RAW                        :
EPD  .M                0                 :
LDAT .        23/10/2004                 :
TRIP .                 1                 :
SON  .            772317                 :
CBDR .M             4277                 :
CBLO .M             4277                 :
CBL1 .M             4277                 :
STEM .DEGF    N/A                        :
BSAL .            266377                 :
BARI .        OFF                        :
DLAB .        21/10/2004                 :
MRT  .DEGF           280                 :
TSTR .        ZDL/CN/GR/TTRM             :
TSTG .        N/A                        :
STUS .        FINAL                      :
LCNM .        BAKER ATLAS                :
LCC  .               150                 :
NATI .        SANTOS                     :
OPMD .        OH.WIRELINE                :
PANA .        HERNANDEZ/LOCK             :
PCON .        BAKER ATLAS                :
R11  .        GR     5222.5 M/4277.0 M   :
R12  .        ZDL    5230.0 M/4277.0 M   :
R13  .        CN     5224.0 M/4277.0 M   :
R15  .        10. PONTO FRACO UTILIZADO  10K :
R17  .        12. DECLINAÇÃO MAGNETICA  -20.9 GRAUS :
R18  .        13. COORDENADAS BASE       :
R21  .        Y    583936.00 M           :
R22  .        MC  45 GRAUS               :
PVER .           4.10000                 :
WDFN .        /space/expusr/3-SPS-41D/i77bf06_8spf.xtf :
OCT  .        i77bf                      :
0S2  .        3DEX/GR                    :
OS4  .        RCI/GR                     :
R16  .        11. CNC CORREGIDO PELO CALIPER E SALINIDADE  PRESENTADO MATRIZ CARBONATO :
R20  .        X   7292512.00 M           :
R24  .        14. CADASTRO ANP  86316021017 :
#-----------------------------------------------------------------------------
~CURVE INFORMATION
#MNEM.UNIT   API CODE                                  DESCRIPTION
#---- -----  --------                                  -----------------------
DEPT .M                                                :DEPTH (BOREHOLE) {F10.4}
DEPT .M                                                : {F13.4}
BIT  .IN                                               : {F13.4}
GR   .GAPI                                             : {F13.4}
TEN  .LBF                                              : {F13.4}
TTEN .LBF                                              : {F13.4}
CAL  .IN                                               : {F13.4}
CALX .IN                                               : {F13.4}
HRD1 .HZ                                               : {F13.4}
HRD2 .HZ                                               : {F13.4}
PE   .B/E                                              : {F13.4}
SFT2 .HZ                                               : {F13.4}
SOFT .HZ                                               : {F13.4}
SSD  .HZ                                               : {F13.4}
ZCOR .G/C3                                             : {F13.4}
ZDEN .G/C3                                             : {F13.4}
#-----------------------------------------------------------------------------
# 
#     DEPT        DEPT         BIT          GR           TEN          TTEN         CAL          CALX         HRD1         HRD2         PE           SFT2         SOFT         SSD          ZCOR         ZDEN
#
~A  
# ...
 5149.5960    5149.5960       8.5000      67.4582     -22.8787    6296.8782       8.6809       8.6809    1060.0531    1320.8128       3.4954     892.3669     713.2334    7199.4356      -0.0405       2.3596
 5149.4436    5149.4436       8.5000      68.0815     -26.3926    6292.8936       8.6813       8.6813    1088.0656    1369.3539       3.5958     914.8215     723.2008    7339.1544      -0.0317       2.3465
 5149.2912    5149.2912       8.5000      68.3218     -16.3808    6302.4595       8.6811       8.6811    1168.0103    1463.4698       3.5307     976.7803     782.2188    7535.6682      -0.0263       2.3194
 5149.1388    5149.1388       8.5000      66.7614      -6.1719    6312.4136       8.6818       8.6818    1228.4423    1512.4994       3.3635    1030.5274     835.9617    7603.6358      -0.0292       2.3007
 5148.9864    5148.9864       8.5000      64.9188      -8.5198    6309.8849       8.6838       8.6838    1245.4115    1524.6626       3.3218    1064.0168     854.3795    7599.7365      -0.0326       2.2933
 5148.8340    5148.8340       8.5000      64.4142     -15.1842    6302.9466       8.6848       8.6848    1252.9529    1548.3056       3.3676    1080.7694     855.3044    7595.2958      -0.0361       2.2878
 5148.6816    5148.6816       8.5000      64.4513     -14.6570    6303.1472       8.6837       8.6837    1265.8255    1585.3039       3.3892    1083.9381     862.2381    7590.9120      -0.0414       2.2807
 5148.5292    5148.5292       8.5000      63.7473     -12.6960    6304.8115       8.6826       8.6826    1280.2005    1608.2816       3.3881    1087.6974     872.0063    7595.8361      -0.0443       2.2756
 5148.3768    5148.3768       8.5000      63.1421     -14.2623    6302.9680       8.6822       8.6822    1286.4278    1600.1799       3.3883    1090.3691     872.0334    7625.1252      -0.0407       2.2756
 5148.2244    5148.2244       8.5000      64.8644     -18.3157    6298.6106       8.6820       8.6820    1284.9310    1573.0071       3.3939    1076.3794     861.6381    7639.8601      -0.0362       2.2792
 5148.0720    5148.0720       8.5000      68.5965     -21.6299    6294.9569       8.6825       8.6825    1278.4050    1545.4734       3.3933    1062.1757     856.6966    7609.0044      -0.0366       2.2833
 5147.9196    5147.9196       8.5000      71.3544     -25.6016    6290.6023       8.6841       8.6841    1270.5462    1530.8135       3.3816    1068.4660     855.2616    7583.0434      -0.0376       2.2851
 5147.7672    5147.7672       8.5000      70.7101     -29.3900    6286.3697       8.6853       8.6853    1270.0157    1546.1256       3.3808    1076.9608     850.6929    7605.2346      -0.0363       2.2816
 5147.6148    5147.6148       8.5000      67.3439     -22.9549    6292.3926       8.6844       8.6844    1286.6859    1589.2649       3.4081    1074.0322     856.6322    7642.0440      -0.0377       2.2726
 5147.4624    5147.4624       8.5000      64.1348      -5.4967    6309.6422       8.6829       8.6829    1304.6375    1636.5441       3.4186    1070.8260     884.0089    7663.8270      -0.0411       2.2635
 5147.3100    5147.3100       8.5000      63.0013      -0.3244    6314.7476       8.6830       8.6830    1301.4274    1655.8615       3.4366    1071.2282     905.7326    7677.6224      -0.0410       2.2606
 5147.1576    5147.1576       8.5000      63.8251     -16.2766    6298.5662       8.6835       8.6835    1285.6047    1637.1189       3.4445    1073.3260     895.2750    7664.7224      -0.0393       2.2642
 5147.0052    5147.0052       8.5000      65.1756     -28.3540    6286.0071       8.6832       8.6832    1270.0710    1609.8835       3.4693    1077.9047     872.5508    7625.5328      -0.0400       2.2687
 5146.8528    5146.8528       8.5000      65.5599     -26.3552    6287.4551       8.6830       8.6830    1257.9773    1616.5623       3.5435    1083.1835     864.0657    7597.6724      -0.0428       2.2683
 5146.7004    5146.7004       8.5000      64.0481     -26.7164    6286.5291       8.6832       8.6832    1261.5628    1654.9781       3.6155    1090.6378     869.3393    7605.0766      -0.0458       2.2621
 5146.5480    5146.5480       8.5000      61.3321     -31.7726    6280.8477       8.6832       8.6832    1284.0105    1689.3172       3.6193    1103.2412     879.6018    7633.0081      -0.0477       2.2545
 5146.3956    5146.3956       8.5000      59.0266     -33.5517    6278.4392       8.6818       8.6818    1309.0764    1693.5448       3.6010    1117.0889     890.4471    7653.0895      -0.0480       2.2504
 5146.2432    5146.2432       8.5000      58.1521     -34.6862    6276.7201       8.6789       8.6789    1315.5640    1679.7600       3.6030    1117.6747     897.0692    7643.4746      -0.0485       2.2515
 5146.0908    5146.0908       8.5000      59.0210     -36.0162    6274.8220       8.6759       8.6759    1304.0964    1661.8777       3.5955    1097.5894     891.8526    7610.0737      -0.0497       2.2561
 5145.9384    5145.9384       8.5000      60.6943     -33.5161    6276.8134       8.6745       8.6745    1281.7449    1642.0730       3.6157    1069.6651     872.4186    7556.7072      -0.0522       2.2628
 5145.7860    5145.7860       8.5000      62.3119     -32.5547    6277.3045       8.6750       8.6750    1253.7723    1622.8079       3.6809    1047.8530     848.5986    7499.1463      -0.0547       2.2699
 5145.6336    5145.6336       8.5000      63.8108     -29.1126    6280.2466       8.6769       8.6769    1233.5656    1621.8987       3.7108    1038.2148     836.0271    7494.3576      -0.0533       2.2734
 5145.4812    5145.4812       8.5000      64.2280      -8.6283    6300.3720       8.6799       8.6799    1237.0723    1634.9329       3.6941    1050.7052     841.8575    7557.5309      -0.0473       2.2728
 5145.3288    5145.3288       8.5000      62.4990      21.1022    6330.2003       8.6829       8.6829    1239.8267    1628.3245       3.6735    1069.8837     855.2436    7623.7899      -0.0391       2.2749
 5145.1764    5145.1764       8.5000      60.1605      35.2109    6344.8046       8.6866       8.6866    1218.0098    1597.3628       3.6176    1068.3744     851.5488    7632.4949      -0.0331       2.2822
 5145.0240    5145.0240       8.5000      59.4379      32.3629    6342.5030       8.6899       8.6899    1196.9004    1571.6576       3.7167    1048.0991     821.3718    7611.9525      -0.0310       2.2887
 5144.8716    5144.8716       8.5000      59.9829      37.0880    6347.7817       8.6902       8.6902    1197.8312    1564.1210       3.9258    1024.2796     788.1587    7614.7747      -0.0300       2.2907
 5144.7192    5144.7192       8.5000      60.7766      54.5030    6365.9995       8.6885       8.6885    1205.3441    1558.9297       4.0011    1005.0307     774.8986    7628.2549      -0.0286       2.2914
 5144.5668    5144.5668       8.5000      61.5937      67.5784    6380.1650       8.6877       8.6877    1212.6928    1547.3113       3.8215    1006.0152     791.5019    7614.2445      -0.0299       2.2926
 5144.4144    5144.4144       8.5000      61.7135      72.9378    6386.7600       8.6870       8.6870    1224.5770    1536.6839       3.5063    1024.7672     829.1509    7590.9500      -0.0327       2.2935
 5144.2620    5144.2620       8.5000      60.5148      73.7641    6388.8966       8.6864       8.6864    1226.4489    1530.2740       3.2746    1036.4131     856.4420    7583.3100      -0.0332       2.2961
 5144.1096    5144.1096       8.5000      58.3174      60.6608    6376.9783       8.6872       8.6872    1203.8214    1505.6536       3.1773    1028.8448     854.3538    7537.7669      -0.0340       2.3039
 5143.9572    5143.9572       8.5000      57.0174      34.5507    6351.6194       8.6880       8.6880    1175.3881    1465.7932       3.1482    1009.7820     839.2391    7398.3436      -0.0439       2.3141
 5143.8048    5143.8048       8.5000      57.7365      16.1487    6333.5496       8.6880       8.6880    1163.4466    1447.4823       3.1498     994.2296     829.5238    7281.4311      -0.0551       2.3191
