~VERSION INFORMATION
VERS.           2.0   :CWLS Log ASCII Standard - VERSION 2.0
WRAP.           YES   :Multiple lines per depth step
PROD.  Schlumberger   :LAS Producer
PROG.  DLIS to ASCII 2.3                               :LAS Program name and version
CREA.        2023/07/14 00:15                          :LAS Creation date {YYYY/MM/DD hh:mm}
DLIS_CREA.  2023-Jul-14 00:11                          :DLIS Creation date and time {YYYY-MMM-DD hh:mm}
SOURCE.     LIS_007.dlis                               :DLIS File Name
FILE-ID.     LIS   .003                                :File Identification Number
#--------------------------------------------------
~WELL INFORMATION
#MNEM.UNIT      DATA             DESCRIPTION
#---- ------ --------------   -----------------------------
STRT .M      5238.7500       :START DEPTH     
STOP .M      4241.4444       :STOP DEPTH     
STEP .M        -0.1524       :STEP     
NULL .          -999.25      :NULL VALUE
COMP .        PETROBRAS S.A.                           :COMPANY
WELL .        3-BRSA-293D-SPS                          :WELL
FLD  .        BS-400                                   :FIELD
LOC  .        BASE SAD 69:                             :LOCATION
CNTY .        SANTOS                                   :COUNTY
STAT .        BRASIL                                   :STATE
CTRY .        SANTOS                                   :COUNTRY
API  .                                                 :API NUMBER
UWI  .                                                 :UNIQUE WELL ID
DATE .        23/10/2004                               :LOG DATE
SRVC .        Schlumberger                             :SERVICE COMPANY
LATI .DEG                                              :LATITUDE
LONG .DEG                                              :LONGITUDE
GDAT .                                                 :GeoDetic Datum
#-----------------------------------------------------------------------------
~PARAMETER INFORMATION
#MNEM.UNIT    VALUE                      DESCRIPTION
#---- -----   --------------------       ------------------------
APD  .M               24                 :
BHT  .DEGF           280                 :
BLI  .M             5230                 :
BS   .IN         8.50000                 :
CN   .        PETROBRAS S.A.             :
COUN .        SANTOS                     :
CS   .IN         9.62500                 :
DATE .        23/10/2004                 :
DFD  .LB/G      12.30000                 :
DFL  .C3               2                 :
DFPH .        N/A                        :
DFT  .        SINTETICO                  :
DFV  .S               87                 :
DMF  .        MESA ROTATIVA              :
EDF  .M               24                 :
EGL  .M             -500                 :
EKB  .        N/A                        :
ENGI .        HERNANDEZ/LOCK             :
FL1  .        X   7292392.00 M LAT 24 28 47.189 S :
FL2  .        Y    584087.00 M LON 44 10 12.698 W :
FL3  .        MC  45 GRAUS               :
FN   .        BS-400                     :
LMF  .        MESA ROTATIVA              :
LUL  .        MACAE                      :
MCSS .        PRENSA                     :
MCST .DEGF            80                 :
MFSS .        PRENSA                     :
MFST .DEGF            80                 :
MSS  .        LINHA DE FLUXO             :
MST  .DEGF            80                 :
PDAT .        NIVEL DO MAR               :
R1   .        01. APRESENTAÇÃO DE ACORDO COM REQUERIMENTO DO CLIENTE :
R2   .        02. TEMPERATURA MÁXIMA DO POÇO T1=T2= 260 DEGF @  5180 M :
R3   .        03. INICIO DA CIRCULAÇÃO  13 45 H 21/10/2004 :
R4   .        04. FINAL DA CIRCULAÇÃO   16 00 H 21/10/2004 :
R5   .        05. TEMPO TOTAL DE CIRCULAÇÃO  02 15 H :
R6   .        06. FLUIDO DE PERFURAÇÃO  SINTETICO (BR-MUL  BR-MI)  65% TEOR DO OLEO :
R7   .        07. SALINIDADE DA LAMA  266377 PPM NACL NA FASE DE AGUA :
R8   .        08. INCLINAÇÃO MÁXIMA DO POÇO  37.37 GRAUS @ 5100 M :
R9   .        09. PRIMEIRAS E ULTIMAS LEITURAS  :
RMB  .OHMM    > 10                       :
RMCS .OHMM    > 10                       :
RMFS .OHMM    > 10                       :
RMS  .OHMM    > 10                       :
RUN  .                 1                 :
STAT .        BRASIL                     :
TCS  .        16 00 H                    :
TDD  .M             5230                 :
TDL  .M             5231                 :
TLAB .        N/A                        :
TLI  .M             4277                 :
WITN .        ALCIDIO/VLADIMIR           :
WN   .        3-BRSA-293D-SPS            :
LUN  .              8808                 :
HIDE .        3-SPS-41D                  :
HID2 .        COMPENSATED Z-DENSILOG     :
HID3 .        COMPENSATED NEUTRON LOG    :
HID4 .        GAMMA RAY LOG              :
HID5 .        TTRM SUB                   :
CLAB .        BACIA                      :
SLAB .        PAIS                       :
CMT1 .        ESC  1 1000                :
CMT2 .        PROF. MEDIDA               :
CMT4 .        SONDA  SS-43               :
HDAT .        SAD 69                     :
FL   .        BASE SAD 69                :
OS1  .        HDIL/XMAC/SL/GR            :
OS3  .        MREX/GR                    :
OS5  .        SL/GR                      :
LNAM .        MREX/ZDL/CN/XMAC/HDIL/3DEX/RCI/SL/GR :
TOOL .        MREX/ZDL/CN/XMAC/HDIL/3DEX/RCI/SL/GR :
LSOU .        PETROBRAS                  :
LSRV .        OH WIRELINE                :
LTYP .        RAW                        :
EPD  .M                0                 :
LDAT .        23/10/2004                 :
TRIP .                 1                 :
SON  .            772317                 :
CBDR .M             4277                 :
CBLO .M             4277                 :
CBL1 .M             4277                 :
STEM .DEGF    N/A                        :
BSAL .            266377                 :
BARI .        OFF                        :
DLAB .        21/10/2004                 :
MRT  .DEGF           280                 :
TSTR .        ZDL/CN/GR/TTRM             :
TSTG .        N/A                        :
STUS .        FINAL                      :
LCNM .        BAKER ATLAS                :
LCC  .               150                 :
NATI .        SANTOS                     :
OPMD .        OH.WIRELINE                :
PANA .        HERNANDEZ/LOCK             :
PCON .        BAKER ATLAS                :
R11  .        GR     5222.5 M/4277.0 M   :
R12  .        ZDL    5230.0 M/4277.0 M   :
R13  .        CN     5224.0 M/4277.0 M   :
R15  .        10. PONTO FRACO UTILIZADO  10K :
R17  .        12. DECLINAÇÃO MAGNETICA  -20.9 GRAUS :
R18  .        13. COORDENADAS BASE       :
R21  .        Y    583936.00 M           :
R22  .        MC  45 GRAUS               :
PVER .           4.10000                 :
WDFN .        /space/expusr/3-SPS-41D/i77bf07_4spf.xtf :
OCT  .        i77bf                      :
0S2  .        3DEX/GR                    :
OS4  .        RCI/GR                     :
R16  .        11. CNC CORREGIDO PELO CALIPER E SALINIDADE  PRESENTADO MATRIZ CARBONATO :
R20  .        X   7292512.00 M           :
R24  .        14. CADASTRO ANP  86316021017 :
#-----------------------------------------------------------------------------
~CURVE INFORMATION
#MNEM.UNIT   API CODE                                  DESCRIPTION
#---- -----  --------                                  -----------------------
DEPT .M                                                :DEPTH (BOREHOLE) {F10.4}
DEPT .M                                                : {F13.4}
BIT  .IN                                               : {F13.4}
DEPM .M                                                : {F13.4}
GR   .GAPI                                             : {F13.4}
SPD  .M/MN                                             : {F13.4}
TEN  .LBF                                              : {F13.4}
TTEN .LBF                                              : {F13.4}
CAL  .IN                                               : {F13.4}
CALX .IN                                               : {F13.4}
HRD1 .HZ                                               : {F13.4}
HRD2 .HZ                                               : {F13.4}
PE   .B/E                                              : {F13.4}
SFT2 .HZ                                               : {F13.4}
SOFT .HZ                                               : {F13.4}
SSD  .HZ                                               : {F13.4}
ZCOR .G/C3                                             : {F13.4}
ZDEN .G/C3                                             : {F13.4}
CNC  .PU                                               : {F13.4}
CN   .PU                                               : {F13.4}
LSN  .HZ                                               : {F13.4}
SSN  .HZ                                               : {F13.4}
CNCF .PU                                               : {F13.4}
#-----------------------------------------------------------------------------
# DEPT       
#     DEPT         BIT          DEPM         GR           SPD          TEN          
#     TTEN         CAL          CALX         HRD1         HRD2         PE           
#     SFT2         SOFT         SSD          ZCOR         ZDEN         CNC          
#     CN           LSN          SSN          CNCF         
~A  
# ...
4453.5852
   4453.5852       8.5000    4453.0520      79.8051       6.2775     -26.9456
   5611.6529       8.7312       8.7312     693.2768     927.2517       5.1868
    548.0216     400.9422    6433.1175      -0.0381       2.5335      17.2656
     17.5909    1308.1843    3091.5101      17.2656
4453.4328
   4453.4328       8.5000    4452.8996      77.4940       6.2716     -27.3614
   5610.8558       8.7317       8.7317     699.8517     921.8414       5.0118
    556.1506     409.4322    6471.2494      -0.0330       2.5310      17.2608
     17.5864    1328.3885    3138.8306      17.2608
4453.2804
   4453.2804       8.5000    4452.7462      75.8294       6.2707     -31.6538
   5606.1660       8.7311       8.7311     707.8507     907.9062       4.9670
    563.1553     405.1744    6494.2781      -0.0288       2.5309      17.3325
     17.6584    1343.9372    3182.4336      17.3325
4453.1280
   4453.1280       8.5000    4452.5938      76.4019       6.2947     -26.3059
   5611.1475       8.7311       8.7311     717.2608     901.9354       4.9557
    563.1220     398.7949    6483.0693      -0.0309       2.5300      17.4962
     17.8236    1340.1169    3189.0436      17.4962
4452.9756
   4452.9756       8.5000    4452.4414      78.1854       6.3282     -10.1935
   5627.0381       8.7317       8.7317     713.9620     904.0706       4.8409
    558.6520     406.1846    6468.7656      -0.0327       2.5301      17.2280
     17.5534    1335.9646    3153.5962      17.2280
4452.8232
   4452.8232       8.5000    4452.2900      79.0624       6.3214      -0.1515
   5637.0049       8.7318       8.7318     700.5310     906.8455       4.5804
    554.4645     424.2944    6467.3789      -0.0311       2.5317      16.8107
     17.1322    1334.8625    3110.9155      16.8107
4452.6708
   4452.6708       8.5000    4452.1366      78.9776       6.2775      -7.5780
   5629.4976       8.7312       8.7312     694.9629     908.6661       4.4476
    557.0273     434.7564    6448.3167      -0.0331       2.5321      16.8041
     17.1251    1327.8303    3093.8544      16.8041
4452.5184
   4452.5184       8.5000    4451.9842      79.2429       6.2569     -21.4434
   5615.4360       8.7302       8.7302     699.0070     911.7011       4.5334
    560.6964     429.5767    6386.2302      -0.0430       2.5308      16.9232
     17.2446    1323.8734    3095.9461      16.9232
4452.3660
   4452.3660       8.5000    4451.8318      79.5722       6.2716     -30.0788
   5606.4770       8.7304       8.7304     696.4708     917.5408       4.7004
    563.1578     419.8244    6343.3635      -0.0496       2.5301      16.8487
     17.1695    1326.3292    3094.5726      16.8487
4452.2136
   4452.2136       8.5000    4451.6804      79.2074       6.2827     -31.7788
   5604.3717       8.7315       8.7315     695.0582     924.9920       4.7789
    574.0793     419.1476    6404.9712      -0.0420       2.5276      16.7930
     17.1141    1326.4995    3089.7041      16.7930
4452.0612
   4452.0612       8.5000    4451.5280      77.2471       6.2784     -28.0675
   5607.6593       8.7308       8.7308     712.3382     943.0650       4.7959
    594.4038     429.6114    6544.3061      -0.0284       2.5178      16.8499
     17.1710    1324.0828    3089.4704      16.8499
4451.9088
   4451.9088       8.5000    4451.3756      74.5956       6.2808     -20.0516
   5615.3218       8.7361       8.7361     743.9931     981.6461       4.8449
    613.7402     439.3980    6651.7025      -0.0250       2.5013      17.0158
     17.3423    1315.8568    3086.3698      17.0158
4451.7564
   4451.7564       8.5000    4451.2232      73.3949       6.3040     -16.7254
   5618.3636       8.7646       8.7646     765.9507    1016.3004       4.8896
    631.6003     447.1983    6674.7340      -0.0305       2.4883      17.3698
     17.7205    1295.0264    3072.3012      17.3698
4451.6040
   4451.6040       8.5000    4451.0708      73.6215       6.3247     -17.3558
   5617.4436       8.8073       8.8073     769.5293    1021.9851       4.8850
    640.4474     458.4467    6642.3159      -0.0363       2.4843      17.7746
     18.1610    1268.7434    3049.3355      17.7746
4451.4516
   4451.4516       8.5000    4450.9184      73.0390       6.3096     -17.7126
   5616.7781       8.8325       8.8325     768.1524    1023.8542       4.8548
    627.9073     461.4855    6612.5097      -0.0404       2.4837      17.8051
     18.2104    1254.7268    3019.9985      17.8051
4451.2992
   4451.2992       8.5000    4450.7660      71.7961       6.2764     -24.6508
   5609.4782       8.8325       8.8325     767.6048    1030.8619       4.8523
    612.8964     452.7895    6637.5882      -0.0380       2.4837      17.4802
     17.8816    1255.7173    2993.3458      17.4802
4451.1468
   4451.1468       8.5000    4450.6136      71.3062       6.2648     -38.2636
   5595.3660       8.8270       8.8270     766.6516    1018.4595       4.8707
    612.5179     451.8056    6676.3050      -0.0308       2.4876      17.0475
     17.4398    1269.2590    2985.8871      17.0475
4450.9944
   4450.9944       8.5000    4450.4612      71.4365       6.2714     -42.6253
   5590.3837       8.8251       8.8251     762.5825     993.9771       4.7024
    617.9807     459.0859    6662.9792      -0.0282       2.4947      16.7116
     17.0984    1288.5556    2999.8784      16.7116
4450.8420
   4450.8420       8.5000    4450.3088      72.0569       6.2752     -38.0669
   5594.3231       8.8239       8.8239     755.6360     978.2223       4.7116
    619.7186     459.3207    6617.6713      -0.0308       2.5003      16.6819
     17.0674    1299.1633    3021.6919      16.6819
4450.6896
   4450.6896       8.5000    4450.1564      73.0844       6.2761     -40.1646
   5591.5897       8.8223       8.8223     754.4465     976.7179       4.7464
    619.7526     455.9366    6584.9639      -0.0349       2.5012      17.0007
     17.3890    1296.4333    3045.1262      17.0007
4450.5372
   4450.5372       8.5000    4450.0040      73.6578       6.2873     -42.6497
   5588.3941       8.8206       8.8206     759.1211     987.4383       4.7323
    616.4386     452.8469    6569.7667      -0.0393       2.4980      17.2854
     17.6759    1297.9729    3075.1960      17.2854
4450.3848
   4450.3848       8.5000    4449.8516      73.8489       6.2943     -33.8264
   5596.5547       8.8193       8.8193     761.5780     997.7689       4.8177
    611.1125     447.7003    6590.1143      -0.0385       2.4943      17.2672
     17.6566    1315.0574    3113.8711      17.2672
4450.2324
   4450.2324       8.5000    4449.6982      73.8744       6.2581     -26.5254
   5603.3291       8.8181       8.8181     765.3593    1009.9103       4.8149
    612.7867     448.1752    6674.3477      -0.0295       2.4891      17.1711
     17.5584    1334.2417    3150.0112      17.1711
4450.0800
   4450.0800       8.5000    4449.5458      73.1762       6.1934     -27.6943
   5601.6799       8.8174       8.8174     785.6478    1029.0227       4.8073
    623.8496     462.3524    6758.8356      -0.0241       2.4799      16.9850
     17.3696    1349.5747    3168.0875      16.9850
4449.9276
   4449.9276       8.5000    4449.3934      72.8056       6.1599     -14.6381
   5614.3832       8.8179       8.8179     819.7990    1048.1928       4.8005
    634.8841     475.7835    6783.7297      -0.0286       2.4697      16.6027
     16.9831    1362.0319    3159.6741      16.6027
4449.7752
   4449.7752       8.5000    4449.2410      73.2097       6.1660      19.0956
   5648.1868       8.8194       8.8194     834.3538    1047.7918       4.8066
    638.1420     472.5151    6770.9085      -0.0324       2.4669      16.3447
     16.7229    1359.3251    3127.9494      16.3447
4449.6228
   4449.6228       8.5000    4449.0896      73.7868       6.1694      39.5154
   5669.0709       8.8206       8.8206     818.0535    1027.3598       4.7703
    634.8006     463.8022    6746.1829      -0.0303       2.4738      16.4900
     16.8708    1334.2624    3084.4904      16.4900
4449.4704
   4449.4704       8.5000    4448.9372      74.1986       6.1622      27.7793
   5657.7697       8.8211       8.8211     792.1600     999.3882       4.5397
    624.7416     468.1995    6704.9689      -0.0279       2.4847      16.8211
     17.2064    1303.6337    3045.0536      16.8211
