~VERSION INFORMATION
VERS.           2.0   :CWLS Log ASCII Standard - VERSION 2.0
WRAP.           NO    :One Line per depth step
PROD.  Schlumberger   :LAS Producer
PROG.  DLIS to ASCII 2.3                               :LAS Program name and version
CREA.        2023/07/14 00:15                          :LAS Creation date {YYYY/MM/DD hh:mm}
DLIS_CREA.  2023-Jul-14 00:11                          :DLIS Creation date and time {YYYY-MMM-DD hh:mm}
SOURCE.     LIS_003.dlis                               :DLIS File Name
FILE-ID.     LIS   .003                                :File Identification Number
#--------------------------------------------------
~WELL INFORMATION
#MNEM.UNIT      DATA             DESCRIPTION
#---- ------ --------------   -----------------------------
STRT .M      5239.8168       :START DEPTH     
STOP .M      3827.6784       :STOP DEPTH     
STEP .M        -0.1524       :STEP     
NULL .          -999.25      :NULL VALUE
COMP .        PETROBRAS S.A.                           :COMPANY
WELL .        3-BRSA-293D-SPS                          :WELL
FLD  .        BS-400                                   :FIELD
LOC  .        BASE SAD 69:                             :LOCATION
CNTY .        SANTOS                                   :COUNTY
STAT .        BRASIL                                   :STATE
CTRY .        BRASIL                                   :COUNTRY
API  .                                                 :API NUMBER
UWI  .                                                 :UNIQUE WELL ID
DATE .        22/10/2004                               :LOG DATE
SRVC .        Schlumberger                             :SERVICE COMPANY
LATI .DEG                                              :LATITUDE
LONG .DEG                                              :LONGITUDE
GDAT .                                                 :GeoDetic Datum
#-----------------------------------------------------------------------------
~PARAMETER INFORMATION
#MNEM.UNIT    VALUE                      DESCRIPTION
#---- -----   --------------------       ------------------------
APD  .M               24                 :
BHT  .DEGF           260                 :
BLI  .M       5227.50000                 :
BS   .IN         8.50000                 :
CN   .        PETROBRAS S.A.             :
COUN .        SANTOS                     :
CS   .IN         9.62500                 :
DATE .        22/10/2004                 :
DFD  .LB/G      12.30000                 :
DFL  .C3               2                 :
DFPH .        N/A                        :
DFT  .        SINTETICO                  :
DFV  .S               87                 :
DMF  .        MESA ROTATIVA              :
EDF  .M               24                 :
EGL  .M             -500                 :
EKB  .        N/A                        :
ENGI .        HERNANDEZ/LOCK             :
FL1  .        X   7292392.00 M LAT 24 28 47.189 S :
FL2  .        Y    584087.00 M LON 44 10 12.698 W :
FL3  .        MC  45 GRAUS               :
FN   .        BS-400                     :
LMF  .        MESA ROTATIVA              :
LUL  .        MACAE                      :
MCSS .        PRENSA                     :
MCST .DEGF            80                 :
MFSS .        PRENSA                     :
MFST .DEGF            80                 :
MSS  .        LINHA DE FLUXO             :
MST  .DEGF            80                 :
PDAT .        NIVEL DO MAR               :
R1   .        01. APRESENTAÇÃO DE ACORDO COM REQUERIMENTO DO CLIENTE :
R2   .        02. TEMPERATURA MÁXIMA DO POÇO T1=T2= 260 DEGF @  5180 M :
R3   .        03. INICIO DA CIRCULAÇÃO  13 45 H 21/10/2004 :
R4   .        04. FINAL DA CIRCULAÇÃO   16 00 H 21/10/2004 :
R5   .        05. TEMPO TOTAL DE CIRCULAÇÃO  02 15 H :
R6   .        06. FLUIDO DE PERFURAÇÃO  SINTETICO (BR-MUL  BR-MI)  65% TEOR DO OLEO :
R7   .        07. SALINIDADE DA LAMA  266377 PPM NACL NA FASE DE AGUA :
R8   .        08. INCLINAÇÃO MÁXIMA DO POÇO  37.37 GRAUS @ 5100 M :
R9   .        09. PRIMEIRAS E ULTIMAS LEITURAS  :
RMB  .OHMM    > 10                       :
RMCS .OHMM    > 10                       :
RMFS .OHMM    > 10                       :
RMS  .OHMM    > 10                       :
RUN  .                 1                 :
STAT .        BRASIL                     :
TCS  .        16 00 H                    :
TDD  .M             5230                 :
TDL  .M             5231                 :
TLAB .        N/A                        :
TLI  .M             3850                 :
WITN .        ALCIDIO/VLADIMIR           :
WN   .        3-BRSA-293D-SPS            :
LUN  .              8808                 :
HIDE .        3-SPS-41D                  :
HID2 .        HIGH DEFINITION INDUCTION LOG :
HID3 .        X-MULTIPOLE ARRAY ACOUSTILOG :
HID4 .        GAMMA RAY LOG              :
HID5 .        TTRM SUB                   :
CLAB .        BACIA                      :
SLAB .        PAIS                       :
CMT1 .        ESC  1 1000                :
CMT2 .        PROF. MEDIDA               :
CMT4 .        SONDA  SS-43               :
HDAT .        SAD 69                     :
FL   .        BASE SAD 69                :
OS1  .        GR/CN/ZDL                  :
OS2  .        MREX/GR                    :
OS3  .        RCI/GR                     :
0S4  .        3DEX/GR                    :
OS5  .        SL/GR                      :
LNAM .        MREX/ZDL/CN/XMAC/HDIL/RCI/3DEX/SL/GR :
TOOL .        MREX/ZDL/CN/XMAC/HDIL/RCI/3DEX/SL/GR :
LSOU .        PETROBRAS                  :
LSRV .        OH WIRELINE                :
LTYP .        RAW                        :
EPD  .M                0                 :
LDAT .        22/10/2004                 :
TRIP .                 1                 :
SON  .            772317                 :
CBDR .M             4277                 :
CBLO .M             4277                 :
CBL1 .M             4277                 :
STEM .DEGF    N/A                        :
BSAL .            266377                 :
BARI .        OFF                        :
DLAB .        21/10/2004                 :
MRT  .DEGF           260                 :
TSTR .        HDIL/XMAC/GR/TTRM          :
TSTG .        N/A                        :
STUS .        FINAL                      :
LCNM .        BAKER ATLAS                :
LCC  .               150                 :
NATI .        BRASIL                     :
OPMD .        OH.WIRELINE                :
PANA .        HERNANDEZ/LOCK             :
PCON .        BAKER ATLAS                :
R11  .        SL     5196.0 M/4960.0 M   :
R12  .        GR     4960.0 M/4277.0 M   :
R13  .        XMAC   5202.0 M/3850.0 M   :
R14  .        HDIL   5227.5 M/4277.0 M   :
R15  .        3DEX   5217.0 M/4960.0 M   :
R17  .        10. PONTO FRACO UTILIZADO  10K :
R18  .        11. DECLINAÇÃO MAGNETICA  -20.9 GRAUS :
R19  .        12. COORDENADAS ARATU      :
R21  .        X   7292512.00 M           :
R22  .        Y    583936.00 M           :
R23  .        MC  45 GRAUS               :
R25  .        13. CADASTRO ANP  86316021017 :
PVER .           4.10000                 :
WDFN .        /space/expusr/3-SPS-41D/i77bf03_2spf.xtf :
OCT  .        i77bf                      :
#-----------------------------------------------------------------------------
~CURVE INFORMATION
#MNEM.UNIT   API CODE                                  DESCRIPTION
#---- -----  --------                                  -----------------------
DEPT .M                                                :DEPTH (BOREHOLE) {F10.4}
DEPT .M                                                : {F13.4}
DT   .US/F                                             : {F13.4}
SFN1 .US                                               : {F13.4}
SFN2 .US                                               : {F13.4}
SFN3 .US                                               : {F13.4}
SFN4 .US                                               : {F13.4}
TT   .MS                                               : {F13.4}
#-----------------------------------------------------------------------------
# 
#     DEPT        DEPT         DT           SFN1         SFN2         SFN3         SFN4         TT
#
~A  
# ...
 4673.9556    4673.9556      68.0490     701.3681     734.2479     771.8711     806.2521     120.0843
 4673.8032    4673.8032      66.5342     701.2504     734.2500     770.2550     805.6269     120.1176
 4673.6508    4673.6508      65.7881     700.1280     733.8760     770.2500     804.3784     120.1505
 4673.4984    4673.4984      66.1187     699.7509     732.8773     770.2500     804.2503     120.1836
 4673.3460    4673.3460      67.2300     700.7481     733.9978     769.7510     804.8738     120.2172
 4673.1936    4673.1936      68.4934     700.8748     734.7488     770.9980     805.6238     120.2515
 4673.0412    4673.0412      69.4331     700.8750     734.6252     770.8752     806.1244     120.2862
 4672.8888    4672.8888      69.9889     700.7501     734.7499     770.8750     806.1250     120.3212
 4672.7364    4672.7364      70.3421     700.8749     734.6251     770.9999     806.1250     120.3564
 4672.5840    4672.5840      70.5988     700.7500     734.8750     771.1250     806.2500     120.3917
 4672.4316    4672.4316      70.7151     700.8750     734.8750     771.0000     806.2500     120.4271
 4672.2792    4672.2792      70.5964     700.8748     734.8749     771.0001     806.2500     120.4624
 4672.1268    4672.1268      70.2512     700.6254     734.7497     771.1250     806.2501     120.4975
 4671.9744    4671.9744      69.8059     700.9998     734.5005     771.1250     806.3750     120.5325
 4671.8220    4671.8220      69.4089     700.8750     734.8750     771.1250     806.3728     120.5672
 4671.6696    4671.6696      69.1554     700.8753     734.8753     771.1247     805.1279     120.6018
 4671.5172    4671.5172      69.0150     700.9995     734.9995     771.0005     806.4946     120.6361
 4671.3648    4671.3648      68.8301     700.7509     734.8754     771.1246     806.3754     120.6705
 4671.2124    4671.2124      68.4317     419.6495     734.9996     771.2496     806.3750     120.7047
 4671.0600    4671.0600      67.8327     257.4562     885.6987     771.1254     806.4996     120.7386
 4670.9076    4670.9076      67.3022     710.8847     285.8501     777.7338     806.6247     120.7723
 4670.7552    4670.7552      67.1860     712.0000     743.0430     318.7077     879.8472     120.8059
 4670.6028    4670.6028      67.6638     712.0000     744.3744     779.0835     350.9078     120.8398
 4670.4504    4670.4504      68.6007     712.0000     744.6247     780.1247     815.3739     120.8741
 4670.2980    4670.2980      69.5768     712.0000     745.1245     780.6245     816.0000     120.9089
 4670.1456    4670.1456      70.1635     712.0000     744.6253     781.6244     816.0000     120.9440
 4669.9932    4669.9932      70.2117     710.1250     744.0000     782.3750     815.6250     120.9791
 4669.8408    4669.8408      69.8583     708.8750     744.0000     780.1250     815.3750     121.0140
 4669.6884    4669.6884      69.3718     705.1257     742.2500     777.3756     814.6249     121.0487
 4669.5360    4669.5360      68.9630     706.5041     742.2512     778.4992     814.4999     121.0832
 4669.3836    4669.3836      68.6479     711.2460     743.6242     777.6244     814.3728     121.1176
 4669.2312    4669.2312      68.3377     708.0016     742.9986     777.1248     812.6232     121.1517
 4669.0788    4669.0788      68.0421     708.9983     742.1248     776.9980     811.4998     121.1858
 4668.9264    4668.9264      67.8697     708.1253     742.0000     776.0000     811.3692     121.2197
 4668.7740    4668.7740      67.8841     708.2495     742.0000     776.0000     808.8842     121.2535
 4668.6216    4668.6216      68.0172     708.2500     741.7508     776.0000     809.7471     121.2875
 4668.4692    4668.4692      68.0763     709.2470     742.2485     776.2493     809.9993     121.3215
 4668.3168    4668.3168      67.9424     710.3721     743.3721     777.3721     811.2468     121.3555
 4668.1644    4668.1644      67.7299     710.8739     742.3772     777.3750     811.2500     121.3894
 4668.0120    4668.0120      67.6767     711.1245     742.1255     776.0025     810.0023     121.4232
 4667.8596    4667.8596      67.9421     707.2557     740.7520     776.6241     810.4993     121.4572
 4667.7072    4667.7072      68.5013     705.8765     742.6229     776.6250     809.5011     121.4915
 4667.5548    4667.5548      69.1887     704.5010     738.1283     776.3752     810.3744     121.5261
 4667.4024    4667.4023      69.8011     704.0000     740.1250     777.1250     811.1250     121.5610
 4667.2500    4667.2500      70.1834     701.0000     740.2500     776.3750     811.2500     121.5961
 4667.0976    4667.0977      70.2818     705.0000     735.7500     776.0000     812.1250     121.6313
 4666.9452    4666.9452      70.1117     709.8741     736.7543     773.5018     807.9997     121.6663
 4666.7928    4666.7928      69.7297     708.6251     742.6226     776.0037     807.6275     121.7012
 4666.6404    4666.6404      69.2755     708.7502     740.5004     779.3741     809.8816     121.7359
 4666.4880    4666.4880      68.9070     708.8750     740.7507     778.7507     814.3676     121.7703
 4666.3356    4666.3356      68.7271     708.8747     741.1269     779.1250     810.3747     121.8047
 4666.1832    4666.1832      68.8161     708.7505     741.9967     779.1250     810.2505     121.8389
 4666.0308    4666.0308      69.2132     708.8746     741.1280     779.8724     810.3746     121.8735
 4665.8784    4665.8784      69.8814     708.8750     741.2496     779.2519     810.8735     121.9085
 4665.7260    4665.7260      70.7072     706.8804     741.1253     779.1253     810.3764     121.9438
 4665.5736    4665.5736      71.4531     711.9880     286.6948     776.6309     810.2503     121.9796
 4665.4212    4665.4212      71.8234     718.9861     750.3283     319.0326     811.1233     122.0155
 4665.2688    4665.2688      71.6999     719.9984     751.9988     787.2434     821.9825     122.0514
 4665.1164    4665.1164      71.2172     720.3745     753.1236     791.4957     823.9975     122.0870
 4664.9640    4664.9640      70.6797     720.0003     753.3748     791.9996     824.8742     122.1223
 4664.8116    4664.8116      70.4591     720.0000     752.0007     790.1259     824.0004     122.1576
 4664.6592    4664.6592      70.7195     720.0000     752.1250     790.6250     824.0000     122.1930
 4664.5068    4664.5068      71.2741     720.0000     754.0000     791.6250     824.0000     122.2286
 4664.3544    4664.3544      71.7900     720.0017     754.2506     792.5002     825.3776     122.2645
 4664.2020    4664.2020      71.9312     722.7523     755.2524     792.7511     829.6252     122.3005
 4664.0496    4664.0496      71.5121     725.1205     757.7468     793.8725     829.8723     122.3363
 4663.8972    4663.8972      70.6797     721.7509     755.3739     792.0000     827.8696     122.3716
 4663.7448    4663.7448      69.7855     722.2572     754.7549     792.0000     824.7534     122.4065
 4663.5924    4663.5924      69.1702     725.7362     757.1157     792.0000     826.3686     122.4409
 4663.4400    4663.4400      69.0199     720.0206     754.7585     790.6299     824.0085     122.4754
 4663.2876    4663.2876      69.2556     720.0000     753.8778     792.6186     824.8722     122.5101
 4663.1352    4663.1352      69.5857     720.0000     752.0053     792.0018     828.7390     122.5449
 4662.9828    4662.9828      69.7902     714.1396     752.0000     790.7531     824.3859     122.5798
 4662.8304    4662.8304      69.8207     711.1313     748.0085     790.6253     824.0008     122.6147
 4662.6780    4662.6780      69.7889     708.6294     743.6326     784.0116     824.0000     122.6496
 4662.5256    4662.5256      69.8931     707.0022     740.5043     780.2552     816.6351     122.6846
 4662.3732    4662.3732      70.1854     708.3736     741.2492     779.5008     815.2514     122.7197
 4662.2208    4662.2208      70.5199     706.0015     740.1257     776.7517     811.6273     122.7550
 4662.0684    4662.0684      70.7116     706.0000     741.6250     778.3750     813.0000     122.7903
