~VERSION INFORMATION
VERS.           2.0   :CWLS Log ASCII Standard - VERSION 2.0
WRAP.           NO    :One Line per depth step
PROD.  Schlumberger   :LAS Producer
PROG.  DLIS to ASCII 2.3                               :LAS Program name and version
CREA.        2023/07/14 00:15                          :LAS Creation date {YYYY/MM/DD hh:mm}
DLIS_CREA.  2023-Jul-14 00:11                          :DLIS Creation date and time {YYYY-MMM-DD hh:mm}
SOURCE.     LIS_008.dlis                               :DLIS File Name
FILE-ID.     LIS   .001                                :File Identification Number
#--------------------------------------------------
~WELL INFORMATION
#MNEM.UNIT      DATA             DESCRIPTION
#---- ------ --------------   -----------------------------
STRT .M      5286.4512       :START DEPTH     
STOP .M      5066.6904       :STOP DEPTH     
STEP .M        -0.1524       :STEP     
NULL .          -999.25      :NULL VALUE
COMP .        PETROBRAS S.A.                           :COMPANY
WELL .        3-BRSA-293D-SPS                          :WELL
FLD  .        BS-400                                   :FIELD
LOC  .        BASE SAD 69:                             :LOCATION
CNTY .        SANTOS                                   :COUNTY
STAT .        BRASIL                                   :STATE
CTRY .        BRASIL                                   :COUNTRY
API  .                                                 :API NUMBER
UWI  .                                                 :UNIQUE WELL ID
DATE .        15/11/2004                               :LOG DATE
SRVC .        Schlumberger                             :SERVICE COMPANY
LATI .DEG                                              :LATITUDE
LONG .DEG                                              :LONGITUDE
GDAT .                                                 :GeoDetic Datum
#-----------------------------------------------------------------------------
~PARAMETER INFORMATION
#MNEM.UNIT    VALUE                      DESCRIPTION
#---- -----   --------------------       ------------------------
APD  .M               24                 :
BHT  .DEGF           260                 :
BLI  .M             5289                 :
BS   .IN         8.50000                 :
CN   .        PETROBRAS S.A.             :
COUN .        SANTOS                     :
CS   .IN         9.62500                 :
DATE .        15/11/2004                 :
DFD  .LB/G      12.30000                 :
DFL  .C3               2                 :
DFPH .        N/A                        :
DFT  .        SINTETICO                  :
DFV  .S               95                 :
DMF  .        MESA ROTATIVA              :
EDF  .M               24                 :
EGL  .M             -500                 :
EKB  .        N/A                        :
ENGI .        HERNANDEZ / LOCK           :
FL1  .        X   7292392.00 M LAT 24 28 47.189 S :
FL2  .        Y    584087.00 M LON 44 10 12.698 W :
FL3  .        MC  45 GRAUS               :
FN   .        BS-400                     :
LMF  .        MESA ROTATIVA              :
LUL  .        MACAE                      :
MCSS .        PRENSA                     :
MCST .DEGF            80                 :
MFSS .        PRENSA                     :
MFST .DEGF            80                 :
MSS  .        LINHA DE FLUXO             :
MST  .DEGF            80                 :
PDAT .        NIVEL DO MAR               :
R1   .        01. APRESENTAÇÃO DE ACORDO COM REQUERIMENTO DO CLIENTE :
R2   .        02. TEMPERATURA MÁXIMA DO POÇO T1=T2= 290 DEGF @  5275 M :
R3   .        03. INICIO DA CIRCULAÇÃO  12/11/2004 09 00 H :
R4   .        04. FINAL DA CIRCULAÇÃO   12/11/2004 18 00 H :
R5   .        05. TEMPO TOTAL DE CIRCULAÇÃO   09 00 H :
R6   .        06. FLUIDO DE PERFURAÇÃO  SINTETICO (BR-MUL  BR-MI)  60% TEOR DO OLEO :
R7   .        07. SALINIDADE DA LAMA  254762 PPM NACL NA FASE DE AGUA :
R8   .        08. INCLINAÇÃO MÁXIMA DO POÇO  37.37 GRAUS @ 5100 M :
R9   .        09. PRIMEIRAS E ULTIMAS LEITURAS  :
RMB  .OHMM    > 10                       :
RMCS .OHMM    > 10                       :
RMFS .OHMM    > 10                       :
RMS  .OHMM    >10                        :
RUN  .                 2                 :
STAT .        BRASIL                     :
TCS  .        18 00 H                    :
TDD  .M             5288                 :
TDL  .M             5293                 :
TLAB .        N/A                        :
TLI  .M             5000                 :
WITN .        ERNANI / ZE MARIA          :
WN   .        3-BRSA-293D-SPS            :
LUN  .              8808                 :
HIDE .        3-SPS-41D                  :
HID2 .        HIGH DEFINITION INDUCTION LOG :
HID3 .        X-MULTIPOLE ARRAY ACOUSTILOG :
HID4 .        GAMMA RAY LOG              :
HID5 .        TTRM SUB                   :
CLAB .        BACIA                      :
SLAB .        PAIS                       :
CMT1 .        ESC  1 200                 :
CMT2 .        PROF. MEDIDA               :
CMT4 .        SONDA  SS-43               :
HDAT .        SAD 69                     :
FL   .        BASE SAD 69                :
OS1  .        RCI/GR                     :
OS2  .        CHECK SHOT                 :
OS3  .        GR/CN/ZDL                  :
OS5  .        RCOR/GR                    :
LNAM .        ZDL/CN/XMAC/HDIL/EARTH IMAGER/RCI/RCOR/CHECK SHOT/GR :
TOOL .        ZDL/CN/XMAC/HDIL/EARTH IMAGER/RCI/RCOR/CHECK SHOT/GR :
LSOU .        PETROBRAS                  :
LSRV .        OH WIRELINE                :
LTYP .        RAW                        :
EPD  .M                0                 :
LDAT .        15/11/2004                 :
TRIP .                 3                 :
SON  .            786588                 :
CBDR .M             4277                 :
CBLO .        NR                         :
CBL1 .        NR                         :
STEM .DEGF    N/A                        :
BSAL .            254762                 :
BARI .        OFF                        :
DLAB .        12/11/2004                 :
MRT  .DEGF           290                 :
TSTR .        HDIL/XMAC/GR/TTRM          :
TSTG .        N/A                        :
STUS .        FINAL                      :
LCNM .        BAKER ATLAS                :
LCC  .               150                 :
NATI .        BRASIL                     :
OPMD .        OH.WIRELINE                :
PANA .        HERNANDEZ / LOCK           :
PCON .        BAKER ATLAS                :
R11  .        SL     5268.3 M / 5000.0 M :
R12  .        GR     5268.3 M / 5000.0 M :
R13  .        XMAC   5279.5 M / 5000.0 M :
R14  .        HDIL   5289.0 M / 5000.0 M :
R17  .        11. DECLINAÇÃO MAGNETICA  -20.9 GRAUS :
R18  .        12. COORDENADAS BASE       :
R21  .        Y    583936.00 M           :
R22  .        MC  45 GRAUS               :
PVER .           4.10000                 :
WDFN .        /space/expusr/3-SPS-41D_RUN2/i77bf01_2spf.xtf :
OCT  .        i77bf                      :
OS4  .        EARTH IMAGER               :
R16  .        10. PONTO FRACO UTILIZADO  10K :
R20  .        X   7292512.00 M           :
R24  .        13. CADASTRO ANP  86316021017 :
#-----------------------------------------------------------------------------
~CURVE INFORMATION
#MNEM.UNIT   API CODE                                  DESCRIPTION
#---- -----  --------                                  -----------------------
DEPT .M                                                :DEPTH (BOREHOLE) {F10.4}
DEPT .M                                                : {F13.4}
DT   .US/F                                             : {F13.4}
SFN1 .US                                               : {F13.4}
SFN2 .US                                               : {F13.4}
SFN3 .US                                               : {F13.4}
SFN4 .US                                               : {F13.4}
TT   .MS                                               : {F13.4}
#-----------------------------------------------------------------------------
# 
#     DEPT        DEPT         DT           SFN1         SFN2         SFN3         SFN4         TT
#
~A  
# ...
 5093.8176    5093.8176      69.2671     705.4979     736.3746     775.7496     808.0000      41.8074
 5093.6652    5093.6652      69.0144     704.0016     736.7496     775.6251     808.0000      41.8419
 5093.5128    5093.5128      68.7313     702.1263     736.0005     775.9997     807.8751      41.8763
 5093.3604    5093.3604      68.4906     701.8750     733.8750     774.3750     808.0000      41.9106
 5093.2080    5093.2080      68.3333     701.8750     733.2500     769.6250     806.8750      41.9448
 5093.0556    5093.0556      68.2962     701.6260     733.2500     769.7499     804.3746      41.9789
 5092.9032    5092.9032      68.3827     703.9997     733.2516     769.6250     803.5000      42.0131
 5092.7508    5092.7508      68.5107     703.6236     735.2503     769.6272     803.5001      42.0474
 5092.5984    5092.5984      68.5494     702.3811     735.4988     771.4909     803.6244      42.0815
 5092.4460    5092.4460      68.4435     702.8727     735.0023     773.3665     806.4870      42.1157
 5092.2936    5092.2936      68.2720     703.1240     734.3776     769.8895     806.9979      42.1498
 5092.1412    5092.1412      68.1777     702.0042     734.6241     769.6259     805.1321      42.1839
 5091.9888    5091.9888      68.2000     702.3737     732.5072     769.5004     805.4987      42.2181
 5091.8364    5091.8364      68.2346     702.9981     735.6155     770.7462     805.6246      42.2522
 5091.6840    5091.6840      68.1930     703.9973     735.2510     771.7473     803.3810      42.2863
 5091.5316    5091.5316      68.1100     702.7529     735.9983     772.2489     805.9940      42.3204
 5091.3792    5091.3792      68.1194     697.2606     732.2572     774.7452     804.8772      42.3544
 5091.2268    5091.2268      68.3140     700.8693     733.1236     768.0105     803.5021      42.3886
 5091.0744    5091.0744      68.6153     701.3744     734.3735     770.8716     804.3740      42.4229
 5090.9220    5090.9220      68.8419     703.1236     734.9995     772.1240     805.6240      42.4574
 5090.7696    5090.7696      68.8814     703.8747     735.9995     772.8747     807.1243      42.4918
 5090.6172    5090.6172      68.7645     703.6250     736.0000     773.5000     807.3750      42.5262
 5090.4648    5090.4648      68.5998     704.0000     736.0000     773.3750     808.0000      42.5605
 5090.3124    5090.3124      68.4812     704.0000     736.0000     773.3755     807.1251      42.5948
 5090.1600    5090.1600      68.4150     704.0000     736.0001     774.1255     807.2499      42.6290
 5090.0076    5090.0076      68.3414     704.0000     736.1250     774.6247     807.1252      42.6632
 5089.8552    5089.8552      68.2173     704.0000     736.1250     774.3762     807.2494      42.6971
 5089.7028    5089.7028      68.0502     704.0000     735.6271     774.4995     807.9968      42.7311
 5089.5504    5089.5504      67.8927     704.0000     735.9985     770.7647     806.6304      42.7651
 5089.3980    5089.3980      67.7958     704.0000     736.0000     772.7429     804.3830      42.7990
 5089.2456    5089.2456      67.7664     704.0000     736.0000     772.5008     805.8702      42.8329
 5089.0932    5089.0932      67.7688     704.0000     735.8754     772.2507     805.8750      42.8668
 5088.9408    5088.9408      67.7659     704.0000     735.7503     772.0006     805.7503      42.9007
 5088.7884    5088.7884      67.7451     704.0000     735.7500     772.0000     805.6253      42.9346
 5088.6360    5088.6360      67.7212     704.0000     735.7500     772.0000     805.5002      42.9684
 5088.4836    5088.4836      67.7159     704.0000     735.7500     772.0000     805.5000      43.0023
 5088.3312    5088.3312      67.7301     704.0000     735.7500     771.7502     805.5000      43.0362
 5088.1788    5088.1788      67.7491     704.0000     735.7500     772.1248     805.5000      43.0701
 5088.0264    5088.0264      67.7579     704.0000     735.8750     772.0000     805.7500      43.1040
 5087.8740    5087.8740      67.7545     704.0000     735.7500     771.8750     805.5000      43.1378
 5087.7216    5087.7216      67.7517     704.0000     735.7501     772.0001     805.5000      43.1717
 5087.5692    5087.5692      67.7623     704.0000     735.8749     772.1249     805.5001      43.2056
 5087.4168    5087.4168      67.7880     704.0000     735.7502     772.0002     805.6252      43.2395
 5087.2644    5087.2644      67.8171     704.0000     735.8744     772.1244     805.7494      43.2732
 5087.1120    5087.1120      67.8346     704.0000     735.8750     772.3739     805.6256      43.3072
 5086.9596    5086.9596      67.8358     704.0000     735.7505     772.3750     805.8740      43.3411
 5086.8072    5086.8072      67.8261     704.0000     735.8745     772.0014     805.8750      43.3750
 5086.6548    5086.6548      67.8130     704.0000     735.9996     772.1246     805.7504      43.4089
 5086.5024    5086.5024      67.8042     704.0000     735.8754     772.2496     805.6254      43.4428
 5086.3500    5086.3500      67.8029     704.0000     735.8750     772.2500     805.7497      43.4768
 5086.1976    5086.1976      67.8070     704.0000     735.7503     772.0005     805.8747      43.5107
 5086.0452    5086.0452      67.8122     704.0000     735.7500     772.1248     805.7502      43.5446
 5085.8928    5085.8928      67.8125     704.0000     735.9996     772.1250     805.6252      43.5785
 5085.7404    5085.7404      67.8052     704.0000     735.8751     772.0001     805.7499      43.6124
 5085.5880    5085.5880      67.7913     704.0000     735.8750     772.0000     805.6251      43.6463
 5085.4356    5085.4355      67.7727     704.0000     735.8750     772.3750     805.6250      43.6803
 5085.2832    5085.2832      67.7553     704.0000     735.7500     772.1250     805.6250      43.7141
 5085.1308    5085.1309      67.7488     704.0000     735.7500     772.1250     805.7500      43.7480
 5084.9784    5084.9784      67.7081     704.0000     735.8750     772.0001     805.6251      43.7487
 5084.8260    5084.8260       0.9169     704.0000     735.8751     772.1251     805.7499       0.0000
 5084.6736    5084.6736       0.8977     704.0000     735.9994     772.2494     805.6256       0.0000
 5084.5212    5084.5212       0.6404     704.0000     735.8756     772.1256     805.7494       0.0000
 5084.3688    5084.3688       0.3778     704.0000     735.8750     772.1250     805.7500       0.0000
 5084.2164    5084.2164       0.2585     704.0000     735.8750     772.1250     805.6255       0.0000
 5084.0640    5084.0640       0.1823     704.0000     735.8750     772.1250     805.7496       0.0000
 5083.9116    5083.9116       0.3562     704.0000     735.8750     772.0004     805.6254       0.0000
 5083.7592    5083.7592       0.6991     704.0000     735.8750     772.1247     805.7497       0.0000
 5083.6068    5083.6068       0.9313     704.0000     735.8750     772.1250     805.6253       0.0000
 5083.4544    5083.4544       0.9434     704.0000     735.8750     772.1250     805.7498       0.0000
 5083.3020    5083.3020       0.7117     704.0000     735.9998     772.1250     805.6252       0.0000
 5083.1496    5083.1496       0.4281     704.0000     735.7503     772.0002     805.7498       0.0000
 5082.9972    5082.9972       0.1977     704.0000     735.7500     772.0000     805.6251       0.0000
 5082.8448    5082.8448       0.1423     704.0000     735.8749     772.1249     805.7499       0.0000
 5082.6924    5082.6924       0.1488     704.0000     735.7500     772.0000     805.6250       0.0000
 5082.5400    5082.5400       0.1467     704.0000     735.7500     772.1250     805.7500       0.0000
 5082.3876    5082.3876       0.1249     704.0000     735.8750     771.8750     805.5001       0.0000
 5082.2352    5082.2352       0.1424     704.0000     735.8750     771.8750     805.6249       0.0000
 5082.0828    5082.0828       0.1859     704.0000     735.8748     771.8757     805.5002       0.0000
 5081.9304    5081.9304       0.2371     704.0000     735.7506     772.3727     805.6244       0.0000
