~VERSION INFORMATION
VERS.           2.0   :CWLS Log ASCII Standard - VERSION 2.0
WRAP.           NO    :One Line per depth step
PROD.  Schlumberger   :LAS Producer
PROG.  DLIS to ASCII 2.3                               :LAS Program name and version
CREA.        2023/07/14 00:15                          :LAS Creation date {YYYY/MM/DD hh:mm}
DLIS_CREA.  2023-Jul-14 00:11                          :DLIS Creation date and time {YYYY-MMM-DD hh:mm}
SOURCE.     LIS_006.dlis                               :DLIS File Name
FILE-ID.     LIS   .002                                :File Identification Number
#--------------------------------------------------
~WELL INFORMATION
#MNEM.UNIT      DATA             DESCRIPTION
#---- ------ --------------   -----------------------------
STRT .M      5238.7500       :START DEPTH     
STOP .M      5087.2644       :STOP DEPTH     
STEP .M        -0.1524       :STEP     
NULL .          -999.25      :NULL VALUE
COMP .        Petrobras S.A.                           :COMPANY
WELL .        3-SPS-41D                                :WELL
FLD  .        MEXILHOES                                :FIELD
LOC  .                                                 :LOCATION
CNTY .                                                 :COUNTY
STAT .                                                 :STATE
CTRY .                                                 :COUNTRY
API  .                                                 :API NUMBER
UWI  .                                                 :UNIQUE WELL ID
DATE .                                                 :LOG DATE
SRVC .        Schlumberger                             :SERVICE COMPANY
LATI .DEG                                              :LATITUDE
LONG .DEG                                              :LONGITUDE
GDAT .                                                 :GeoDetic Datum
#-----------------------------------------------------------------------------
~PARAMETER INFORMATION
#MNEM.UNIT    VALUE                      DESCRIPTION
#---- -----   --------------------       ------------------------
CN   .        Petrobras S.A.             :
FN   .        MEXILHOES                  :
WN   .        3-SPS-41D                  :
LCC  .               150                 :
WDFN .        /space/expusr/3-SPS-41D/i77bf06_8spf.xtf :
OCT  .        i77bf                      :
RUN  .                                   :RUN NUMBER
PDAT .                                   :Permanent Datum
EPD  .                                   :Elevation of Permanent Datum above Mean Sea Level
LMF  .                                   :Logging Measured From (Name of Logging Elevation Reference)
APD  .                                   :Elevation of Depth Reference (LMF) above Permanent Datum
#-----------------------------------------------------------------------------
~CURVE INFORMATION
#MNEM.UNIT   API CODE                                  DESCRIPTION
#---- -----  --------                                  -----------------------
DEPT .M                                                :DEPTH (BOREHOLE) {F10.4}
DEPT .M                                                : {F13.4}
BIT  .IN                                               : {F13.4}
DEPM .M                                                : {F13.4}
SPD  .M/MN                                             : {F13.4}
CNC  .PU                                               : {F13.4}
CN   .PU                                               : {F13.4}
LSN  .HZ                                               : {F13.4}
SSN  .HZ                                               : {F13.4}
#-----------------------------------------------------------------------------
# 
#     DEPT        DEPT         BIT          DEPM         SPD          CNC          CN           LSN          SSN
#
~A  
# ...
 5228.0820    5228.0820       8.5000    5227.6875       5.1095      17.0918      17.4042    1341.9010    3140.7757
 5227.9296    5227.9296       8.5000    5227.5341       5.0805      17.1210      17.0818    1337.2229    3137.3456
 5227.7772    5227.7772       8.5000    5227.3817       5.0637      16.2934      16.7054    1378.5590    3161.3514
 5227.6248    5227.6248       8.5000    5227.2293       5.0804      17.6190      18.0990    1339.3947    3197.2012
 5227.4724    5227.4724       8.5000    5227.0779       5.1107      18.4094      18.8566    1318.0926    3212.8470
 5227.3200    5227.3200       8.5000    5226.9255       5.1115      18.4925      18.4031    1309.9520    3194.3281
 5227.1676    5227.1676       8.5000    5226.7731       5.1094      17.2981      17.4841    1346.4367    3169.8319
 5227.0152    5227.0152       8.5000    5226.6207       5.1001      17.5280      17.8013    1330.4928    3159.4299
 5226.8628    5226.8628       8.5000    5226.4683       5.0574      17.5920      17.8681    1330.4083    3171.8028
 5226.7104    5226.7104       8.5000    5226.3159       5.0391      17.5924      17.7134    1345.5238    3213.8250
 5226.5580    5226.5580       8.5000    5226.1635       5.0532      17.5421      17.9830    1364.3150    3245.5803
 5226.4056    5226.4056       8.5000    5226.0111       5.0219      18.1422      18.2959    1338.3292    3225.6934
 5226.2532    5226.2532       8.5000    5225.8587       4.9848      18.1614      18.5250    1317.5366    3178.5020
 5226.1008    5226.1008       8.5000    5225.7063       5.0044      17.6887      17.4343    1326.5506    3161.1483
 5225.9484    5225.9484       8.5000    5225.5539       5.0292      16.0550      16.0272    1387.8170    3144.3683
 5225.7960    5225.7960       8.5000    5225.4015       5.0154      15.8245      16.2450    1391.6774    3132.4316
 5225.6436    5225.6436       8.5000    5225.2491       4.9624      16.0668      16.1089    1377.6394    3125.4274
 5225.4912    5225.4912       8.5000    5225.0957       4.9351      15.5654      15.7372    1391.0878    3097.4226
 5225.3388    5225.3388       8.5000    5224.9433       5.0442      14.9844      14.9956    1398.2757    3054.8859
 5225.1864    5225.1864       8.5000    5224.7909       5.1260      14.0466      13.9542    1434.0170    3037.7864
 5225.0340    5225.0340       8.5000    5224.6385       5.1482      12.9877      13.2153    1493.7718    3054.0354
 5224.8816    5224.8816       8.5000    5224.4871       5.1511      13.7012      14.1965    1470.8910    3086.2735
 5224.7292    5224.7292       8.5000    5224.3347       5.1365      14.3515      14.4874    1444.5812    3094.1522
 5224.5768    5224.5768       8.5000    5224.1823       5.1491      13.7517      13.9585    1468.8869    3078.4775
 5224.4244    5224.4244       8.5000    5224.0299       5.1487      14.2202      14.5405    1441.7071    3071.2129
 5224.2720    5224.2720       8.5000    5223.8775       5.1272      14.1143      14.1775    1435.8658    3045.6091
 5224.1196    5224.1196       8.5000    5223.7251       5.1190      13.6104      13.7838    1457.8162    3046.2120
 5223.9672    5223.9672       8.5000    5223.5727       5.1148      13.5268      13.7486    1476.4813    3080.8926
 5223.8148    5223.8148       8.5000    5223.4203       5.0993      14.0480      14.5840    1459.9943    3103.7206
 5223.6624    5223.6624       8.5000    5223.2679       5.0851      15.4265      16.1539    1447.3231    3291.4108
 5223.5100    5223.5100       8.5000    5223.1155       4.9814      16.7225      15.9768    1517.1279    3567.8939
 5223.3576    5223.3576       8.5000    5222.9631       4.7072      11.3867      11.0277    1889.1135    3592.5431
 5223.2052    5223.2052       8.5000    5222.8107       4.4338      12.8869      14.3753    1711.5846    3445.7951
 5223.0528    5223.0528       8.5000    5222.6573       4.3755      16.1382      16.5011    1504.0613    3428.6438
 5222.9004    5222.9004       8.5000    5222.5049       4.5344      16.4871      16.9346    1495.4709    3447.5757
 5222.7480    5222.7480       8.5000    5222.3525       4.6512      17.0286      17.2990    1476.1567    3460.9175
 5222.5956    5222.5956       8.5000    5222.2001       4.7473      16.8981      17.1480    1489.7754    3479.1381
 5222.4432    5222.4432       8.5000    5222.0477       4.7832      17.7871      18.7569    1484.2820    3622.8752
 5222.2908    5222.2908       8.5000    5221.8963       4.7029      18.6384      17.2836    1602.2295    4055.1463
 5222.1384    5222.1384       8.5000    5221.7439       4.6346      10.6455       9.4396    2383.1400    4506.1809
 5221.9860    5221.9860       8.5000    5221.5915       4.6492       7.4306       7.4240    2910.8216    4637.8011
 5221.8336    5221.8336       8.5000    5221.4391       4.8268       7.0813       7.1752    2959.9778    4617.5062
 5221.6812    5221.6812       8.5000    5221.2867       5.0106       6.9039       7.1406    2977.2390    4605.6908
 5221.5288    5221.5288       8.5000    5221.1343       5.0431       7.2472       7.3973    2927.8121    4620.5142
 5221.3764    5221.3764       8.5000    5220.9819       5.0020       7.1549       7.2314    2962.2393    4655.5997
 5221.2240    5221.2240       8.5000    5220.8295       4.9086       6.5694       6.6124    3092.1734    4713.1370
 5221.0716    5221.0716       8.5000    5220.6771       4.8986       6.6105       6.8792    3127.6361    4775.9744
 5220.9192    5220.9192       8.5000    5220.5247       5.0521       6.9503       7.1653    3103.1758    4821.9821
 5220.7668    5220.7668       8.5000    5220.3723       5.1183       7.1474       7.2857    3084.5410    4833.6337
 5220.6144    5220.6144       8.5000    5220.2189       5.1861       6.8139       6.8659    3106.0209    4747.3644
 5220.4620    5220.4620       8.5000    5220.0675       5.2391       6.7309       7.0599    3012.4024    4570.5956
 5220.3096    5220.3096       8.5000    5219.9151       5.2141       7.7167       8.0930    2759.4304    4432.8245
 5220.1572    5220.1572       8.5000    5219.7627       5.1869       8.1132       8.2942    2665.8083    4388.9095
 5220.0048    5220.0048       8.5000    5219.6093       5.1589       8.0901       8.2475    2664.0987    4388.1837
 5219.8524    5219.8524       8.5000    5219.4569       5.1696       8.2372       8.4962    2648.9456    4391.8980
 5219.7000    5219.7000       8.5000    5219.3048       5.1961       8.4467       8.6238    2609.3408    4366.7098
 5219.5476    5219.5476       8.5000    5219.1531       5.1669       8.2560       8.2939    2625.5386    4359.9819
 5219.3952    5219.3952       8.5000    5219.0007       5.1454       7.8810       8.1200    2678.7029    4366.9427
 5219.2428    5219.2428       8.5000    5218.8483       5.1268       8.3562       8.6428    2629.0092    4396.8849
 5219.0904    5219.0904       8.5000    5218.6959       5.1337       8.4520       8.4594    2631.7736    4407.5448
 5218.9380    5218.9380       8.5000    5218.5435       5.1682       7.6426       7.7723    2710.8804    4339.1253
 5218.7856    5218.7856       8.5000    5218.3911       5.1775       8.2396       8.6753    2566.7196    4234.5860
 5218.6332    5218.6332       8.5000    5218.2387       5.1578       8.8469       9.0892    2449.4224    4172.2595
 5218.4808    5218.4808       8.5000    5218.0863       5.1646       9.1550       9.2976    2380.7138    4118.9141
 5218.3284    5218.3284       8.5000    5217.9339       5.1483       8.5208       8.5626    2434.5160    4089.0991
 5218.1760    5218.1760       8.5000    5217.7815       5.1296       8.5769       8.8999    2419.2931    4086.5424
 5218.0236    5218.0236       8.5000    5217.6291       5.1348       8.8971       9.1380    2407.6857    4156.1774
 5217.8712    5217.8712       8.5000    5217.4767       5.1529       9.0690       9.0610    2484.8963    4347.3368
 5217.7188    5217.7188       8.5000    5217.3243       5.1366       7.3008       6.9558    2836.0558    4516.7512
 5217.5664    5217.5664       8.5000    5217.1709       5.1553       6.2528       6.5252    3068.3662    4597.5222
