~VERSION INFORMATION
VERS.           2.0   :CWLS Log ASCII Standard - VERSION 2.0
WRAP.           NO    :One Line per depth step
PROD.  Schlumberger   :LAS Producer
PROG.  DLIS to ASCII 2.3                               :LAS Program name and version
CREA.        2023/07/14 00:15                          :LAS Creation date {YYYY/MM/DD hh:mm}
DLIS_CREA.  2023-Jul-14 00:11                          :DLIS Creation date and time {YYYY-MMM-DD hh:mm}
SOURCE.     LIS_001.dlis                               :DLIS File Name
FILE-ID.     LIS   .001                                :File Identification Number
#--------------------------------------------------
~WELL INFORMATION
#MNEM.UNIT      DATA             DESCRIPTION
#---- ------ --------------   -----------------------------
STRT .M      5244.5412       :START DEPTH     
STOP .M      5059.0704       :STOP DEPTH     
STEP .M        -0.1524       :STEP     
NULL .          -999.25      :NULL VALUE
COMP .        PETROBRAS S.A.                           :COMPANY
WELL .        3-BRSA-293D-SPS                          :WELL
FLD  .        BS-400                                   :FIELD
LOC  .        BASE SAD 69:                             :LOCATION
CNTY .        SANTOS                                   :COUNTY
STAT .        BRASIL                                   :STATE
CTRY .        BRASIL                                   :COUNTRY
API  .                                                 :API NUMBER
UWI  .                                                 :UNIQUE WELL ID
DATE .        22/10/2004                               :LOG DATE
SRVC .        Schlumberger                             :SERVICE COMPANY
LATI .DEG                                              :LATITUDE
LONG .DEG                                              :LONGITUDE
GDAT .                                                 :GeoDetic Datum
#-----------------------------------------------------------------------------
~PARAMETER INFORMATION
#MNEM.UNIT    VALUE                      DESCRIPTION
#---- -----   --------------------       ------------------------
APD  .M               24                 :
BHT  .DEGF           260                 :
BLI  .M       5227.50000                 :
BS   .IN         8.50000                 :
CN   .        PETROBRAS S.A.             :
COUN .        SANTOS                     :
CS   .IN         9.62500                 :
DATE .        22/10/2004                 :
DFD  .LB/G      12.30000                 :
DFL  .C3               2                 :
DFPH .        N/A                        :
DFT  .        SINTETICO                  :
DFV  .S               87                 :
DMF  .        MESA ROTATIVA              :
EDF  .M               24                 :
EGL  .M             -500                 :
EKB  .        N/A                        :
ENGI .        HERNANDEZ/LOCK             :
FL1  .        X   7292392.00 M LAT 24 28 47.189 S :
FL2  .        Y    584087.00 M LON 44 10 12.698 W :
FL3  .        MC  45 GRAUS               :
FN   .        BS-400                     :
LMF  .        MESA ROTATIVA              :
LUL  .        MACAE                      :
MCSS .        PRENSA                     :
MCST .DEGF            80                 :
MFSS .        PRENSA                     :
MFST .DEGF            80                 :
MSS  .        LINHA DE FLUXO             :
MST  .DEGF            80                 :
PDAT .        NIVEL DO MAR               :
R1   .        01. APRESENTAÇÃO DE ACORDO COM REQUERIMENTO DO CLIENTE :
R2   .        02. TEMPERATURA MÁXIMA DO POÇO T1=T2= 260 DEGF @  5180 M :
R3   .        03. INICIO DA CIRCULAÇÃO  13 45 H 21/10/2004 :
R4   .        04. FINAL DA CIRCULAÇÃO   16 00 H 21/10/2004 :
R5   .        05. TEMPO TOTAL DE CIRCULAÇÃO  02 15 H :
R6   .        06. FLUIDO DE PERFURAÇÃO  SINTETICO (BR-MUL  BR-MI)  65% TEOR DO OLEO :
R7   .        07. SALINIDADE DA LAMA  266377 PPM NACL NA FASE DE AGUA :
R8   .        08. INCLINAÇÃO MÁXIMA DO POÇO  37.37 GRAUS @ 5100 M :
R9   .        09. PRIMEIRAS E ULTIMAS LEITURAS  :
RMB  .OHMM    > 10                       :
RMCS .OHMM    > 10                       :
RMFS .OHMM    > 10                       :
RMS  .OHMM    > 10                       :
RUN  .                 1                 :
STAT .        BRASIL                     :
TCS  .        16 00 H                    :
TDD  .M             5230                 :
TDL  .M             5231                 :
TLAB .        N/A                        :
TLI  .M             3850                 :
WITN .        ALCIDIO/VLADIMIR           :
WN   .        3-BRSA-293D-SPS            :
LUN  .              8808                 :
HIDE .        3-SPS-41D                  :
HID2 .        HIGH DEFINITION INDUCTION LOG :
HID3 .        X-MULTIPOLE ARRAY ACOUSTILOG :
HID4 .        GAMMA RAY LOG              :
HID5 .        TTRM SUB                   :
CLAB .        BACIA                      :
SLAB .        PAIS                       :
CMT1 .        ESC  1 1000                :
CMT2 .        PROF. MEDIDA               :
CMT4 .        SONDA  SS-43               :
HDAT .        SAD 69                     :
FL   .        BASE SAD 69                :
OS1  .        GR/CN/ZDL                  :
OS2  .        MREX/GR                    :
OS3  .        RCI/GR                     :
0S4  .        3DEX/GR                    :
OS5  .        SL/GR                      :
LNAM .        MREX/ZDL/CN/XMAC/HDIL/RCI/3DEX/SL/GR :
TOOL .        MREX/ZDL/CN/XMAC/HDIL/RCI/3DEX/SL/GR :
LSOU .        PETROBRAS                  :
LSRV .        OH WIRELINE                :
LTYP .        RAW                        :
EPD  .M                0                 :
LDAT .        22/10/2004                 :
TRIP .                 1                 :
SON  .            772317                 :
CBDR .M             4277                 :
CBLO .M             4277                 :
CBL1 .M             4277                 :
STEM .DEGF    N/A                        :
BSAL .            266377                 :
BARI .        OFF                        :
DLAB .        21/10/2004                 :
MRT  .DEGF           260                 :
TSTR .        HDIL/XMAC/GR/TTRM          :
TSTG .        N/A                        :
STUS .        FINAL                      :
LCNM .        BAKER ATLAS                :
LCC  .               150                 :
NATI .        BRASIL                     :
OPMD .        OH.WIRELINE                :
PANA .        HERNANDEZ/LOCK             :
PCON .        BAKER ATLAS                :
R11  .        SL     5196.0 M/4960.0 M   :
R12  .        GR     4960.0 M/4277.0 M   :
R13  .        XMAC   5202.0 M/3850.0 M   :
R14  .        HDIL   5227.5 M/4277.0 M   :
R15  .        3DEX   5217.0 M/4960.0 M   :
R17  .        10. PONTO FRACO UTILIZADO  10K :
R18  .        11. DECLINAÇÃO MAGNETICA  -20.9 GRAUS :
R19  .        12. COORDENADAS ARATU      :
R21  .        X   7292512.00 M           :
R22  .        Y    583936.00 M           :
R23  .        MC  45 GRAUS               :
R25  .        13. CADASTRO ANP  86316021017 :
PVER .           4.10000                 :
WDFN .        /space/expusr/3-SPS-41D/i77bf02_2spf.xtf :
OCT  .        i77bf                      :
#-----------------------------------------------------------------------------
~CURVE INFORMATION
#MNEM.UNIT   API CODE                                  DESCRIPTION
#---- -----  --------                                  -----------------------
DEPT .M                                                :DEPTH (BOREHOLE) {F10.4}
DEPT .M                                                : {F13.4}
DT   .US/F                                             : {F13.4}
SFN1 .US                                               : {F13.4}
SFN2 .US                                               : {F13.4}
SFN3 .US                                               : {F13.4}
SFN4 .US                                               : {F13.4}
TT   .MS                                               : {F13.4}
#-----------------------------------------------------------------------------
# 
#     DEPT        DEPT         DT           SFN1         SFN2         SFN3         SFN4         TT
#
~A  
# ...
 5172.3036    5172.3036      70.2316     695.2503     728.0000     766.8753     800.0000       8.9843
 5172.1512    5172.1512      69.5121     695.6213     727.9984     767.2447     799.9979       9.0190
 5171.9988    5171.9988      69.2814     692.2555     726.5022     762.3785     798.1263       9.0537
 5171.8464    5171.8464      69.4113     696.0078     728.0087     764.7557     799.0018       9.0884
 5171.6940    5171.6940      69.5802     700.2613     732.7572     767.8802     800.0044       9.1232
 5171.5416    5171.5416      69.6720     705.5060     736.0000     770.2471     801.9987       9.1581
 5171.3892    5171.3892      70.3068     756.1039     736.1711     769.1478     801.5188       9.1932
 5171.2368    5171.2368      72.4630     706.6221     794.0880     776.9951     807.8581       9.2295
 5171.0844    5171.0844      76.4756     705.7524     782.9055     813.2761     802.7639       9.2675
 5170.9320    5170.9320      81.6279     706.1241     740.3506     770.2270     851.8838       9.3083
 5170.7796    5170.7796      86.4910     711.7388     750.3549     797.4455     826.3012       9.3516
 5170.6272    5170.6272      89.9135     723.9801     775.9585     814.3477     828.3716       9.3965
 5170.4748    5170.4748      91.6414     751.9650     772.3795     773.6760     820.6347       9.4424
 5170.3224    5170.3224      91.9633     747.0044     782.7408     813.7146     850.2239       9.4884
 5170.1700    5170.1700      90.4510     680.0344     720.0322     752.0317     792.0299       9.5336
 5170.0176    5170.0176      86.5410     688.0000     724.5000     680.0000     350.3750       9.5769
 5169.8652    5169.8652      81.1149     693.3750     724.2500     766.5000     808.0000       9.6175
 5169.7128    5169.7128      76.3914     697.9935     731.9930     767.9928     802.4923       9.6557
 5169.5604    5169.5604      74.3229     686.9978     720.2445     755.8713     789.6201       9.6929
 5169.4080    5169.4080      74.9048     684.7437     714.4967     751.9968     784.4993       9.7303
 5169.2556    5169.2556      76.0887     679.9921     711.9964     749.6154     783.9902       9.7684
 5169.1032    5169.1032      75.6585     675.3654     709.8610     743.9966     778.2430       9.8062
 5168.9508    5168.9508      73.1988     670.8068     703.1302     742.3704     774.8765       9.8428
 5168.7984    5168.7984      69.7747     694.0162     705.3196     740.5130     775.5046       9.8777
 5168.6460    5168.6460      66.4624     699.7766     730.0115     745.2025     777.1516       9.9110
 5168.4936    5168.4936      64.0211     708.1065     733.6210     770.0884     785.5317       9.9430
 5168.3412    5168.3412      63.1730     702.8880     732.5028     935.9617     794.4777       9.9744
 5168.1888    5168.1888      64.2800     676.8055     736.1173     768.9811     795.8721      10.0066
 5168.0364    5168.0364      67.0856     673.7553     714.7875     768.3754     793.6289      10.0401
 5167.8840    5167.8840      70.7541     662.5156     709.6321     749.0268     793.9995      10.0755
 5167.7316    5167.7316      74.1346     717.9436     742.3417     743.0061     787.8812      10.1126
 5167.5792    5167.5792      76.5503     672.0297     749.9951     736.1294     774.3837      10.1509
 5167.4268    5167.4268      78.0189     681.1250     765.3750     792.0000     768.7500      10.1899
 5167.2744    5167.2744      78.5024     681.8750     711.5000     744.0000     827.3750      10.2292
 5167.1220    5167.1220      77.6873     681.0036     716.2507     751.1270     784.0046      10.2680
 5166.9696    5166.9696      75.8134     688.8689     717.7530     755.5052     794.0020      10.3059
 5166.8172    5166.8172      73.9041     681.5018     721.3638     761.7451     796.3728      10.3429
 5166.6648    5166.6648      72.9297     683.0057     712.0057     757.6964     794.4961      10.3794
 5166.5124    5166.5124      73.1831     686.6274     715.6335     803.0303     792.0751      10.4160
 5166.3600    5166.3600      73.8245     687.8753     720.0000     754.2532     830.7699      10.4529
 5166.2076    5166.2076      73.5350     688.0000     720.0000     755.6337     839.2405      10.4897
 5166.0552    5166.0552      72.0088     688.0244     720.0023     758.8784     789.1338      10.5257
 5165.9028    5165.9028      70.1406     696.0238     720.7746     760.0000     792.0000      10.5608
 5165.7504    5165.7504      69.0791     702.9817     727.9811     760.0000     792.0000      10.5951
 5165.5980    5165.5980      69.1354     711.1067     737.9774     767.9819     792.0000      10.6297
 5165.4456    5165.4456      69.9928     704.5125     741.7429     770.3705     799.7354      10.6647
 5165.2932    5165.2932      71.6265     708.7435     742.2492     780.4846     806.9890      10.7005
 5165.1408    5165.1408      74.3688     706.7523     744.4974     777.5034     813.8671      10.7377
 5164.9884    5164.9884      78.2429     696.0084     736.8809     778.6241     811.3769      10.7769
 5164.8360    5164.8360      81.9999     706.2458     736.0004     779.8745     816.8727      10.8179
 5164.6836    5164.6836      83.5078     712.8750     788.8750     822.6250     852.7500      10.8597
 5164.5312    5164.5313      81.7444     711.1250     750.5000     830.1250     349.6250      10.9005
 5164.3788    5164.3788      77.8040     721.7449     755.2475     786.6254     818.7556      10.9395
 5164.2264    5164.2264      73.8066     714.5055     751.6255     787.2551     826.7471      10.9764
 5164.0740    5164.0740      71.2346     719.6309     752.1324     792.0013     824.0088      11.0120
 5163.9216    5163.9216      70.3263     723.7383     756.4002     792.8705     830.1139      11.0472
 5163.7692    5163.7692      70.3729     717.2386     287.4978     790.3679     824.0000      11.0824
 5163.6168    5163.6168      70.7531     712.0137     745.3772     787.1193     822.7953      11.1178
 5163.4644    5163.4644      71.4173     717.3808     746.2606     784.8725     351.7524      11.1535
 5163.3120    5163.3120      72.2071     719.3758     749.8819     782.4819     823.2524      11.1896
 5163.1596    5163.1596      72.7136     719.6243     751.9942     319.7761     823.9979      11.2257
 5163.0072    5163.0072      72.6919     720.7473     752.0000     785.7557     351.7562      11.2621
 5162.8548    5162.8548      72.0545     720.0015     758.1126     791.9896     822.6693      11.2981
 5162.7024    5162.7024      70.9558     717.6289     752.0101     792.0000     826.2457      11.3336
 5162.5500    5162.5500      69.9377     712.0072     750.8764     787.7554     825.5010      11.3686
 5162.3976    5162.3976      69.4994     712.0000     744.0063     784.3781     821.5037      11.4034
 5162.2452    5162.2452      69.6897     705.7534     745.9989     782.2512     818.3767      11.4382
 5162.0928    5162.0928      70.1618     704.5000     737.1250     780.8750     811.0000      11.4733
 5161.9404    5161.9404      70.3969     709.7500     742.5000     780.0000     819.6250      11.5085
 5161.7880    5161.7880      70.1688     713.8695     743.9956     777.8737     809.3742      11.5436
 5161.6356    5161.6356      69.8825     704.1306     736.2550     775.6253     808.0028      11.5786
 5161.4832    5161.4832      70.1003     710.1274     741.6281     776.0021     811.0065      11.6137
 5161.3308    5161.3308      70.8407     712.0000     743.2349     777.6357     816.0002      11.6491
 5161.1784    5161.1784      71.7472     712.0000     287.3139     784.0051     816.1321      11.6850
 5161.0260    5161.0260      72.5416     712.0063     746.3867     786.4973     819.6355      11.7213
 5160.8736    5160.8736      73.2134     714.6302     751.2441     785.3719     823.9878      11.7579
 5160.7212    5160.7212      73.8607     716.5051     749.1325     784.2598     819.6407      11.7948
 5160.5688    5160.5688      74.3003     718.1307     751.5105     787.3890     824.6709      11.8320
 5160.4164    5160.4164      74.3396     719.7459     754.4925     791.3650     837.7171      11.8689
