~VERSION INFORMATION
VERS.           2.0   :CWLS Log ASCII Standard - VERSION 2.0
WRAP.           NO    :One Line per depth step
PROD.  Schlumberger   :LAS Producer
PROG.  DLIS to ASCII 2.3                               :LAS Program name and version
CREA.        2023/07/14 00:15                          :LAS Creation date {YYYY/MM/DD hh:mm}
DLIS_CREA.  2023-Jul-14 00:11                          :DLIS Creation date and time {YYYY-MMM-DD hh:mm}
SOURCE.     LIS_011.dlis                               :DLIS File Name
FILE-ID.     LIS   .004                                :File Identification Number
#--------------------------------------------------
~WELL INFORMATION
#MNEM.UNIT      DATA             DESCRIPTION
#---- ------ --------------   -----------------------------
STRT .M      5300.3196       :START DEPTH     
STOP .M      4931.0544       :STOP DEPTH     
STEP .M        -0.1524       :STEP     
NULL .          -999.25      :NULL VALUE
COMP .        PETROBRAS S.A.                           :COMPANY
WELL .        3-BRSA-293D-SPS                          :WELL
FLD  .        BS-400                                   :FIELD
LOC  .        BASE SAD 69:                             :LOCATION
CNTY .        SANTOS                                   :COUNTY
STAT .        BRASIL                                   :STATE
CTRY .        BRASIL                                   :COUNTRY
API  .                                                 :API NUMBER
UWI  .                                                 :UNIQUE WELL ID
DATE .        15/11/2004                               :LOG DATE
SRVC .        Schlumberger                             :SERVICE COMPANY
LATI .DEG                                              :LATITUDE
LONG .DEG                                              :LONGITUDE
GDAT .                                                 :GeoDetic Datum
#-----------------------------------------------------------------------------
~PARAMETER INFORMATION
#MNEM.UNIT    VALUE                      DESCRIPTION
#---- -----   --------------------       ------------------------
APD  .M               24                 :
BHT  .DEGF           260                 :
BLI  .M             5289                 :
BS   .IN         8.50000                 :
CN   .        PETROBRAS S.A.             :
COUN .        SANTOS                     :
CS   .IN         9.62500                 :
DATE .        15/11/2004                 :
DFD  .LB/G      12.30000                 :
DFL  .C3               2                 :
DFPH .        N/A                        :
DFT  .        SINTETICO                  :
DFV  .S               95                 :
DMF  .        MESA ROTATIVA              :
EDF  .M               24                 :
EGL  .M             -500                 :
EKB  .        N/A                        :
ENGI .        HERNANDEZ / LOCK           :
FL1  .        X   7292392.00 M LAT 24 28 47.189 S :
FL2  .        Y    584087.00 M LON 44 10 12.698 W :
FL3  .        MC  45 GRAUS               :
FN   .        BS-400                     :
LMF  .        MESA ROTATIVA              :
LUL  .        MACAE                      :
MCSS .        PRENSA                     :
MCST .DEGF            80                 :
MFSS .        PRENSA                     :
MFST .DEGF            80                 :
MSS  .        LINHA DE FLUXO             :
MST  .DEGF            80                 :
PDAT .        NIVEL DO MAR               :
R1   .        01. APRESENTAÇÃO DE ACORDO COM REQUERIMENTO DO CLIENTE :
R2   .        02. TEMPERATURA MÁXIMA DO POÇO T1=T2= 290 DEGF @  5275 M :
R3   .        03. INICIO DA CIRCULAÇÃO  12/11/2004 09 00 H :
R4   .        04. FINAL DA CIRCULAÇÃO   12/11/2004 18 00 H :
R5   .        05. TEMPO TOTAL DE CIRCULAÇÃO   09 00 H :
R6   .        06. FLUIDO DE PERFURAÇÃO  SINTETICO (BR-MUL  BR-MI)  60% TEOR DO OLEO :
R7   .        07. SALINIDADE DA LAMA  254762 PPM NACL NA FASE DE AGUA :
R8   .        08. INCLINAÇÃO MÁXIMA DO POÇO  37.37 GRAUS @ 5100 M :
R9   .        09. PRIMEIRAS E ULTIMAS LEITURAS  :
RMB  .OHMM    > 10                       :
RMCS .OHMM    > 10                       :
RMFS .OHMM    > 10                       :
RMS  .OHMM    >10                        :
RUN  .                 2                 :
STAT .        BRASIL                     :
TCS  .        18 00 H                    :
TDD  .M             5288                 :
TDL  .M             5293                 :
TLAB .        N/A                        :
TLI  .M             5000                 :
WITN .        ERNANI / ZE MARIA          :
WN   .        3-BRSA-293D-SPS            :
LUN  .              8808                 :
HIDE .        3-SPS-41D                  :
HID2 .        HIGH DEFINITION INDUCTION LOG :
HID3 .        X-MULTIPOLE ARRAY ACOUSTILOG :
HID4 .        GAMMA RAY LOG              :
HID5 .        TTRM SUB                   :
CLAB .        BACIA                      :
SLAB .        PAIS                       :
CMT1 .        ESC  1 200                 :
CMT2 .        PROF. MEDIDA               :
CMT4 .        SONDA  SS-43               :
HDAT .        SAD 69                     :
FL   .        BASE SAD 69                :
OS1  .        RCI/GR                     :
OS2  .        CHECK SHOT                 :
OS3  .        GR/CN/ZDL                  :
OS5  .        RCOR/GR                    :
LNAM .        ZDL/CN/XMAC/HDIL/EARTH IMAGER/RCI/RCOR/CHECK SHOT/GR :
TOOL .        ZDL/CN/XMAC/HDIL/EARTH IMAGER/RCI/RCOR/CHECK SHOT/GR :
LSOU .        PETROBRAS                  :
LSRV .        OH WIRELINE                :
LTYP .        RAW                        :
EPD  .M                0                 :
LDAT .        15/11/2004                 :
TRIP .                 3                 :
SON  .            786588                 :
CBDR .M             4277                 :
CBLO .        NR                         :
CBL1 .        NR                         :
STEM .DEGF    N/A                        :
BSAL .            254762                 :
BARI .        OFF                        :
DLAB .        12/11/2004                 :
MRT  .DEGF           290                 :
TSTR .        HDIL/XMAC/GR/TTRM          :
TSTG .        N/A                        :
STUS .        FINAL                      :
LCNM .        BAKER ATLAS                :
LCC  .               150                 :
NATI .        BRASIL                     :
OPMD .        OH.WIRELINE                :
PANA .        HERNANDEZ / LOCK           :
PCON .        BAKER ATLAS                :
R11  .        SL     5268.3 M / 5000.0 M :
R12  .        GR     5268.3 M / 5000.0 M :
R13  .        XMAC   5279.5 M / 5000.0 M :
R14  .        HDIL   5289.0 M / 5000.0 M :
R17  .        11. DECLINAÇÃO MAGNETICA  -20.9 GRAUS :
R18  .        12. COORDENADAS BASE       :
R21  .        Y    583936.00 M           :
R22  .        MC  45 GRAUS               :
PVER .           4.10000                 :
WDFN .        /space/expusr/3-SPS-41D_RUN2/i77bf02_4spf.xtf :
OCT  .        i77bf                      :
OS4  .        EARTH IMAGER               :
R16  .        10. PONTO FRACO UTILIZADO  10K :
R20  .        X   7292512.00 M           :
R24  .        13. CADASTRO ANP  86316021017 :
#-----------------------------------------------------------------------------
~CURVE INFORMATION
#MNEM.UNIT   API CODE                                  DESCRIPTION
#---- -----  --------                                  -----------------------
DEPT .M                                                :DEPTH (BOREHOLE) {F10.4}
DEPT .M                                                : {F13.4}
BIT  .IN                                               : {F13.4}
GR   .GAPI                                             : {F13.4}
M2R1 .OHMM                                             : {F13.4}
M2R2 .OHMM                                             : {F13.4}
M2R3 .OHMM                                             : {F13.4}
M2R6 .OHMM                                             : {F13.4}
M2R9 .OHMM                                             : {F13.4}
M2RX .OHMM                                             : {F13.4}
SPD  .M/MN                                             : {F13.4}
TEN  .LBF                                              : {F13.4}
TTEN .LBF                                              : {F13.4}
#-----------------------------------------------------------------------------
# 
#     DEPT        DEPT         BIT          GR           M2R1         M2R2         M2R3         M2R6         M2R9         M2RX         SPD          TEN          TTEN
#
~A  
# ...
 5161.3308    5161.3308       8.5000      83.2122       1.3033       1.9125       2.4016       2.6458       2.6593       2.7073       4.8678       2.1400    7446.8878
 5161.1784    5161.1784       8.5000      80.3635       1.2641       1.8643       2.3420       2.5815       2.5972       2.6436       4.8608      -5.6567    7439.0417
 5161.0260    5161.0260       8.5000      79.1101       1.2166       1.8094       2.2755       2.5084       2.5263       2.5710       4.8588     -13.2198    7431.2347
 5160.8736    5160.8736       8.5000      79.4475       1.1629       1.7475       2.2007       2.4249       2.4446       2.4873       4.8720     -15.4860    7428.6301
 5160.7212    5160.7212       8.5000      78.9403       1.1116       1.6862       2.1259       2.3405       2.3613       2.4019       4.8871     -15.7988    7427.9877
 5160.5688    5160.5688       8.5000      77.1378       1.0644       1.6236       2.0479       2.2517       2.2729       2.3113       4.8715     -18.3581    7425.0926
 5160.4164    5160.4164       8.5000      76.5532       1.0191       1.5543       1.9593       2.1508       2.1716       2.2075       4.8522     -20.2380    7422.8459
 5160.2640    5160.2640       8.5000      77.2233       0.9839       1.4934       1.8796       2.0595       2.0793       2.1129       4.8652     -21.3769    7421.3225
 5160.1116    5160.1116       8.5000      77.3313       0.9746       1.4699       1.8462       2.0187       2.0376       2.0697       4.8846     -31.9222    7410.3022
 5159.9592    5159.9592       8.5000      77.0483       0.9943       1.4919       1.8696       2.0399       2.0579       2.0893       4.8793     -50.0828    7391.4356
 5159.8068    5159.8068       8.5000      77.3704       1.0236       1.5316       1.9152       2.0849       2.1018       2.1330       4.8868     -55.5080    7385.1180
 5159.6544    5159.6544       8.5000      78.0908       1.0351       1.5469       1.9298       2.0961       2.1114       2.1420       4.9167     -42.4934    7397.2968
 5159.5020    5159.5020       8.5000      79.9715       1.0185       1.5194       1.8912       2.0499       2.0629       2.0923       4.9416     -35.0634    7404.0645
 5159.3496    5159.3496       8.5000      81.8056       0.9847       1.4631       1.8175       1.9665       1.9773       2.0050       4.9507     -44.1302    7394.3545
 5159.1972    5159.1972       8.5000      81.9062       0.9523       1.4066       1.7451       1.8858       1.8948       1.9214       4.9597     -53.8422    7383.8578
 5159.0448    5159.0448       8.5000      81.3639       0.9378       1.3777       1.7097       1.8465       1.8544       1.8807       4.9706     -55.1969    7381.5863
 5158.8924    5158.8924       8.5000      82.0852       0.9459       1.3872       1.7244       1.8628       1.8704       1.8975       4.9757     -57.6542    7378.1442
 5158.7400    5158.7400       8.5000      82.9957       0.9584       1.4100       1.7576       1.9007       1.9086       1.9372       4.9730     -60.9705    7373.7949
 5158.5876    5158.5876       8.5000      82.3491       0.9561       1.4146       1.7686       1.9159       1.9247       1.9548       4.9605     -49.1367    7384.6907
 5158.4352    5158.4352       8.5000      81.4631       0.9471       1.4072       1.7636       1.9144       1.9247       1.9562       4.9431     -25.5226    7407.6697
 5158.2828    5158.2828       8.5000      81.6833       0.9455       1.4060       1.7645       1.9194       1.9318       1.9651       4.9380     -19.4042    7413.3551
 5158.1304    5158.1304       8.5000      81.2764       0.9543       1.4185       1.7807       1.9407       1.9557       1.9913       4.9529     -41.5013    7390.6161
 5157.9780    5157.9780       8.5000      78.8278       0.9645       1.4353       1.8009       1.9651       1.9831       2.0210       4.9730     -66.2876    7364.7846
 5157.8256    5157.8256       8.5000      76.3430       0.9584       1.4306       1.7927       1.9571       1.9779       2.0175       4.9794     -73.3345    7356.4576
 5157.6732    5157.6732       8.5000      75.6326       0.9246       1.3838       1.7304       1.8884       1.9109       1.9508       4.9719     -61.1617    7367.4460
 5157.5208    5157.5208       8.5000      75.2362       0.8734       1.3064       1.6285       1.7751       1.7983       1.8372       4.9630     -36.1060    7391.6987
 5157.3684    5157.3684       8.5000      73.8715       0.8299       1.2351       1.5336       1.6686       1.6916       1.7293       4.9565     -11.0558    7416.4096
 5157.2160    5157.2160       8.5000      71.9143       0.8088       1.1941       1.4766       1.6030       1.6258       1.6628       4.9462      -5.9704    7421.4020
 5157.0636    5157.0636       8.5000      69.9154       0.8071       1.1818       1.4559       1.5769       1.5994       1.6364       4.9167     -26.7898    7400.2877
 5156.9112    5156.9112       8.5000      68.4786       0.8163       1.1885       1.4604       1.5784       1.6004       1.6378       4.8778     -50.8538    7375.4714
 5156.7588    5156.7588       8.5000      68.2495       0.8303       1.2068       1.4812       1.5981       1.6196       1.6575       4.8591     -47.3861    7377.9932
 5156.6064    5156.6064       8.5000      68.4071       0.8422       1.2254       1.5044       1.6211       1.6420       1.6803       4.8739     -13.2532    7411.5664
 5156.4540    5156.4540       8.5000      68.1689       0.8459       1.2334       1.5162       1.6325       1.6526       1.6909       4.8989      22.2837    7447.1875
 5156.3016    5156.3016       8.5000      69.2440       0.8442       1.2337       1.5196       1.6357       1.6550       1.6929       4.9058      31.4230    7456.7562
 5156.1492    5156.1492       8.5000      72.6396       0.8446       1.2370       1.5270       1.6438       1.6626       1.7002       4.8858      17.6055    7443.2627
 5155.9968    5155.9968       8.5000      75.9301       0.8497       1.2476       1.5433       1.6621       1.6807       1.7182       4.8599       5.5866    7431.3651
 5155.8444    5155.8444       8.5000      76.6508       0.8595       1.2650       1.5677       1.6895       1.7085       1.7459       4.8509       2.8161    7428.6713
 5155.6920    5155.6920       8.5000      74.6106       0.8737       1.2882       1.5987       1.7243       1.7440       1.7816       4.8590      -3.0777    7422.8380
 5155.5396    5155.5396       8.5000      71.5568       0.8867       1.3083       1.6252       1.7545       1.7752       1.8126       4.8687     -15.2499    7410.5788
 5155.3872    5155.3872       8.5000      69.2966       0.8886       1.3107       1.6291       1.7603       1.7818       1.8187       4.8666     -21.3271    7404.2510
 5155.2348    5155.2348       8.5000      68.3949       0.8760       1.2906       1.6043       1.7349       1.7570       1.7925       4.8584     -14.9184    7410.4017
 5155.0824    5155.0824       8.5000      68.6765       0.8565       1.2604       1.5662       1.6948       1.7174       1.7511       4.8614      -0.8071    7424.4404
 5154.9300    5154.9300       8.5000      69.2632       0.8420       1.2377       1.5367       1.6632       1.6862       1.7184       4.8714      10.0651    7435.4634
 5154.7776    5154.7776       8.5000      68.7107       0.8356       1.2269       1.5213       1.6464       1.6699       1.7007       4.8762       7.9554    7433.5605
 5154.6252    5154.6252       8.5000      66.9184       0.8305       1.2182       1.5084       1.6316       1.6553       1.6847       4.8771     -16.6715    7408.7953
 5154.4728    5154.4728       8.5000      65.2075       0.8219       1.2054       1.4908       1.6111       1.6348       1.6626       4.8793     -43.3578    7381.4209
 5154.3204    5154.3204       8.5000      64.5484       0.8138       1.1949       1.4769       1.5946       1.6181       1.6442       4.8783     -39.3788    7384.5730
 5154.1680    5154.1680       8.5000      65.3643       0.8110       1.1930       1.4748       1.5908       1.6141       1.6389       4.8761     -12.6285    7410.8896
