~VERSION INFORMATION
VERS.           2.0   :CWLS Log ASCII Standard - VERSION 2.0
WRAP.           YES   :Multiple lines per depth step
PROD.  Schlumberger   :LAS Producer
PROG.  DLIS to ASCII 2.3                               :LAS Program name and version
CREA.        2023/07/14 00:15                          :LAS Creation date {YYYY/MM/DD hh:mm}
DLIS_CREA.  2023-Jul-14 00:11                          :DLIS Creation date and time {YYYY-MMM-DD hh:mm}
SOURCE.     LIS_013.dlis                               :DLIS File Name
FILE-ID.     LIS   .002                                :File Identification Number
#--------------------------------------------------
~WELL INFORMATION
#MNEM.UNIT      DATA             DESCRIPTION
#---- ------ --------------   -----------------------------
STRT .M      5299.5576       :START DEPTH     
STOP .M      4241.4444       :STOP DEPTH     
STEP .M        -0.1524       :STEP     
NULL .          -999.25      :NULL VALUE
COMP .        PETROBRAS S.A.                           :COMPANY
WELL .        3-BRSA-293D-SPS                          :WELL
FLD  .        BS-400                                   :FIELD
LOC  .        BASE SAD 69:                             :LOCATION
CNTY .        SANTOS                                   :COUNTY
STAT .        BRASIL                                   :STATE
CTRY .        BRASIL                                   :COUNTRY
API  .                                                 :API NUMBER
UWI  .                                                 :UNIQUE WELL ID
DATE .        15/11/2004                               :LOG DATE
SRVC .        Schlumberger                             :SERVICE COMPANY
LATI .DEG                                              :LATITUDE
LONG .DEG                                              :LONGITUDE
GDAT .                                                 :GeoDetic Datum
#-----------------------------------------------------------------------------
~PARAMETER INFORMATION
#MNEM.UNIT    VALUE                      DESCRIPTION
#---- -----   --------------------       ------------------------
APD  .M               24                 :
BHT  .DEGF           260                 :
BLI  .M             5289                 :
BS   .IN         8.50000                 :
CN   .        PETROBRAS S.A.             :
COUN .        SANTOS                     :
CS   .IN         9.62500                 :
DATE .        15/11/2004                 :
DFD  .LB/G      12.30000                 :
DFL  .C3               2                 :
DFPH .        N/A                        :
DFT  .        SINTETICO                  :
DFV  .S               95                 :
DMF  .        MESA ROTATIVA              :
EDF  .M               24                 :
EGL  .M             -500                 :
EKB  .        N/A                        :
ENGI .        HERNANDEZ / LOCK           :
FL1  .        X   7292392.00 M LAT 24 28 47.189 S :
FL2  .        Y    584087.00 M LON 44 10 12.698 W :
FL3  .        MC  45 GRAUS               :
FN   .        BS-400                     :
LMF  .        MESA ROTATIVA              :
LUL  .        MACAE                      :
MCSS .        PRENSA                     :
MCST .DEGF            80                 :
MFSS .        PRENSA                     :
MFST .DEGF            80                 :
MSS  .        LINHA DE FLUXO             :
MST  .DEGF            80                 :
PDAT .        NIVEL DO MAR               :
R1   .        01. APRESENTAÇÃO DE ACORDO COM REQUERIMENTO DO CLIENTE :
R2   .        02. TEMPERATURA MÁXIMA DO POÇO T1=T2= 292 DEGF @  5277 M :
R3   .        03. INICIO DA CIRCULAÇÃO  12/11/2004 09 00 H :
R4   .        04. FINAL DA CIRCULAÇÃO   12/11/2004 18 00 H :
R5   .        05. TEMPO TOTAL DE CIRCULAÇÃO   09 00 H :
R6   .        06. FLUIDO DE PERFURAÇÃO  SINTETICO (BR-MUL  BR-MI)  60% TEOR DO OLEO :
R7   .        07. SALINIDADE DA LAMA  254762 PPM NACL NA FASE DE AGUA :
R8   .        08. INCLINAÇÃO MÁXIMA DO POÇO  37.37 GRAUS @ 5100 M :
R9   .        09. PRIMEIRAS E ULTIMAS LEITURAS  :
RMB  .OHMM    > 10                       :
RMCS .OHMM    > 10                       :
RMFS .OHMM    > 10                       :
RMS  .OHMM    >10                        :
RUN  .                 2                 :
STAT .        BRASIL                     :
TCS  .        18 00 H                    :
TDD  .M             5288                 :
TDL  .M             5293                 :
TLAB .        N/A                        :
TLI  .M             4277                 :
WITN .        ERNANI / ZE MARIA          :
WN   .        3-BRSA-293D-SPS            :
LUN  .              8808                 :
HIDE .        3-SPS-41D                  :
HID2 .        COMPENSATED Z-DENSILOG     :
HID3 .        COMPENSATED NEUTRON LOG    :
HID4 .        GAMMA RAY LOG              :
HID5 .        TTRM SUB                   :
CLAB .        BACIA                      :
SLAB .        PAIS                       :
CMT1 .        ESC  1 1000                :
CMT2 .        PROF. MEDIDA               :
CMT4 .        SONDA  SS-43               :
HDAT .        SAD 69                     :
FL   .        BASE SAD 69                :
OS1  .        RCI/GR                     :
OS2  .        CHECK SHOT                 :
OS3  .        GR/XMAC/HDIL               :
OS5  .        RCOR/GR                    :
LNAM .        ZDL/CN/XMAC/HDIL/EARTH IMAGER/RCI/RCOR/CHECK SHOT/GR :
TOOL .        ZDL/CN/XMAC/HDIL/EARTH IMAGER/RCI/RCOR/CHECK SHOT/GR :
LSOU .        PETROBRAS                  :
LSRV .        OH WIRELINE                :
LTYP .        RAW                        :
EPD  .M                0                 :
LDAT .        15/11/2004                 :
TRIP .                 4                 :
SON  .            786588                 :
CBDR .M             4277                 :
CBLO .        NR                         :
CBL1 .        NR                         :
STEM .DEGF    N/A                        :
BSAL .            254762                 :
BARI .        OFF                        :
DLAB .        12/11/2004                 :
MRT  .DEGF           292                 :
TSTR .        ZDL/CN/GR/TTRM             :
TSTG .        N/A                        :
STUS .        FINAL                      :
LCNM .        BAKER ATLAS                :
LCC  .               150                 :
NATI .        BRASIL                     :
OPMD .        OH.WIRELINE                :
PANA .        HERNANDEZ / LOCK           :
PCON .        BAKER ATLAS                :
R11  .        GR     5268.3 M / 4277.0 M :
R12  .        CN     5286.5 M / 5128.0 M (FERRAMENTA PERDEU LEITURA ACIMA DE 5128M) :
R13  .        ZDL    5292.0 M / 4277.0 M :
R15  .        10. PONTO FRACO UTILIZADO  10K :
R17  .        12. COORDENADAS BASE       :
R19  .        X   7292512.00 M           :
R21  .        MC  45 GRAUS               :
R23  .        13. CADASTRO ANP  86316021017 :
PVER .           4.10000                 :
WDFN .        /space/expusr/3-SPS-41D_RUN2/i77bf04_8spf.xtf :
OCT  .        i77bf                      :
OS4  .        EARTH IMAGER               :
R16  .        11. DECLINAÇÃO MAGNETICA  -20.9 GRAUS :
R20  .        Y    583936.00 M           :
#-----------------------------------------------------------------------------
~CURVE INFORMATION
#MNEM.UNIT   API CODE                                  DESCRIPTION
#---- -----  --------                                  -----------------------
DEPT .M                                                :DEPTH (BOREHOLE) {F10.4}
DEPT .M                                                : {F13.4}
BIT  .IN                                               : {F13.4}
DEPM .M                                                : {F13.4}
GR   .GAPI                                             : {F13.4}
SPD  .M/MN                                             : {F13.4}
TTEN .LBF                                              : {F13.4}
CAL  .IN                                               : {F13.4}
CALX .IN                                               : {F13.4}
HRD1 .HZ                                               : {F13.4}
HRD2 .HZ                                               : {F13.4}
PE   .B/E                                              : {F13.4}
SFT2 .HZ                                               : {F13.4}
SOFT .HZ                                               : {F13.4}
SSD  .HZ                                               : {F13.4}
ZCOR .G/C3                                             : {F13.4}
ZDEN .G/C3                                             : {F13.4}
CNC  .PU                                               : {F13.4}
CN   .PU                                               : {F13.4}
LSN  .HZ                                               : {F13.4}
SSN  .HZ                                               : {F13.4}
CNCF .PU                                               : {F13.4}
MMRK .MN                                               : {F13.4}
#-----------------------------------------------------------------------------
# DEPT       
#     DEPT         BIT          DEPM         GR           SPD          TTEN         
#     CAL          CALX         HRD1         HRD2         PE           SFT2         
#     SOFT         SSD          ZCOR         ZDEN         CNC          CN           
#     LSN          SSN          CNCF         MMRK         
~A  
# ...
4407.7128
   4407.7128       8.5000    4405.4247      88.5558       7.5504    6457.5473
      9.0753       9.0753     736.7441     924.5822       4.5750     602.5313
    437.5104    7103.3026      -0.0160       2.5210       0.0000      17.0533
   1268.0401    2960.4335      16.4814       0.0000
4407.5604
   4407.5604       8.5000    4405.2713      89.0386       7.5506    6470.2868
      9.0764       9.0764     738.1388     910.6937       4.5050     610.8041
    437.7477    7125.6916      -0.0110       2.5224       0.0000      16.8148
   1287.7474    2984.2875      16.2471       0.0000
4407.4080
   4407.4080       8.5000    4405.1189      89.1309       7.5704    6484.2318
      9.0751       9.0751     737.9325     928.3993       4.4802     626.5945
    445.8394    7127.5963      -0.0136       2.5171       0.0000      16.6841
   1297.2996    2994.1513      16.1199       0.0000
4407.2556
   4407.2556       8.5000    4404.9665      88.8582       7.5935    6483.4769
      9.0739       9.0739     744.3426     959.6619       4.4392     634.0942
    458.0646    7137.9254      -0.0183       2.5080       0.0000      16.6994
   1295.2309    2990.8144      16.1357       0.0000
4407.1032
   4407.1032       8.5000    4404.8141      88.9301       7.5910    6480.7781
      9.0749       9.0749     756.3520     968.4180       4.4153     630.5374
    461.7988    7191.2479      -0.0147       2.5029       0.0000      16.5817
   1299.7413    2990.1301      16.0197       0.0000
4406.9508
   4406.9508       8.5000    4404.6617      89.3512       7.5736    6490.7210
      9.0752       9.0752     763.1326     947.5834       4.3568     637.6729
    457.4605    7248.0146      -0.0053       2.5058       0.0000      16.4963
   1310.3554    3006.4158      15.9359       0.0000
4406.7984
   4406.7984       8.5000    4404.5084      90.0910       7.5679    6503.2991
      9.0715       9.0715     756.7371     914.0295       4.2417     645.1777
    454.0552    7225.9947      -0.0017       2.5155       0.0000      16.7761
   1314.5159    3042.6424      16.2124       0.0000
4406.6460
   4406.6460       8.5000    4404.3550      89.7120       7.5660    6503.5018
      9.0645       9.0645     734.4601     888.3407       4.2720     620.6825
    447.0430    7099.5811      -0.0101       2.5295       0.0000      17.0847
   1331.6592    3111.9532      16.5194       0.0000
4406.4936
   4406.4936       8.5000    4404.2026      86.3001       7.5553    6492.2479
      9.0574       9.0574     700.4523     858.2950       4.3127     572.1405
    433.7268    6913.7456      -0.0237       2.5478       0.0000      16.3924
   1407.5805    3218.5805      15.8457       0.0000
4406.3412
   4406.3412       8.5000    4404.0492      80.5702       7.5456    6481.1864
      9.0520       9.0520     662.0842     826.2810       4.2530     532.7469
    413.3881    6762.1119      -0.0317       2.5663       0.0000      14.7861
   1519.7443    3294.6629      14.2762       0.0000
4406.1888
   4406.1888       8.5000    4403.8968      77.2190       7.5451    6478.4014
      9.0491       9.0491     639.5901     816.2006       4.3864     518.7414
    392.5120    6737.3225      -0.0291       2.5747       0.0000      13.7403
   1554.8779    3248.0359      13.2548       0.0000
4406.0364
   4406.0364       8.5000    4403.7434      79.7946       7.5534    6478.5374
      9.0490       9.0490     641.7888     833.0566       4.3896     523.9414
    387.6775    6807.5342      -0.0231       2.5702       0.0000      14.2292
   1459.6088    3102.8956      13.7330       0.0000
4405.8840
   4405.8840       8.5000    4403.5910      86.3688       7.5680    6477.1903
      9.0510       9.0510     653.1939     851.0613       4.3780     529.9152
    402.0362    6865.8444      -0.0205       2.5620       0.0000      15.7906
   1327.3542    2976.5631      15.2603       0.0000
4405.7316
   4405.7316       8.5000    4403.4377      90.7945       7.5751    6482.9922
      9.0527       9.0527     666.4747     854.2035       4.3689     532.2802
    414.3470    6886.6342      -0.0207       2.5564       0.0000      17.1261
   1249.8646    2924.4684      16.5679       0.0000
4405.5792
   4405.5792       8.5000    4403.2853      90.8360       7.5631    6507.4928
      9.0522       9.0522     680.9657     850.5076       4.3100     547.9592
    416.8673    6926.9381      -0.0172       2.5527       0.0000      17.9255
   1216.3727    2915.5151      17.3523       0.1055
4405.4268
   4405.4268       8.5000    4403.1318      88.3231       7.5493    6539.5020
      9.0499       9.0499     690.7761     844.5411       4.2880     579.4257
    419.0859    6982.3896      -0.0105       2.5514       0.0000      18.5287
   1196.4314    2918.5205      17.9460       0.0000
4405.2744
   4405.2744       8.5000    4402.9795      86.1827       7.5545    6548.6357
      9.0477       9.0477     689.8976     833.5908       4.2427     599.3048
    419.2322    6995.4170      -0.0067       2.5537       0.0000      18.9812
   1183.4817    2924.2432      18.3919       0.0000
4405.1220
   4405.1220       8.5000    4402.8261      86.4263       7.5673    6517.5417
      9.0473       9.0473     690.3134     826.5062       4.2149     596.6535
    417.6248    6949.2774      -0.0116       2.5555       0.0000      19.0971
   1181.3089    2928.3630      18.5062       0.0000
4404.9696
   4404.9696       8.5000    4402.6737      88.4383       7.5626    6473.0052
      9.0480       9.0480     697.3638     835.9886       4.2207     585.1158
    418.8696    6892.5831      -0.0221       2.5527       0.0000      18.9523
   1188.7938    2934.9926      18.3633       0.0000
4404.8172
   4404.8172       8.5000    4402.5203      89.8342       7.5486    6452.6831
      9.0488       9.0488     699.7184     853.7478       4.2707     573.2606
    421.2632    6876.6608      -0.0277       2.5487       0.0000      18.9377
   1196.5966    2953.0455      18.3484       0.0000
4404.6648
   4404.6648       8.5000    4402.3679      89.6361       7.5602    6451.1572
      9.0495       9.0495     689.5493     871.4269       4.3912     561.5017
    419.5805    6911.9935      -0.0243       2.5465       0.0000      18.9084
   1210.2668    2984.2839      18.3192       0.0000
4404.5124
   4404.5124       8.5000    4402.2155      88.7888       7.5929    6447.1930
      9.0501       9.0501     676.8785     889.8436       4.4553     556.0980
    421.5570    6969.9099      -0.0176       2.5451       0.0000      18.1018
   1256.4711    3027.0122      17.5269       0.0000
4404.3600
   4404.3600       8.5000    4402.0621      87.1634       7.6010    6446.1053
      9.0498       9.0498     665.4894     901.6540       4.4617     555.5118
    427.4220    7005.3497      -0.0130       2.5457       0.0000      16.5818
   1339.8365    3081.9825      16.0363       0.0000
4404.2076
   4404.2076       8.5000    4401.9097      83.6234       7.5758    6460.3846
      9.0498       9.0498     647.9998     896.7408       4.4615     555.3902
    426.5213    6985.7930      -0.0117       2.5512       0.0000      15.4140
   1420.0548    3145.1448      14.8922       0.0000
4404.0552
   4404.0552       8.5000    4401.7564      80.0053       7.5523    6484.7596
      9.0506       9.0506     633.2065     882.3962       4.4684     550.3635
    420.0168    6921.7804      -0.0151       2.5591       0.0000      15.3639
   1448.5717    3202.9515      14.8427       0.0000
4403.9028
   4403.9028       8.5000    4401.6040      80.1341       7.5506    6511.8999
      9.0499       9.0499     635.3703     860.2682       4.4763     538.4077
    414.5879    6866.6646      -0.0189       2.5653       0.0000      16.2558
   1419.2612    3231.2270      15.7167       0.0000
4403.7504
   4403.7504       8.5000    4401.4506      83.7204       7.5610    6528.5120
      9.0485       9.0485     652.3713     831.3473       4.4728     527.8201
    404.3230    6862.9515      -0.0172       2.5696       0.0000      17.1365
   1373.5074    3214.8231      16.5809       0.0000
4403.5980
   4403.5980       8.5000    4401.2982      87.0599       7.5649    6527.5732
      9.0490       9.0490     669.1720     808.8882       4.4865     527.8773
    389.5677    6885.8538      -0.0131       2.5715       0.0000      17.4802
   1338.3403    3165.5100      16.9177       0.0000
