~VERSION INFORMATION
VERS.           2.0   :CWLS Log ASCII Standard - VERSION 2.0
WRAP.           NO    :One Line per depth step
PROD.  Schlumberger   :LAS Producer
PROG.  DLIS to ASCII 2.3                               :LAS Program name and version
CREA.        2023/07/14 00:15                          :LAS Creation date {YYYY/MM/DD hh:mm}
DLIS_CREA.  2023-Jul-14 00:11                          :DLIS Creation date and time {YYYY-MMM-DD hh:mm}
SOURCE.     LIS_005.dlis                               :DLIS File Name
FILE-ID.     LIS   .001                                :File Identification Number
#--------------------------------------------------
~WELL INFORMATION
#MNEM.UNIT      DATA             DESCRIPTION
#---- ------ --------------   -----------------------------
STRT .M      5238.7500       :START DEPTH     
STOP .M      5087.2644       :STOP DEPTH     
STEP .M        -0.1524       :STEP     
NULL .          -999.25      :NULL VALUE
COMP .        PETROBRAS S.A.                           :COMPANY
WELL .        3-BRSA-293D-SPS                          :WELL
FLD  .        BS-400                                   :FIELD
LOC  .        BASE SAD 69:                             :LOCATION
CNTY .        SANTOS                                   :COUNTY
STAT .        BRASIL                                   :STATE
CTRY .        SANTOS                                   :COUNTRY
API  .                                                 :API NUMBER
UWI  .                                                 :UNIQUE WELL ID
DATE .        23/10/2004                               :LOG DATE
SRVC .        Schlumberger                             :SERVICE COMPANY
LATI .DEG                                              :LATITUDE
LONG .DEG                                              :LONGITUDE
GDAT .                                                 :GeoDetic Datum
#-----------------------------------------------------------------------------
~PARAMETER INFORMATION
#MNEM.UNIT    VALUE                      DESCRIPTION
#---- -----   --------------------       ------------------------
APD  .M               24                 :
BHT  .DEGF           280                 :
BLI  .M             5230                 :
BS   .IN         8.50000                 :
CN   .        PETROBRAS S.A.             :
COUN .        SANTOS                     :
CS   .IN         9.62500                 :
DATE .        23/10/2004                 :
DFD  .LB/G      12.30000                 :
DFL  .C3               2                 :
DFPH .        N/A                        :
DFT  .        SINTETICO                  :
DFV  .S               87                 :
DMF  .        MESA ROTATIVA              :
EDF  .M               24                 :
EGL  .M             -500                 :
EKB  .        N/A                        :
ENGI .        HERNANDEZ/LOCK             :
FL1  .        X   7292392.00 M LAT 24 28 47.189 S :
FL2  .        Y    584087.00 M LON 44 10 12.698 W :
FL3  .        MC  45 GRAUS               :
FN   .        BS-400                     :
LMF  .        MESA ROTATIVA              :
LUL  .        MACAE                      :
MCSS .        PRENSA                     :
MCST .DEGF            80                 :
MFSS .        PRENSA                     :
MFST .DEGF            80                 :
MSS  .        LINHA DE FLUXO             :
MST  .DEGF            80                 :
PDAT .        NIVEL DO MAR               :
R1   .        01. APRESENTAÇÃO DE ACORDO COM REQUERIMENTO DO CLIENTE :
R2   .        02. TEMPERATURA MÁXIMA DO POÇO T1=T2= 260 DEGF @  5180 M :
R3   .        03. INICIO DA CIRCULAÇÃO  13 45 H 21/10/2004 :
R4   .        04. FINAL DA CIRCULAÇÃO   16 00 H 21/10/2004 :
R5   .        05. TEMPO TOTAL DE CIRCULAÇÃO  02 15 H :
R6   .        06. FLUIDO DE PERFURAÇÃO  SINTETICO (BR-MUL  BR-MI)  65% TEOR DO OLEO :
R7   .        07. SALINIDADE DA LAMA  266377 PPM NACL NA FASE DE AGUA :
R8   .        08. INCLINAÇÃO MÁXIMA DO POÇO  37.37 GRAUS @ 5100 M :
R9   .        09. PRIMEIRAS E ULTIMAS LEITURAS  :
RMB  .OHMM    > 10                       :
RMCS .OHMM    > 10                       :
RMFS .OHMM    > 10                       :
RMS  .OHMM    > 10                       :
RUN  .                 1                 :
STAT .        BRASIL                     :
TCS  .        16 00 H                    :
TDD  .M             5230                 :
TDL  .M             5231                 :
TLAB .        N/A                        :
TLI  .M             4277                 :
WITN .        ALCIDIO/VLADIMIR           :
WN   .        3-BRSA-293D-SPS            :
LUN  .              8808                 :
HIDE .        3-SPS-41D                  :
HID2 .        COMPENSATED Z-DENSILOG     :
HID3 .        COMPENSATED NEUTRON LOG    :
HID4 .        GAMMA RAY LOG              :
HID5 .        TTRM SUB                   :
CLAB .        BACIA                      :
SLAB .        PAIS                       :
CMT1 .        ESC  1 1000                :
CMT2 .        PROF. MEDIDA               :
CMT4 .        SONDA  SS-43               :
HDAT .        SAD 69                     :
FL   .        BASE SAD 69                :
OS1  .        HDIL/XMAC/SL/GR            :
OS3  .        MREX/GR                    :
OS5  .        SL/GR                      :
LNAM .        MREX/ZDL/CN/XMAC/HDIL/3DEX/RCI/SL/GR :
TOOL .        MREX/ZDL/CN/XMAC/HDIL/3DEX/RCI/SL/GR :
LSOU .        PETROBRAS                  :
LSRV .        OH WIRELINE                :
LTYP .        RAW                        :
EPD  .M                0                 :
LDAT .        23/10/2004                 :
TRIP .                 1                 :
SON  .            772317                 :
CBDR .M             4277                 :
CBLO .M             4277                 :
CBL1 .M             4277                 :
STEM .DEGF    N/A                        :
BSAL .            266377                 :
BARI .        OFF                        :
DLAB .        21/10/2004                 :
MRT  .DEGF           280                 :
TSTR .        ZDL/CN/GR/TTRM             :
TSTG .        N/A                        :
STUS .        FINAL                      :
LCNM .        BAKER ATLAS                :
LCC  .               150                 :
NATI .        SANTOS                     :
OPMD .        OH.WIRELINE                :
PANA .        HERNANDEZ/LOCK             :
PCON .        BAKER ATLAS                :
R11  .        GR     5222.5 M/4277.0 M   :
R12  .        ZDL    5230.0 M/4277.0 M   :
R13  .        CN     5224.0 M/4277.0 M   :
R15  .        10. PONTO FRACO UTILIZADO  10K :
R17  .        12. DECLINAÇÃO MAGNETICA  -20.9 GRAUS :
R18  .        13. COORDENADAS BASE       :
R21  .        Y    583936.00 M           :
R22  .        MC  45 GRAUS               :
PVER .           4.10000                 :
WDFN .        /space/expusr/3-SPS-41D/i77bf06_8spf.xtf :
OCT  .        i77bf                      :
0S2  .        3DEX/GR                    :
OS4  .        RCI/GR                     :
R16  .        11. CNC CORREGIDO PELO CALIPER E SALINIDADE  PRESENTADO MATRIZ CARBONATO :
R20  .        X   7292512.00 M           :
R24  .        14. CADASTRO ANP  86316021017 :
#-----------------------------------------------------------------------------
~CURVE INFORMATION
#MNEM.UNIT   API CODE                                  DESCRIPTION
#---- -----  --------                                  -----------------------
DEPT .M                                                :DEPTH (BOREHOLE) {F10.4}
DEPT .M                                                : {F13.4}
BIT  .IN                                               : {F13.4}
GR   .GAPI                                             : {F13.4}
TEN  .LBF                                              : {F13.4}
TTEN .LBF                                              : {F13.4}
CAL  .IN                                               : {F13.4}
CALX .IN                                               : {F13.4}
HRD1 .HZ                                               : {F13.4}
HRD2 .HZ                                               : {F13.4}
PE   .B/E                                              : {F13.4}
SFT2 .HZ                                               : {F13.4}
SOFT .HZ                                               : {F13.4}
SSD  .HZ                                               : {F13.4}
ZCOR .G/C3                                             : {F13.4}
ZDEN .G/C3                                             : {F13.4}
#-----------------------------------------------------------------------------
# 
#     DEPT        DEPT         BIT          GR           TEN          TTEN         CAL          CALX         HRD1         HRD2         PE           SFT2         SOFT         SSD          ZCOR         ZDEN
#
~A  
# ...
 5155.5396    5155.5396       8.5000      63.2980     -13.6815    6310.0223       8.6817       8.6817    1221.5939    1555.6250       3.5624    1017.1817     829.2876    7575.5934      -0.0361       2.2967
 5155.3872    5155.3872       8.5000      60.5862     -29.4025    6293.9658       8.6839       8.6839    1214.3688    1556.2999       3.5639    1027.6319     828.0349    7613.7188      -0.0310       2.2982
 5155.2348    5155.2348       8.5000      57.9972     -21.3235    6301.6710       8.6864       8.6864    1209.4974    1577.2915       3.5455    1043.6002     833.9336    7643.2924      -0.0290       2.2966
 5155.0824    5155.0824       8.5000      57.2561       7.5261    6330.5307       8.6874       8.6874    1203.6084    1579.7083       3.5389    1045.2717     836.9516    7547.7183      -0.0400       2.2976
 5154.9300    5154.9300       8.5000      57.6882      23.0313    6346.4236       8.6862       8.6862    1191.3966    1545.8123       3.5252    1020.3334     827.6459    7432.2388      -0.0494       2.3036
 5154.7776    5154.7776       8.5000      58.0299      18.6900    6342.4921       8.6840       8.6840    1179.6379    1506.5983       3.4439     988.0110     817.7527    7466.0196      -0.0403       2.3102
 5154.6252    5154.6252       8.5000      57.5609      12.3392    6336.4168       8.6821       8.6821    1179.7646    1491.1992       3.3515     980.7182     826.9666    7585.6956      -0.0244       2.3119
 5154.4728    5154.4728       8.5000      56.3519      10.7382    6335.0260       8.6806       8.6806    1191.5931    1503.5071       3.3196    1004.0473     843.9489    7660.3914      -0.0180       2.3078
 5154.3204    5154.3204       8.5000      55.3000      10.7520    6335.2192       8.6799       8.6799    1213.5921    1541.1727       3.3749    1035.7013     849.1649    7711.6501      -0.0179       2.2987
 5154.1680    5154.1680       8.5000      54.9891      17.5874    6342.2666       8.6806       8.6806    1241.8101    1593.5931       3.5024    1059.6444     854.2426    7746.0086      -0.0217       2.2870
 5154.0156    5154.0156       8.5000      55.3798      29.3887    6354.4304       8.6813       8.6813    1265.6088    1637.4787       3.5615    1081.8315     870.6415    7729.2571      -0.0300       2.2768
 5153.8632    5153.8632       8.5000      56.6497      37.0087    6362.5962       8.6813       8.6813    1284.5518    1656.6992       3.5866    1103.2743     880.6830    7704.8461      -0.0364       2.2712
 5153.7108    5153.7108       8.5000      58.4670      32.8595    6359.0438       8.6814       8.6814    1301.0129    1644.5984       3.6224    1108.2899     870.1872    7697.2281      -0.0376       2.2713
 5153.5584    5153.5584       8.5000      59.8820      20.3250    6346.9539       8.6818       8.6818    1300.8853    1615.4172       3.6927    1083.3520     845.0521    7670.9213      -0.0380       2.2764
 5153.4060    5153.4060       8.5000      60.7477      11.1876    6338.0565       8.6822       8.6822    1271.4816    1586.1361       3.7950    1039.8027     815.9848    7633.8118      -0.0369       2.2848
 5153.2536    5153.2536       8.5000      62.0963       9.6517    6336.6521       8.6825       8.6825    1224.9352    1554.6133       3.8670    1004.6899     790.8699    7602.7131      -0.0331       2.2943
 5153.1012    5153.1012       8.5000      63.4255       4.8860    6331.9140       8.6822       8.6822    1200.1090    1535.7527       3.8879     998.3693     777.0379    7558.6510      -0.0341       2.2988
 5152.9488    5152.9488       8.5000      63.2984     -10.4529    6316.3948       8.6815       8.6815    1213.6853    1556.9583       3.8792    1026.5934     783.0837    7526.2057      -0.0414       2.2942
 5152.7964    5152.7964       8.5000      62.4171     -28.0135    6298.4360       8.6814       8.6814    1226.9818    1586.6566       3.8656    1059.4543     802.4896    7565.0243      -0.0409       2.2893
 5152.6440    5152.6440       8.5000      62.4933     -33.3533    6292.6484       8.6820       8.6820    1203.6486    1564.8056       3.8327    1050.8493     805.7469    7607.4470      -0.0315       2.2949
 5152.4916    5152.4916       8.5000      63.4175     -28.0931    6297.5186       8.6827       8.6827    1168.4093    1515.6160       3.8063    1002.0758     782.2013    7578.5529      -0.0266       2.3058
 5152.3392    5152.3392       8.5000      64.7229     -22.4383    6302.7829       8.6832       8.6832    1164.6174    1507.1299       3.7851     963.6795     773.4680    7531.6525      -0.0309       2.3087
 5152.1868    5152.1868       8.5000      67.3528     -15.4046    6309.4369       8.6832       8.6832    1190.2971    1540.3600       3.7362     968.1904     798.9121    7511.3883      -0.0392       2.3032
 5152.0344    5152.0344       8.5000      71.5436      -5.6155    6319.0128       8.6829       8.6829    1208.9003    1555.7166       3.6177    1002.3979     822.7666    7490.3150      -0.0451       2.3004
 5151.8820    5151.8820       8.5000      75.7160      -2.2138    6322.3678       8.6829       8.6829    1199.7439    1531.4856       3.4779    1031.7703     827.3853    7493.1965      -0.0415       2.3053
 5151.7296    5151.7296       8.5000      77.9290      -6.6151    6317.9216       8.6839       8.6839    1184.8412    1505.9146       3.3470    1036.7720     831.8382    7520.7679      -0.0341       2.3114
 5151.5772    5151.5772       8.5000      77.3985     -14.2404    6310.1469       8.6855       8.6855    1186.1017    1504.1668       3.2708    1035.5320     841.6765    7535.1736      -0.0324       2.3130
 5151.4248    5151.4248       8.5000      75.4866     -22.5892    6301.5213       8.6860       8.6860    1203.5659    1515.6109       3.2543    1036.8829     851.8288    7560.3973      -0.0322       2.3102
 5151.2724    5151.2724       8.5000      74.0211     -25.0337    6298.7423       8.6842       8.6842    1220.3562    1524.6343       3.2615    1028.7467     860.5073    7607.6328      -0.0292       2.3071
 5151.1200    5151.1200       8.5000      72.9294     -19.9051    6303.5808       8.6810       8.6810    1215.3560    1525.7182       3.2586    1016.7430     857.7441    7652.6531      -0.0235       2.3079
 5150.9676    5150.9676       8.5000      70.1585     -13.6337    6309.6416       8.6787       8.6787    1187.5778    1510.5504       3.2474    1013.2834     841.7131    7691.5281      -0.0147       2.3130
 5150.8152    5150.8152       8.5000      65.8253      -9.2170    6313.9111       8.6785       8.6785    1172.8884    1495.8560       3.2471    1013.9667     829.9660    7724.4649      -0.0079       2.3161
 5150.6628    5150.6628       8.5000      62.8005     -10.3729    6312.6053       8.6795       8.6795    1196.2577    1507.4034       3.2461    1022.4243     839.1344    7736.2301      -0.0100       2.3120
 5150.5104    5150.5104       8.5000      63.4521     -20.4462    6302.2248       8.6804       8.6804    1231.1701    1532.7955       3.2107    1041.9557     861.3112    7726.8381      -0.0170       2.3048
 5150.3580    5150.3580       8.5000      66.5061     -31.2835    6290.8665       8.6819       8.6819    1246.5106    1532.3836       3.1468    1053.2905     876.6866    7686.3600      -0.0232       2.3025
 5150.2056    5150.2056       8.5000      69.2719     -35.7341    6285.7780       8.6840       8.6840    1240.0040    1511.1800       3.1162    1051.5717     875.9136    7612.5128      -0.0292       2.3058
 5150.0532    5150.0532       8.5000      70.7143     -33.0320    6287.8583       8.6847       8.6847    1216.4753    1497.9630       3.1233    1042.4104     860.8141    7537.7755      -0.0345       2.3122
 5149.9008    5149.9008       8.5000      70.4586     -23.7116    6296.6957       8.6830       8.6830    1169.1546    1463.6235       3.2259    1004.7926     822.7479    7438.1344      -0.0382       2.3255
 5149.7484    5149.7484       8.5000      68.6908     -17.8914    6302.1973       8.6812       8.6812    1103.3779    1379.3599       3.3538     936.8234     761.6559    7273.4481      -0.0425       2.3469
