~VERSION INFORMATION
VERS.           2.0   :CWLS Log ASCII Standard - VERSION 2.0
WRAP.           NO    :One Line per depth step
PROD.  Schlumberger   :LAS Producer
PROG.  DLIS to ASCII 2.3                               :LAS Program name and version
CREA.        2023/07/14 00:15                          :LAS Creation date {YYYY/MM/DD hh:mm}
DLIS_CREA.  2023-Jul-14 00:11                          :DLIS Creation date and time {YYYY-MMM-DD hh:mm}
SOURCE.     LIS_001.dlis                               :DLIS File Name
FILE-ID.     LIS   .001                                :File Identification Number
#--------------------------------------------------
~WELL INFORMATION
#MNEM.UNIT      DATA             DESCRIPTION
#---- ------ --------------   -----------------------------
STRT .M      5244.5412       :START DEPTH     
STOP .M      5059.0704       :STOP DEPTH     
STEP .M        -0.1524       :STEP     
NULL .          -999.25      :NULL VALUE
COMP .        PETROBRAS S.A.                           :COMPANY
WELL .        3-BRSA-293D-SPS                          :WELL
FLD  .        BS-400                                   :FIELD
LOC  .        BASE SAD 69:                             :LOCATION
CNTY .        SANTOS                                   :COUNTY
STAT .        BRASIL                                   :STATE
CTRY .        BRASIL                                   :COUNTRY
API  .                                                 :API NUMBER
UWI  .                                                 :UNIQUE WELL ID
DATE .        22/10/2004                               :LOG DATE
SRVC .        Schlumberger                             :SERVICE COMPANY
LATI .DEG                                              :LATITUDE
LONG .DEG                                              :LONGITUDE
GDAT .                                                 :GeoDetic Datum
#-----------------------------------------------------------------------------
~PARAMETER INFORMATION
#MNEM.UNIT    VALUE                      DESCRIPTION
#---- -----   --------------------       ------------------------
APD  .M               24                 :
BHT  .DEGF           260                 :
BLI  .M       5227.50000                 :
BS   .IN         8.50000                 :
CN   .        PETROBRAS S.A.             :
COUN .        SANTOS                     :
CS   .IN         9.62500                 :
DATE .        22/10/2004                 :
DFD  .LB/G      12.30000                 :
DFL  .C3               2                 :
DFPH .        N/A                        :
DFT  .        SINTETICO                  :
DFV  .S               87                 :
DMF  .        MESA ROTATIVA              :
EDF  .M               24                 :
EGL  .M             -500                 :
EKB  .        N/A                        :
ENGI .        HERNANDEZ/LOCK             :
FL1  .        X   7292392.00 M LAT 24 28 47.189 S :
FL2  .        Y    584087.00 M LON 44 10 12.698 W :
FL3  .        MC  45 GRAUS               :
FN   .        BS-400                     :
LMF  .        MESA ROTATIVA              :
LUL  .        MACAE                      :
MCSS .        PRENSA                     :
MCST .DEGF            80                 :
MFSS .        PRENSA                     :
MFST .DEGF            80                 :
MSS  .        LINHA DE FLUXO             :
MST  .DEGF            80                 :
PDAT .        NIVEL DO MAR               :
R1   .        01. APRESENTAÇÃO DE ACORDO COM REQUERIMENTO DO CLIENTE :
R2   .        02. TEMPERATURA MÁXIMA DO POÇO T1=T2= 260 DEGF @  5180 M :
R3   .        03. INICIO DA CIRCULAÇÃO  13 45 H 21/10/2004 :
R4   .        04. FINAL DA CIRCULAÇÃO   16 00 H 21/10/2004 :
R5   .        05. TEMPO TOTAL DE CIRCULAÇÃO  02 15 H :
R6   .        06. FLUIDO DE PERFURAÇÃO  SINTETICO (BR-MUL  BR-MI)  65% TEOR DO OLEO :
R7   .        07. SALINIDADE DA LAMA  266377 PPM NACL NA FASE DE AGUA :
R8   .        08. INCLINAÇÃO MÁXIMA DO POÇO  37.37 GRAUS @ 5100 M :
R9   .        09. PRIMEIRAS E ULTIMAS LEITURAS  :
RMB  .OHMM    > 10                       :
RMCS .OHMM    > 10                       :
RMFS .OHMM    > 10                       :
RMS  .OHMM    > 10                       :
RUN  .                 1                 :
STAT .        BRASIL                     :
TCS  .        16 00 H                    :
TDD  .M             5230                 :
TDL  .M             5231                 :
TLAB .        N/A                        :
TLI  .M             3850                 :
WITN .        ALCIDIO/VLADIMIR           :
WN   .        3-BRSA-293D-SPS            :
LUN  .              8808                 :
HIDE .        3-SPS-41D                  :
HID2 .        HIGH DEFINITION INDUCTION LOG :
HID3 .        X-MULTIPOLE ARRAY ACOUSTILOG :
HID4 .        GAMMA RAY LOG              :
HID5 .        TTRM SUB                   :
CLAB .        BACIA                      :
SLAB .        PAIS                       :
CMT1 .        ESC  1 1000                :
CMT2 .        PROF. MEDIDA               :
CMT4 .        SONDA  SS-43               :
HDAT .        SAD 69                     :
FL   .        BASE SAD 69                :
OS1  .        GR/CN/ZDL                  :
OS2  .        MREX/GR                    :
OS3  .        RCI/GR                     :
0S4  .        3DEX/GR                    :
OS5  .        SL/GR                      :
LNAM .        MREX/ZDL/CN/XMAC/HDIL/RCI/3DEX/SL/GR :
TOOL .        MREX/ZDL/CN/XMAC/HDIL/RCI/3DEX/SL/GR :
LSOU .        PETROBRAS                  :
LSRV .        OH WIRELINE                :
LTYP .        RAW                        :
EPD  .M                0                 :
LDAT .        22/10/2004                 :
TRIP .                 1                 :
SON  .            772317                 :
CBDR .M             4277                 :
CBLO .M             4277                 :
CBL1 .M             4277                 :
STEM .DEGF    N/A                        :
BSAL .            266377                 :
BARI .        OFF                        :
DLAB .        21/10/2004                 :
MRT  .DEGF           260                 :
TSTR .        HDIL/XMAC/GR/TTRM          :
TSTG .        N/A                        :
STUS .        FINAL                      :
LCNM .        BAKER ATLAS                :
LCC  .               150                 :
NATI .        BRASIL                     :
OPMD .        OH.WIRELINE                :
PANA .        HERNANDEZ/LOCK             :
PCON .        BAKER ATLAS                :
R11  .        SL     5196.0 M/4960.0 M   :
R12  .        GR     4960.0 M/4277.0 M   :
R13  .        XMAC   5202.0 M/3850.0 M   :
R14  .        HDIL   5227.5 M/4277.0 M   :
R15  .        3DEX   5217.0 M/4960.0 M   :
R17  .        10. PONTO FRACO UTILIZADO  10K :
R18  .        11. DECLINAÇÃO MAGNETICA  -20.9 GRAUS :
R19  .        12. COORDENADAS ARATU      :
R21  .        X   7292512.00 M           :
R22  .        Y    583936.00 M           :
R23  .        MC  45 GRAUS               :
R25  .        13. CADASTRO ANP  86316021017 :
PVER .           4.10000                 :
WDFN .        /space/expusr/3-SPS-41D/i77bf02_2spf.xtf :
OCT  .        i77bf                      :
#-----------------------------------------------------------------------------
~CURVE INFORMATION
#MNEM.UNIT   API CODE                                  DESCRIPTION
#---- -----  --------                                  -----------------------
DEPT .M                                                :DEPTH (BOREHOLE) {F10.4}
DEPT .M                                                : {F13.4}
DT   .US/F                                             : {F13.4}
SFN1 .US                                               : {F13.4}
SFN2 .US                                               : {F13.4}
SFN3 .US                                               : {F13.4}
SFN4 .US                                               : {F13.4}
TT   .MS                                               : {F13.4}
#-----------------------------------------------------------------------------
# 
#     DEPT        DEPT         DT           SFN1         SFN2         SFN3         SFN4         TT
#
~A  
# ...
 5208.4224    5208.4224      63.1924     664.7504     695.4996     728.0000     759.5000       1.1336
 5208.2700    5208.2700      63.1449     664.8750     695.3754     728.0000     759.4996       1.1652
 5208.1176    5208.1176      63.1021     664.8750     695.4997     728.0000     759.3753       1.1965
 5207.9652    5207.9652      63.0735     664.9997     695.2506     728.0000     759.3750       1.2281
 5207.8128    5207.8128      63.0674     665.2495     695.4995     728.0000     759.3750       1.2596
 5207.6604    5207.6604      63.0857     665.1252     695.7496     728.1248     759.3750       1.2912
 5207.5080    5207.5080      63.1202     665.0002     695.9997     728.2498     759.4998       1.3228
 5207.3556    5207.3556      63.1572     664.8751     696.0000     728.3749     759.6249       1.3543
 5207.2032    5207.2032      63.1832     664.9999     696.0000     728.4999     759.7499       1.3859
 5207.0508    5207.0508      63.1946     665.0000     695.8750     728.5000     760.0000       1.4176
 5206.8984    5206.8984      63.1985     665.0000     695.8750     728.3750     760.0000       1.4492
 5206.7460    5206.7460      63.2021     665.0000     695.9999     728.5001     759.8750       1.4808
 5206.5936    5206.5936      63.2060     664.9999     695.8750     728.6249     759.8751       1.5124
 5206.4412    5206.4412      63.2082     664.8748     695.8750     728.5000     759.9997       1.5440
 5206.2888    5206.2888      63.2085     664.7498     695.8748     728.4998     759.7500       1.5756
 5206.1364    5206.1364      63.2046     664.6253     695.7497     728.3747     759.7500       1.6072
 5205.9840    5205.9840      63.1874     664.7497     695.6247     728.2497     759.7497       1.6388
 5205.8316    5205.8316      63.1456     664.6254     695.5004     728.1250     759.6254       1.6704
 5205.6792    5205.6792      63.0945     664.7496     695.6250     728.1246     759.7492       1.7020
 5205.5268    5205.5268      63.0849     664.6250     695.6246     728.0000     759.5000       1.7335
 5205.3744    5205.3744      63.1546     664.6250     695.5003     728.0000     759.5000       1.7649
 5205.2220    5205.2220      63.2812     664.6250     695.6247     728.0000     759.3753       1.7966
 5205.0696    5205.0696      63.3753     664.6250     695.6250     728.0000     759.3750       1.8283
 5204.9172    5204.9172      63.3459     664.7498     695.6250     728.0000     759.2502       1.8600
 5204.7648    5204.7648      63.1786     664.6251     695.5001     728.0000     759.1251       1.8916
 5204.6124    5204.6124      62.9622     664.5001     695.5000     728.0000     759.3748       1.9231
 5204.4600    5204.4600      62.8051     664.6250     695.5000     728.0000     759.2500       1.9545
 5204.3076    5204.3076      62.6850     664.6250     695.3750     728.0000     759.3750       1.9858
 5204.1552    5204.1552      62.4520     664.5000     695.4999     728.0000     759.2499       2.0171
 5204.0028    5204.0028      62.0209     664.5000     695.3751     728.0000     759.1250       2.0481
 5203.8504    5203.8504      61.5525     664.4998     695.4997     728.0000     759.1252       2.0789
 5203.6980    5203.6980      61.3999     664.3752     695.2498     728.0000     759.2496       2.1096
 5203.5456    5203.5456      61.7918     664.4998     695.1248     728.0000     759.0005       2.1405
 5203.3932    5203.3932      62.5835     664.3741     695.0000     728.0000     759.2494       2.1718
 5203.2408    5203.2408      63.3611     664.0000     694.9990     728.0000     759.0000       2.2035
 5203.0884    5203.0884      63.7887     664.0015     694.6246     728.0000     758.9992       2.2354
 5202.9360    5202.9360      63.8329     664.4996     694.5004     728.0000     758.7491       2.2673
 5202.7836    5202.7836      63.7033     664.3753     694.6247     728.0000     758.5006       2.2990
 5202.6312    5202.6312      63.5705     664.4997     694.8744     728.0000     758.3753       2.3308
 5202.4788    5202.4788      63.4296     664.0009     695.3741     728.0000     758.6245       2.3625
 5202.3264    5202.3264      63.2356     663.2511     693.8772     727.8752     758.7498       2.3941
 5202.1740    5202.1740      62.9940     663.1251     691.3778     727.1258     759.1246       2.4256
 5202.0216    5202.0216      62.7957     663.1250     690.8754     726.3756     757.3763       2.4571
 5201.8692    5201.8691      62.7372     663.1250     690.8750     726.0000     756.5000       2.4884
 5201.7168    5201.7168      62.8192     663.2500     691.0000     726.0000     756.6250       2.5199
 5201.5644    5201.5645      62.9863     663.0000     690.8750     725.8750     756.5000       2.5513
 5201.4120    5201.4120      63.1181     662.8750     690.7499     725.9999     756.3748       2.5829
 5201.2596    5201.2596      63.1386     662.8779     690.6240     725.8750     756.1250       2.6145
 5201.1072    5201.1072      63.1219     665.5089     689.7604     725.8743     756.1250       2.6461
 5200.9548    5200.9548      63.2439     671.6150     696.8798     725.3805     756.1243       2.6777
 5200.8024    5200.8024      63.6582     666.1234     699.4964     728.3813     755.7629       2.7096
 5200.6500    5200.6500      64.2667     665.3814     697.8744     731.2615     761.6337       2.7417
 5200.4976    5200.4976      64.7585     667.8743     697.6221     735.7416     765.0026       2.7741
 5200.3452    5200.3452      64.9248     667.6254     696.6271     732.8701     765.8647       2.8066
 5200.1928    5200.1928      64.8636     667.7497     697.2483     731.3791     762.7585       2.8388
 5200.0404    5200.0404      64.8248     669.3711     699.4947     735.6149     766.1170       2.8712
 5199.8880    5199.8880      64.8634     666.6305     696.1318     734.3775     763.8795       2.9037
 5199.7356    5199.7356      64.8144     669.4953     699.7441     734.2502     766.9949       2.9361
 5199.5832    5199.5832      64.5231     668.6261     700.1245     734.7494     765.2522       2.9684
 5199.4308    5199.4308      64.1516     668.3752     697.2526     732.0025     761.6282       3.0005
 5199.2784    5199.2784      64.0909     668.9997     696.0007     729.5013     762.6245       3.0325
 5199.1260    5199.1260      64.4642     664.0000     697.1250     729.0000     762.7500       3.0648
 5198.9736    5198.9736      65.0507     670.5000     697.1250     735.7500     762.8750       3.0973
 5198.8212    5198.8212      65.4830     669.1246     700.7488     732.1273     765.9997       3.1300
 5198.6688    5198.6688      65.5783     668.5020     698.6264     736.0000     765.5017       3.1628
 5198.5164    5198.5164      65.5005     670.6257     700.1285     736.0000     767.2510       3.1956
 5198.3640    5198.3640      65.5332     671.1265     702.7462     736.0002     767.9968       3.2284
 5198.2116    5198.2116      65.8680     672.0000     700.5067     736.1224     766.1289       3.2613
 5198.0592    5198.0592      66.4898     672.0030     703.7567     734.8890     767.9997       3.2946
 5197.9068    5197.9068      67.2202     673.2591     706.4962     740.6309     767.8939       3.3282
 5197.7544    5197.7544      67.8399     676.4945     705.1412     742.7508     774.6294       3.3621
 5197.6020    5197.6020      68.2551     674.7685     710.2425     743.0053     775.9996       3.3963
 5197.4496    5197.4496      68.4682     679.9869     708.1303     744.4963     775.8753       3.4303
 5197.2972    5197.2972      68.4441     683.9915     711.9917     744.0011     777.9955       3.4645
 5197.1448    5197.1448      67.9562     680.0071     715.6186     749.9894     776.0035       3.4985
 5196.9924    5196.9924      66.6690     687.9888     719.7442     757.8640     787.9833       3.5319
 5196.8400    5196.8400      64.6731     680.0082     719.9997     746.6365     784.0041       3.5642
 5196.6876    5196.6876      62.6747     687.9947     712.0053     751.8716     784.0000       3.5956
 5196.5352    5196.5352      61.5934     672.0000     712.1250     745.3750     776.0000       3.6264
