~VERSION INFORMATION
VERS.           2.0   :CWLS Log ASCII Standard - VERSION 2.0
WRAP.           YES   :Multiple lines per depth step
PROD.  Schlumberger   :LAS Producer
PROG.  DLIS to ASCII 2.3                               :LAS Program name and version
CREA.        2023/07/14 00:15                          :LAS Creation date {YYYY/MM/DD hh:mm}
DLIS_CREA.  2023-Jul-14 00:11                          :DLIS Creation date and time {YYYY-MMM-DD hh:mm}
SOURCE.     LIS_012.dlis                               :DLIS File Name
FILE-ID.     LIS   .001                                :File Identification Number
#--------------------------------------------------
~WELL INFORMATION
#MNEM.UNIT      DATA             DESCRIPTION
#---- ------ --------------   -----------------------------
STRT .M      5265.1152       :START DEPTH     
STOP .M      5185.4100       :STOP DEPTH     
STEP .M        -0.1524       :STEP     
NULL .          -999.25      :NULL VALUE
COMP .        PETROBRAS S.A.                           :COMPANY
WELL .        3-BRSA-293D-SPS                          :WELL
FLD  .        BS-400                                   :FIELD
LOC  .        BASE SAD 69:                             :LOCATION
CNTY .        SANTOS                                   :COUNTY
STAT .        BRASIL                                   :STATE
CTRY .        BRASIL                                   :COUNTRY
API  .                                                 :API NUMBER
UWI  .                                                 :UNIQUE WELL ID
DATE .        15/11/2004                               :LOG DATE
SRVC .        Schlumberger                             :SERVICE COMPANY
LATI .DEG                                              :LATITUDE
LONG .DEG                                              :LONGITUDE
GDAT .                                                 :GeoDetic Datum
#-----------------------------------------------------------------------------
~PARAMETER INFORMATION
#MNEM.UNIT    VALUE                      DESCRIPTION
#---- -----   --------------------       ------------------------
APD  .M               24                 :
BHT  .DEGF           260                 :
BLI  .M             5289                 :
BS   .IN         8.50000                 :
CN   .        PETROBRAS S.A.             :
COUN .        SANTOS                     :
CS   .IN         9.62500                 :
DATE .        15/11/2004                 :
DFD  .LB/G      12.30000                 :
DFL  .C3               2                 :
DFPH .        N/A                        :
DFT  .        SINTETICO                  :
DFV  .S               95                 :
DMF  .        MESA ROTATIVA              :
EDF  .M               24                 :
EGL  .M             -500                 :
EKB  .        N/A                        :
ENGI .        HERNANDEZ / LOCK           :
FL1  .        X   7292392.00 M LAT 24 28 47.189 S :
FL2  .        Y    584087.00 M LON 44 10 12.698 W :
FL3  .        MC  45 GRAUS               :
FN   .        BS-400                     :
LMF  .        MESA ROTATIVA              :
LUL  .        MACAE                      :
MCSS .        PRENSA                     :
MCST .DEGF            80                 :
MFSS .        PRENSA                     :
MFST .DEGF            80                 :
MSS  .        LINHA DE FLUXO             :
MST  .DEGF            80                 :
PDAT .        NIVEL DO MAR               :
R1   .        01. APRESENTAÇÃO DE ACORDO COM REQUERIMENTO DO CLIENTE :
R2   .        02. TEMPERATURA MÁXIMA DO POÇO T1=T2= 292 DEGF @  5277 M :
R3   .        03. INICIO DA CIRCULAÇÃO  12/11/2004 09 00 H :
R4   .        04. FINAL DA CIRCULAÇÃO   12/11/2004 18 00 H :
R5   .        05. TEMPO TOTAL DE CIRCULAÇÃO   09 00 H :
R6   .        06. FLUIDO DE PERFURAÇÃO  SINTETICO (BR-MUL  BR-MI)  60% TEOR DO OLEO :
R7   .        07. SALINIDADE DA LAMA  254762 PPM NACL NA FASE DE AGUA :
R8   .        08. INCLINAÇÃO MÁXIMA DO POÇO  37.37 GRAUS @ 5100 M :
R9   .        09. PRIMEIRAS E ULTIMAS LEITURAS  :
RMB  .OHMM    > 10                       :
RMCS .OHMM    > 10                       :
RMFS .OHMM    > 10                       :
RMS  .OHMM    >10                        :
RUN  .                 2                 :
STAT .        BRASIL                     :
TCS  .        18 00 H                    :
TDD  .M             5288                 :
TDL  .M             5293                 :
TLAB .        N/A                        :
TLI  .M             4277                 :
WITN .        ERNANI / ZE MARIA          :
WN   .        3-BRSA-293D-SPS            :
LUN  .              8808                 :
HIDE .        3-SPS-41D                  :
HID2 .        COMPENSATED Z-DENSILOG     :
HID3 .        COMPENSATED NEUTRON LOG    :
HID4 .        GAMMA RAY LOG              :
HID5 .        TTRM SUB                   :
CLAB .        BACIA                      :
SLAB .        PAIS                       :
CMT1 .        ESC  1 1000                :
CMT2 .        PROF. MEDIDA               :
CMT4 .        SONDA  SS-43               :
HDAT .        SAD 69                     :
FL   .        BASE SAD 69                :
OS1  .        RCI/GR                     :
OS2  .        CHECK SHOT                 :
OS3  .        GR/XMAC/HDIL               :
OS5  .        RCOR/GR                    :
LNAM .        ZDL/CN/XMAC/HDIL/EARTH IMAGER/RCI/RCOR/CHECK SHOT/GR :
TOOL .        ZDL/CN/XMAC/HDIL/EARTH IMAGER/RCI/RCOR/CHECK SHOT/GR :
LSOU .        PETROBRAS                  :
LSRV .        OH WIRELINE                :
LTYP .        RAW                        :
EPD  .M                0                 :
LDAT .        15/11/2004                 :
TRIP .                 4                 :
SON  .            786588                 :
CBDR .M             4277                 :
CBLO .        NR                         :
CBL1 .        NR                         :
STEM .DEGF    N/A                        :
BSAL .            254762                 :
BARI .        OFF                        :
DLAB .        12/11/2004                 :
MRT  .DEGF           292                 :
TSTR .        ZDL/CN/GR/TTRM             :
TSTG .        N/A                        :
STUS .        FINAL                      :
LCNM .        BAKER ATLAS                :
LCC  .               150                 :
NATI .        BRASIL                     :
OPMD .        OH.WIRELINE                :
PANA .        HERNANDEZ / LOCK           :
PCON .        BAKER ATLAS                :
R11  .        GR     5268.3 M / 4277.0 M :
R12  .        CN     5286.5 M / 5128.0 M (FERRAMENTA PERDEU LEITURA ACIMA DE 5128M) :
R13  .        ZDL    5292.0 M / 4277.0 M :
R15  .        10. PONTO FRACO UTILIZADO  10K :
R17  .        12. COORDENADAS BASE       :
R19  .        X   7292512.00 M           :
R21  .        MC  45 GRAUS               :
R23  .        13. CADASTRO ANP  86316021017 :
PVER .           4.10000                 :
WDFN .        /space/expusr/3-SPS-41D_RUN2/i77bf03_8spf.xtf :
OCT  .        i77bf                      :
OS4  .        EARTH IMAGER               :
R16  .        11. DECLINAÇÃO MAGNETICA  -20.9 GRAUS :
R20  .        Y    583936.00 M           :
#-----------------------------------------------------------------------------
~CURVE INFORMATION
#MNEM.UNIT   API CODE                                  DESCRIPTION
#---- -----  --------                                  -----------------------
DEPT .M                                                :DEPTH (BOREHOLE) {F10.4}
DEPT .M                                                : {F13.4}
BIT  .IN                                               : {F13.4}
DEPM .M                                                : {F13.4}
GR   .GAPI                                             : {F13.4}
SPD  .M/MN                                             : {F13.4}
TTEN .LBF                                              : {F13.4}
CAL  .IN                                               : {F13.4}
CALX .IN                                               : {F13.4}
HRD1 .HZ                                               : {F13.4}
HRD2 .HZ                                               : {F13.4}
PE   .B/E                                              : {F13.4}
SFT2 .HZ                                               : {F13.4}
SOFT .HZ                                               : {F13.4}
SSD  .HZ                                               : {F13.4}
ZCOR .G/C3                                             : {F13.4}
ZDEN .G/C3                                             : {F13.4}
CNC  .PU                                               : {F13.4}
CN   .PU                                               : {F13.4}
LSN  .HZ                                               : {F13.4}
SSN  .HZ                                               : {F13.4}
CNCF .PU                                               : {F13.4}
MMRK .MN                                               : {F13.4}
#-----------------------------------------------------------------------------
# DEPT       
#     DEPT         BIT          DEPM         GR           SPD          TTEN         
#     CAL          CALX         HRD1         HRD2         PE           SFT2         
#     SOFT         SSD          ZCOR         ZDEN         CNC          CN           
#     LSN          SSN          CNCF         MMRK         
~A  
# ...
5222.4432
   5222.4432       8.5000    5222.1493      86.2872       6.0397    7376.3459
      9.0680       9.0739     655.7242     850.9545       4.6925     531.6630
    395.6530    6794.3200      -0.0438       2.5483      14.1798      14.5297
   1856.1106    3991.1431      14.1798       0.0000
5222.2908
   5222.2908       8.5000    5221.9969      80.9642       6.1257    7369.2588
      9.0562       9.0600     760.0153     962.4777       4.1118     633.3006
    485.4769    7176.8367      -0.0259       2.4941      17.2735      17.6097
   1867.3981    4377.9606      17.2735       0.0000
5222.1384
   5222.1384       8.5000    5221.8445      74.2407       6.1444    7321.8941
      9.0547       9.0551     787.6815     995.3461       4.4021     648.6983
    477.4668    7289.7847      -0.0122       2.4808      11.6828      13.0872
   2656.7553    4991.1327      11.6828       0.0000
5221.9860
   5221.9860       8.5000    5221.6930      69.5821       6.1492    7284.2754
      9.0538       9.0545     788.9835    1011.7483       4.4496     649.9498
    483.4776    7319.3442      -0.0117       2.4782       7.0804       7.6300
   3407.1201    5340.7422       7.0804       0.0000
5221.8336
   5221.8336       8.5000    5221.5406      67.0215       6.1030    7276.7248
      9.0540       9.0532     793.5162    1039.6092       4.4368     669.6748
    498.2958    7304.0530      -0.0142       2.4748       6.5027       6.8318
   3476.1225    5337.0954       6.5027       0.0000
5221.6812
   5221.6812       8.5000    5221.3882      64.5349       6.1137    7289.8605
      9.0577       9.0560     809.5150    1056.0011       4.4441     684.0972
    501.1677    7257.2046      -0.0285       2.4736       6.7101       6.9986
   3426.9631    5327.8392       6.7101       0.0000
5221.5288
   5221.5288       8.5000    5221.2358      62.3875       6.0991    7306.1559
      9.0602       9.0590     792.3410    1016.3041       4.1550     674.6810
    508.5980    7310.0108      -0.0125       2.4855       6.9732       7.3156
   3365.0736    5304.6750       6.9732       0.0000
5221.3764
   5221.3764       8.5000    5221.0834      61.1202       6.1150    7315.1229
      9.0597       9.0605     810.4860    1002.8859       3.9758     679.7884
    509.2963    7257.7297      -0.0184       2.4895       6.9575       7.2618
   3382.5690    5312.2141       6.9575       0.0000
5221.2240
   5221.2240       8.5000    5220.9310      60.2171       6.1075    7324.4179
      9.0572       9.0578     772.8025     912.6597       3.5580     621.3950
    499.9858    7264.9111       0.0021       2.5190       6.9848       7.3719
   3479.5312    5444.8908       6.9848       0.0000
5221.0716
   5221.0716       8.5000    5220.7786      59.9483       6.0873    7332.2983
      9.0612       9.0587     729.9795     872.5376       3.9291     574.7421
    445.5789    7113.7699      -0.0003       2.5422       6.9690       7.2425
   3539.2150    5570.8519       6.9690       0.0000
5220.9192
   5220.9192       8.5000    5220.6262      60.9600       6.1271    7316.4380
      9.0618       9.0626     732.7719     907.5002       3.9182     599.9960
    464.8928    7189.8745      -0.0068       2.5333       7.2926       7.6567
   3509.4348    5614.6516       7.2926       0.0000
5220.7668
   5220.7668       8.5000    5220.4738      61.7784       6.1321    7274.7929
      9.0576       9.0593     783.8886     949.7657       3.8074     654.3073
    503.5532    7314.2353      -0.0035       2.5093       7.2010       7.5405
   3521.7102    5621.2978       7.2010       0.0000
5220.6144
   5220.6144       8.5000    5220.3214      61.3457       6.1351    7234.8283
      9.0582       9.0577     789.9393     985.1357       3.7929     662.8507
    510.0946    7354.4687      -0.0015       2.4985       6.7478       7.1872
   3547.8686    5527.9269       6.7478       0.0000
5220.4620
   5220.4620       8.5000    5220.1690      60.4210       6.1016    7206.1077
      9.0575       9.0583     798.3529     979.7281       3.7470     654.2865
    517.2465    7242.0197      -0.0125       2.4942       6.2112       6.5038
   3492.1436    5317.1486       6.2112       0.0000
5220.3096
   5220.3096       8.5000    5220.0166      61.2486       6.0880    7191.4502
      9.0571       9.0564     818.2067     998.9238       3.7039     648.4003
    545.2498    7218.5068      -0.0263       2.4853       7.3029       7.5061
   3171.8804    5130.6055       7.3029       0.0000
5220.1572
   5220.1572       8.5000    5219.8643      64.2129       5.9972    7203.2578
      9.0603       9.0593     804.5022     971.4081       3.7338     660.7089
    506.7949    7249.2354      -0.0151       2.4914       7.7955       8.1442
   3078.5664    5062.2656       7.7955       0.0000
5220.0048
   5220.0048       8.5000    5219.7109      66.6562       6.0023    7238.7688
      9.0598       9.0603     784.0896     978.0902       3.7684     674.0838
    517.2451    7212.3865      -0.0162       2.4943       7.8284       8.2136
   3128.5264    5129.4589       7.8284       0.0000
5219.8524
   5219.8524       8.5000    5219.5585      65.9429       6.0136    7281.5606
      9.0562       9.0573     763.9416     937.8548       3.8502     640.2916
    490.4518    7109.1063      -0.0180       2.5081       7.1947       7.6240
   3334.0378    5268.6157       7.1947       0.0000
5219.7000
   5219.7000       8.5000    5219.4061      63.2241       6.0209    7309.1636
      9.0685       9.0608     735.1774     924.7467       4.3124     594.3958
    446.5836    7104.9940      -0.0169       2.5200       7.0918       7.3871
   3402.1663    5389.1895       7.0918       0.0000
5219.5476
   5219.5476       8.5000    5219.2537      61.4203       6.0684    7300.3097
      9.0713       9.0727     774.8373     942.9592       3.5467     623.8644
    514.0928    7136.8871      -0.0224       2.5083       7.1929       7.5832
   3406.9552    5424.3087       7.1929       0.0000
5219.3952
   5219.3952       8.5000    5219.1022      61.4237       6.1107    7261.9912
      9.0720       9.0700     828.8371     912.3716       2.6394     633.9917
    577.1250    7273.4908      -0.0117       2.5034       7.0466       7.3728
   3392.0233    5381.4258       7.0466       0.0000
5219.2428
   5219.2428       8.5000    5218.9498      62.3127       6.0918    7232.4873
      9.0716       9.0736     808.8378     908.8982       2.4109     653.6108
    601.8295    7288.1960       0.0012       2.5086       7.0944       7.4429
   3329.2249    5293.9628       7.0944       0.0000
5219.0904
   5219.0904       8.5000    5218.7974      62.2617       6.0534    7230.4238
      9.0643       9.0679     793.9589     951.4237       2.6085     668.5202
    602.5960    7222.0812      -0.0135       2.5032       7.1701       7.4979
   3284.7307    5234.7466       7.1701       0.0000
5218.9380
   5218.9380       8.5000    5218.6450      60.9772       6.0501    7250.4471
      9.0596       9.0612     782.9549     986.7027       2.9338     685.4989
    591.6628    7320.6087      -0.0092       2.4972       7.8864       8.1178
   3143.0029    5220.9809       7.8864       0.0000
5218.7856
   5218.7856       8.5000    5218.4926      59.6943       6.0054    7282.5077
      9.0633       9.0605     797.6045     986.2465       3.3320     667.4358
    552.0599    7326.7827      -0.0040       2.4951       8.3808       8.7694
   3044.4144    5169.9271       8.3808       0.0000
5218.6332
   5218.6332       8.5000    5218.3402      59.4749       6.0152    7311.3229
      9.0656       9.0655     793.8357     976.7185       3.3789     670.7280
    544.2396    7247.4711      -0.0131       2.4973       8.7196       9.0148
   2915.9320    5061.3766       8.7196       0.3416
5218.4808
   5218.4808       8.5000    5218.1878      60.9884       6.0338    7313.1730
      9.0651       9.0648     774.6477     991.8185       3.4134     685.6650
    547.2581    7196.5538      -0.0192       2.4991       9.1954       9.6012
   2795.7423    4941.2319       9.1954       0.0013
5218.3284
   5218.3284       8.5000    5218.0354      64.2022       6.0562    7291.3918
      9.0658       9.0662     767.5086     962.9204       3.3712     651.1094
    543.3608    7241.2826      -0.0112       2.5075       8.5828       9.0434
   2882.2796    4912.9462       8.5828       0.0000
