~VERSION INFORMATION
VERS.           2.0   :CWLS Log ASCII Standard - VERSION 2.0
WRAP.           NO    :One Line per depth step
PROD.  Schlumberger   :LAS Producer
PROG.  DLIS to ASCII 2.3                               :LAS Program name and version
CREA.        2023/07/14 00:15                          :LAS Creation date {YYYY/MM/DD hh:mm}
DLIS_CREA.  2023-Jul-14 00:11                          :DLIS Creation date and time {YYYY-MMM-DD hh:mm}
SOURCE.     LIS_010.dlis                               :DLIS File Name
FILE-ID.     LIS   .003                                :File Identification Number
#--------------------------------------------------
~WELL INFORMATION
#MNEM.UNIT      DATA             DESCRIPTION
#---- ------ --------------   -----------------------------
STRT .M      5284.9272       :START DEPTH     
STOP .M      4939.1316       :STOP DEPTH     
STEP .M        -0.1524       :STEP     
NULL .          -999.25      :NULL VALUE
COMP .        PETROBRAS S.A.                           :COMPANY
WELL .        3-BRSA-293D-SPS                          :WELL
FLD  .        BS-400                                   :FIELD
LOC  .        BASE SAD 69:                             :LOCATION
CNTY .        SANTOS                                   :COUNTY
STAT .        BRASIL                                   :STATE
CTRY .        BRASIL                                   :COUNTRY
API  .                                                 :API NUMBER
UWI  .                                                 :UNIQUE WELL ID
DATE .        15/11/2004                               :LOG DATE
SRVC .        Schlumberger                             :SERVICE COMPANY
LATI .DEG                                              :LATITUDE
LONG .DEG                                              :LONGITUDE
GDAT .                                                 :GeoDetic Datum
#-----------------------------------------------------------------------------
~PARAMETER INFORMATION
#MNEM.UNIT    VALUE                      DESCRIPTION
#---- -----   --------------------       ------------------------
APD  .M               24                 :
BHT  .DEGF           260                 :
BLI  .M             5289                 :
BS   .IN         8.50000                 :
CN   .        PETROBRAS S.A.             :
COUN .        SANTOS                     :
CS   .IN         9.62500                 :
DATE .        15/11/2004                 :
DFD  .LB/G      12.30000                 :
DFL  .C3               2                 :
DFPH .        N/A                        :
DFT  .        SINTETICO                  :
DFV  .S               95                 :
DMF  .        MESA ROTATIVA              :
EDF  .M               24                 :
EGL  .M             -500                 :
EKB  .        N/A                        :
ENGI .        HERNANDEZ / LOCK           :
FL1  .        X   7292392.00 M LAT 24 28 47.189 S :
FL2  .        Y    584087.00 M LON 44 10 12.698 W :
FL3  .        MC  45 GRAUS               :
FN   .        BS-400                     :
LMF  .        MESA ROTATIVA              :
LUL  .        MACAE                      :
MCSS .        PRENSA                     :
MCST .DEGF            80                 :
MFSS .        PRENSA                     :
MFST .DEGF            80                 :
MSS  .        LINHA DE FLUXO             :
MST  .DEGF            80                 :
PDAT .        NIVEL DO MAR               :
R1   .        01. APRESENTAÇÃO DE ACORDO COM REQUERIMENTO DO CLIENTE :
R2   .        02. TEMPERATURA MÁXIMA DO POÇO T1=T2= 290 DEGF @  5275 M :
R3   .        03. INICIO DA CIRCULAÇÃO  12/11/2004 09 00 H :
R4   .        04. FINAL DA CIRCULAÇÃO   12/11/2004 18 00 H :
R5   .        05. TEMPO TOTAL DE CIRCULAÇÃO   09 00 H :
R6   .        06. FLUIDO DE PERFURAÇÃO  SINTETICO (BR-MUL  BR-MI)  60% TEOR DO OLEO :
R7   .        07. SALINIDADE DA LAMA  254762 PPM NACL NA FASE DE AGUA :
R8   .        08. INCLINAÇÃO MÁXIMA DO POÇO  37.37 GRAUS @ 5100 M :
R9   .        09. PRIMEIRAS E ULTIMAS LEITURAS  :
RMB  .OHMM    > 10                       :
RMCS .OHMM    > 10                       :
RMFS .OHMM    > 10                       :
RMS  .OHMM    >10                        :
RUN  .                 2                 :
STAT .        BRASIL                     :
TCS  .        18 00 H                    :
TDD  .M             5288                 :
TDL  .M             5293                 :
TLAB .        N/A                        :
TLI  .M             5000                 :
WITN .        ERNANI / ZE MARIA          :
WN   .        3-BRSA-293D-SPS            :
LUN  .              8808                 :
HIDE .        3-SPS-41D                  :
HID2 .        HIGH DEFINITION INDUCTION LOG :
HID3 .        X-MULTIPOLE ARRAY ACOUSTILOG :
HID4 .        GAMMA RAY LOG              :
HID5 .        TTRM SUB                   :
CLAB .        BACIA                      :
SLAB .        PAIS                       :
CMT1 .        ESC  1 200                 :
CMT2 .        PROF. MEDIDA               :
CMT4 .        SONDA  SS-43               :
HDAT .        SAD 69                     :
FL   .        BASE SAD 69                :
OS1  .        RCI/GR                     :
OS2  .        CHECK SHOT                 :
OS3  .        GR/CN/ZDL                  :
OS5  .        RCOR/GR                    :
LNAM .        ZDL/CN/XMAC/HDIL/EARTH IMAGER/RCI/RCOR/CHECK SHOT/GR :
TOOL .        ZDL/CN/XMAC/HDIL/EARTH IMAGER/RCI/RCOR/CHECK SHOT/GR :
LSOU .        PETROBRAS                  :
LSRV .        OH WIRELINE                :
LTYP .        RAW                        :
EPD  .M                0                 :
LDAT .        15/11/2004                 :
TRIP .                 3                 :
SON  .            786588                 :
CBDR .M             4277                 :
CBLO .        NR                         :
CBL1 .        NR                         :
STEM .DEGF    N/A                        :
BSAL .            254762                 :
BARI .        OFF                        :
DLAB .        12/11/2004                 :
MRT  .DEGF           290                 :
TSTR .        HDIL/XMAC/GR/TTRM          :
TSTG .        N/A                        :
STUS .        FINAL                      :
LCNM .        BAKER ATLAS                :
LCC  .               150                 :
NATI .        BRASIL                     :
OPMD .        OH.WIRELINE                :
PANA .        HERNANDEZ / LOCK           :
PCON .        BAKER ATLAS                :
R11  .        SL     5268.3 M / 5000.0 M :
R12  .        GR     5268.3 M / 5000.0 M :
R13  .        XMAC   5279.5 M / 5000.0 M :
R14  .        HDIL   5289.0 M / 5000.0 M :
R17  .        11. DECLINAÇÃO MAGNETICA  -20.9 GRAUS :
R18  .        12. COORDENADAS BASE       :
R21  .        Y    583936.00 M           :
R22  .        MC  45 GRAUS               :
PVER .           4.10000                 :
WDFN .        /space/expusr/3-SPS-41D_RUN2/i77bf02_2spf.xtf :
OCT  .        i77bf                      :
OS4  .        EARTH IMAGER               :
R16  .        10. PONTO FRACO UTILIZADO  10K :
R20  .        X   7292512.00 M           :
R24  .        13. CADASTRO ANP  86316021017 :
#-----------------------------------------------------------------------------
~CURVE INFORMATION
#MNEM.UNIT   API CODE                                  DESCRIPTION
#---- -----  --------                                  -----------------------
DEPT .M                                                :DEPTH (BOREHOLE) {F10.4}
DEPT .M                                                : {F13.4}
DT   .US/F                                             : {F13.4}
SFN1 .US                                               : {F13.4}
SFN2 .US                                               : {F13.4}
SFN3 .US                                               : {F13.4}
SFN4 .US                                               : {F13.4}
TT   .MS                                               : {F13.4}
#-----------------------------------------------------------------------------
# 
#     DEPT        DEPT         DT           SFN1         SFN2         SFN3         SFN4         TT
#
~A  
# ...
 5056.1748    5056.1748      66.0427     690.6250     722.0000     760.0000     793.0000      50.0121
 5056.0224    5056.0224      66.3473     691.8750     723.2503     760.0000     792.7502      50.0453
 5055.8700    5055.8700      67.2587     691.8751     723.9991     760.1249     793.2510      50.0790
 5055.7176    5055.7176      68.3532     692.0007     722.8776     760.0000     794.4997      50.1132
 5055.5652    5055.5652      69.2536     692.6248     725.1258     760.0011     794.2519      50.1478
 5055.4128    5055.4128      69.8337     692.4960     725.6236     760.7486     795.4974      50.1827
 5055.2604    5055.2604      70.1845     690.3838     724.8781     760.0031     794.1307      50.2176
 5055.1080    5055.1080      70.4183     690.1259     723.6297     760.3736     794.4986      50.2528
 5054.9556    5054.9556      70.5707     691.2461     723.2513     760.3750     795.1229      50.2881
 5054.8032    5054.8032      70.6450     689.7546     723.8731     760.0011     793.7542      50.3235
 5054.6508    5054.6508      70.5574     693.2406     720.5091     760.0000     792.0047      50.3588
 5054.4984    5054.4984      70.0196     695.1207     724.2413     758.8776     792.0000      50.3938
 5054.3460    5054.3460      68.6044     694.8755     725.9966     759.9978     791.7505      50.4281
 5054.1936    5054.1936      66.2437     692.7534     725.7504     760.8736     791.9996      50.4612
 5054.0412    5054.0412      63.5721     688.0057     720.0070     757.5041     791.1261      50.4930
 5053.8888    5053.8888      61.6736     682.0050     712.0067     752.0046     788.1275      50.5239
 5053.7364    5053.7364      61.4143     671.3800     701.8798     738.8812     772.2575      50.5546
 5053.5840    5053.5840      62.8022     678.6250     708.0000     572.8750     782.6250      50.5860
 5053.4316    5053.4316      65.0697     680.0000     712.0000     542.6250     784.0000      50.6185
 5053.2792    5053.2792      67.3516     680.1259     712.6271     386.0112     784.0006      50.6522
 5053.1268    5053.1268      69.1548     681.5003     716.0023     600.0000     784.8815      50.6868
 5052.9744    5052.9744      70.3424     681.7503     718.2509     600.2098     791.4497      50.7220
 5052.8220    5052.8220      71.0160     682.0095     718.8750     752.6248     845.6584      50.7575
 5052.6696    5052.6696      71.3366     687.4765     718.8750     752.5005     793.1008      50.7930
 5052.5172    5052.5172      71.3829     686.2549     718.1279     812.2643     795.7387      50.8287
 5052.3648    5052.3648      71.1957     687.3710     721.3634     757.4466     796.2482      50.8643
 5052.2124    5052.2124      70.7701     687.4996     721.1258     763.6047     802.7293      50.8997
 5052.0600    5052.0600      70.1080     687.9986     720.5018     759.6363     700.6638      50.9348
 5051.9076    5051.9076      69.3852     685.3814     719.8765     759.2509     794.6434      50.9695
 5051.7552    5051.7552      68.8502     680.6349     719.9997     758.1273     794.2513      51.0039
 5051.6028    5051.6028      68.5798     680.0011     713.8855     754.8806     792.0039      51.0382
 5051.4504    5051.4504      68.4674     683.9946     711.0039     752.0039     789.0040      51.0725
 5051.2980    5051.2980      68.3157     685.9981     715.1210     748.1288     785.1288      51.1066
 5051.1456    5051.1456      68.0076     688.6234     717.1238     751.9977     782.2517      51.1406
 5050.9932    5050.9932      67.6520     696.7500     720.5000     753.7500     784.1250      51.1745
 5050.8408    5050.8408      67.4600     697.5000     728.0000     759.3750     784.5000      51.2082
 5050.6884    5050.6884      67.5880     697.7496     728.3751     764.5018     790.8788      51.2420
 5050.5360    5050.5360      68.0301     696.8742     728.5015     768.0000     798.5013      51.2761
 5050.3836    5050.3836      68.5291     696.0000     730.2472     768.0000     800.0000      51.3103
 5050.2312    5050.2312      68.7345     696.0000     728.0000     767.9998     800.0000      51.3447
 5050.0788    5050.0788      68.5379     696.0000     728.0000     767.8756     800.0000      51.3788
 5049.9264    5049.9264      68.2153     696.0000     728.0000     767.6260     799.7510      51.4129
 5049.7740    5049.7740      68.2120     696.0000     728.0000     762.5189     799.5009      51.4470
 5049.6216    5049.6216      68.6956     696.0000     727.8754     762.0017     795.5133      51.4814
 5049.4692    5049.4692      69.3853     696.2493     728.8720     767.4838     798.9897      51.5161
 5049.3168    5049.3168      69.8637     701.1124     732.7400     767.9987     800.3714      51.5510
 5049.1644    5049.1644      69.9853     703.8689     734.4961     768.0000     801.8717      51.5860
 5049.0120    5049.0120      69.9950     701.7539     734.2505     769.8715     800.6273      51.6210
 5048.8596    5048.8596      70.1810     703.9967     735.9974     774.2435     806.6161      51.6561
 5048.7072    5048.7072      70.4206     704.0000     736.0000     774.7494     807.9985      51.6914
 5048.5548    5048.5548      70.2954     704.4996     737.3740     775.9991     808.0000      51.7265
 5048.4024    5048.4023      69.6264     707.8750     738.7500     776.6250     809.2500      51.7614
 5048.2500    5048.2500      68.7437     711.6250     742.8750     778.5000     813.5000      51.7957
 5048.0976    5048.0977      68.2883     705.8750     737.1250     776.0000     808.0000      51.8299
 5047.9452    5047.9452      68.7125     708.3774     740.3773     776.0022     808.0030      51.8643
 5047.7928    5047.7928      69.8660     711.6253     743.5003     779.0030     812.0018      51.8992
 5047.6404    5047.6404      71.1811     711.8748     743.7504     781.7533     813.6294      51.9348
 5047.4880    5047.4880      72.1542     711.7532     744.0048     784.0005     816.6284      51.9709
 5047.3356    5047.3356      72.4982     713.4927     746.6141     784.2490     818.4922      52.0069
 5047.1832    5047.1832      72.2083     719.7261     747.7457     784.8726     820.9904      52.0431
 5047.0308    5047.0308      71.5248     719.9991     751.9853     787.7401     821.3737      52.0788
 5046.8784    5046.8784      70.7139     720.0000     754.1184     791.4884     821.6242      52.1142
 5046.7260    5046.7260      70.0044     717.6315     751.7565     791.9986     823.9935      52.1492
 5046.5736    5046.5736      69.5525     716.1285     751.5006     788.8823     824.0000      52.1840
 5046.4212    5046.4212      69.3279     719.9923     751.2505     790.7463     824.6238      52.2187
 5046.2688    5046.2688      69.2114     720.4992     753.8708     786.7564     822.0042      52.2533
 5046.1164    5046.1164      69.1415     715.8807     752.0023     789.7463     823.1236      52.2879
 5045.9640    5045.9640      69.1069     717.6235     751.0009     791.9980     824.2490      52.3224
 5045.8116    5045.8116      69.1589     719.4991     751.1249     789.0015     824.6248      52.3570
 5045.6592    5045.6592      69.4738     718.8750     752.3750     791.7500     824.1250      52.3918
 5045.5068    5045.5068      70.2130     723.3750     752.0000     791.3750     824.0000      52.4269
 5045.3544    5045.3544      71.2893     726.1251     756.7516     791.6264     825.2492      52.4626
 5045.2020    5045.2020      72.2874     726.2463     759.3749     794.0043     824.0068      52.4987
 5045.0496    5045.0496      72.6358     722.5040     759.2490     798.3750     831.0013      52.5351
 5044.8972    5044.8972      72.0714     725.4943     758.4996     798.3686     832.0000      52.5711
 5044.7448    5044.7448      70.9341     722.1395     758.2511     794.6411     832.0000      52.6064
 5044.5924    5044.5924      69.8309     720.0084     755.0129     793.7535     829.7589      52.6413
 5044.4400    5044.4400      69.1976     720.0000     752.1353     792.3799     829.6254      52.6759
 5044.2876    5044.2876      69.0641     720.0000     752.0004     792.0012     827.2576      52.7104
