~VERSION INFORMATION
VERS.           2.0   :CWLS Log ASCII Standard - VERSION 2.0
WRAP.           NO    :One Line per depth step
PROD.  Schlumberger   :LAS Producer
PROG.  DLIS to ASCII 2.3                               :LAS Program name and version
CREA.        2023/07/14 00:15                          :LAS Creation date {YYYY/MM/DD hh:mm}
DLIS_CREA.  2023-Jul-14 00:11                          :DLIS Creation date and time {YYYY-MMM-DD hh:mm}
SOURCE.     LIS_008.dlis                               :DLIS File Name
FILE-ID.     LIS   .001                                :File Identification Number
#--------------------------------------------------
~WELL INFORMATION
#MNEM.UNIT      DATA             DESCRIPTION
#---- ------ --------------   -----------------------------
STRT .M      5286.4512       :START DEPTH     
STOP .M      5066.6904       :STOP DEPTH     
STEP .M        -0.1524       :STEP     
NULL .          -999.25      :NULL VALUE
COMP .        PETROBRAS S.A.                           :COMPANY
WELL .        3-BRSA-293D-SPS                          :WELL
FLD  .        BS-400                                   :FIELD
LOC  .        BASE SAD 69:                             :LOCATION
CNTY .        SANTOS                                   :COUNTY
STAT .        BRASIL                                   :STATE
CTRY .        BRASIL                                   :COUNTRY
API  .                                                 :API NUMBER
UWI  .                                                 :UNIQUE WELL ID
DATE .        15/11/2004                               :LOG DATE
SRVC .        Schlumberger                             :SERVICE COMPANY
LATI .DEG                                              :LATITUDE
LONG .DEG                                              :LONGITUDE
GDAT .                                                 :GeoDetic Datum
#-----------------------------------------------------------------------------
~PARAMETER INFORMATION
#MNEM.UNIT    VALUE                      DESCRIPTION
#---- -----   --------------------       ------------------------
APD  .M               24                 :
BHT  .DEGF           260                 :
BLI  .M             5289                 :
BS   .IN         8.50000                 :
CN   .        PETROBRAS S.A.             :
COUN .        SANTOS                     :
CS   .IN         9.62500                 :
DATE .        15/11/2004                 :
DFD  .LB/G      12.30000                 :
DFL  .C3               2                 :
DFPH .        N/A                        :
DFT  .        SINTETICO                  :
DFV  .S               95                 :
DMF  .        MESA ROTATIVA              :
EDF  .M               24                 :
EGL  .M             -500                 :
EKB  .        N/A                        :
ENGI .        HERNANDEZ / LOCK           :
FL1  .        X   7292392.00 M LAT 24 28 47.189 S :
FL2  .        Y    584087.00 M LON 44 10 12.698 W :
FL3  .        MC  45 GRAUS               :
FN   .        BS-400                     :
LMF  .        MESA ROTATIVA              :
LUL  .        MACAE                      :
MCSS .        PRENSA                     :
MCST .DEGF            80                 :
MFSS .        PRENSA                     :
MFST .DEGF            80                 :
MSS  .        LINHA DE FLUXO             :
MST  .DEGF            80                 :
PDAT .        NIVEL DO MAR               :
R1   .        01. APRESENTAÇÃO DE ACORDO COM REQUERIMENTO DO CLIENTE :
R2   .        02. TEMPERATURA MÁXIMA DO POÇO T1=T2= 290 DEGF @  5275 M :
R3   .        03. INICIO DA CIRCULAÇÃO  12/11/2004 09 00 H :
R4   .        04. FINAL DA CIRCULAÇÃO   12/11/2004 18 00 H :
R5   .        05. TEMPO TOTAL DE CIRCULAÇÃO   09 00 H :
R6   .        06. FLUIDO DE PERFURAÇÃO  SINTETICO (BR-MUL  BR-MI)  60% TEOR DO OLEO :
R7   .        07. SALINIDADE DA LAMA  254762 PPM NACL NA FASE DE AGUA :
R8   .        08. INCLINAÇÃO MÁXIMA DO POÇO  37.37 GRAUS @ 5100 M :
R9   .        09. PRIMEIRAS E ULTIMAS LEITURAS  :
RMB  .OHMM    > 10                       :
RMCS .OHMM    > 10                       :
RMFS .OHMM    > 10                       :
RMS  .OHMM    >10                        :
RUN  .                 2                 :
STAT .        BRASIL                     :
TCS  .        18 00 H                    :
TDD  .M             5288                 :
TDL  .M             5293                 :
TLAB .        N/A                        :
TLI  .M             5000                 :
WITN .        ERNANI / ZE MARIA          :
WN   .        3-BRSA-293D-SPS            :
LUN  .              8808                 :
HIDE .        3-SPS-41D                  :
HID2 .        HIGH DEFINITION INDUCTION LOG :
HID3 .        X-MULTIPOLE ARRAY ACOUSTILOG :
HID4 .        GAMMA RAY LOG              :
HID5 .        TTRM SUB                   :
CLAB .        BACIA                      :
SLAB .        PAIS                       :
CMT1 .        ESC  1 200                 :
CMT2 .        PROF. MEDIDA               :
CMT4 .        SONDA  SS-43               :
HDAT .        SAD 69                     :
FL   .        BASE SAD 69                :
OS1  .        RCI/GR                     :
OS2  .        CHECK SHOT                 :
OS3  .        GR/CN/ZDL                  :
OS5  .        RCOR/GR                    :
LNAM .        ZDL/CN/XMAC/HDIL/EARTH IMAGER/RCI/RCOR/CHECK SHOT/GR :
TOOL .        ZDL/CN/XMAC/HDIL/EARTH IMAGER/RCI/RCOR/CHECK SHOT/GR :
LSOU .        PETROBRAS                  :
LSRV .        OH WIRELINE                :
LTYP .        RAW                        :
EPD  .M                0                 :
LDAT .        15/11/2004                 :
TRIP .                 3                 :
SON  .            786588                 :
CBDR .M             4277                 :
CBLO .        NR                         :
CBL1 .        NR                         :
STEM .DEGF    N/A                        :
BSAL .            254762                 :
BARI .        OFF                        :
DLAB .        12/11/2004                 :
MRT  .DEGF           290                 :
TSTR .        HDIL/XMAC/GR/TTRM          :
TSTG .        N/A                        :
STUS .        FINAL                      :
LCNM .        BAKER ATLAS                :
LCC  .               150                 :
NATI .        BRASIL                     :
OPMD .        OH.WIRELINE                :
PANA .        HERNANDEZ / LOCK           :
PCON .        BAKER ATLAS                :
R11  .        SL     5268.3 M / 5000.0 M :
R12  .        GR     5268.3 M / 5000.0 M :
R13  .        XMAC   5279.5 M / 5000.0 M :
R14  .        HDIL   5289.0 M / 5000.0 M :
R17  .        11. DECLINAÇÃO MAGNETICA  -20.9 GRAUS :
R18  .        12. COORDENADAS BASE       :
R21  .        Y    583936.00 M           :
R22  .        MC  45 GRAUS               :
PVER .           4.10000                 :
WDFN .        /space/expusr/3-SPS-41D_RUN2/i77bf01_2spf.xtf :
OCT  .        i77bf                      :
OS4  .        EARTH IMAGER               :
R16  .        10. PONTO FRACO UTILIZADO  10K :
R20  .        X   7292512.00 M           :
R24  .        13. CADASTRO ANP  86316021017 :
#-----------------------------------------------------------------------------
~CURVE INFORMATION
#MNEM.UNIT   API CODE                                  DESCRIPTION
#---- -----  --------                                  -----------------------
DEPT .M                                                :DEPTH (BOREHOLE) {F10.4}
DEPT .M                                                : {F13.4}
DT   .US/F                                             : {F13.4}
SFN1 .US                                               : {F13.4}
SFN2 .US                                               : {F13.4}
SFN3 .US                                               : {F13.4}
SFN4 .US                                               : {F13.4}
TT   .MS                                               : {F13.4}
#-----------------------------------------------------------------------------
# 
#     DEPT        DEPT         DT           SFN1         SFN2         SFN3         SFN4         TT
#
~A  
 5286.4512    5286.4512    -999.2500     685.1250     714.2500     746.2500    -999.2500    -999.2500
 5286.2988    5286.2988    -999.2500     685.3750     714.5000     746.2500     774.6250    -999.2500
 5286.1464    5286.1464    -999.2500     685.2499     714.3751     746.1251     774.6251    -999.2500
 5285.9940    5285.9940    -999.2500     685.1250     714.5000     746.2500     774.7501    -999.2500
 5285.8416    5285.8416    -999.2500     685.1252     714.4998     746.2500     774.8750    -999.2500
 5285.6892    5285.6892    -999.2500     685.2494     714.3756     746.2500     774.8750    -999.2500
 5285.5368    5285.5368    -999.2500     685.2500     714.4995     746.2500     774.8750    -999.2500
 5285.3844    5285.3844    -999.2500     685.1255     714.5000     746.2500     774.7505    -999.2500
 5285.2320    5285.2320    -999.2500     685.2495     714.3755     746.3745     774.7500    -999.2500
 5285.0796    5285.0796    -999.2500     685.2500     714.4996     746.2504     774.7500    -999.2500
 5284.9272    5284.9272 -999999.9999     685.2500     714.3754     746.4993     774.7500 -945405.5317
 5284.7748    5284.7748      59.6439     685.2500     714.6244     746.2506     774.7500       0.0596
 5284.6224    5284.6224      59.6354     685.2500     714.5003     746.1253     774.7500       0.0894
 5284.4700    5284.4700      59.6442     685.1252     714.5000     746.3746     774.7500       0.1192
 5284.3176    5284.3176      59.6746     685.2498     714.2504     746.1254     774.7500       0.1491
 5284.1652    5284.1652      59.7123     685.2500     714.3749     746.1250     774.8749       0.1790
 5284.0128    5284.0128      59.7297     685.1251     714.4999     746.0001     774.8750       0.2088
 5283.8604    5283.8604      59.6990     685.2500     714.5000     746.2500     774.7500       0.2387
 5283.7080    5283.7080      59.6033     685.2500     714.5000     746.5000     774.7500       0.2685
 5283.5556    5283.5556      59.4573     685.2500     714.4999     746.1250     774.6250       0.2982
 5283.4032    5283.4032      59.3108     685.2499     714.3751     746.1250     774.6251       0.3279
 5283.2508    5283.2508      59.2229     685.1251     714.4999     746.1254     774.7501       0.3575
 5283.0984    5283.0984      59.2297     685.2494     714.3756     746.4982     774.8744       0.3870
 5282.9460    5282.9460      59.3218     685.2500     714.3750     746.0023     774.7506       0.4166
 5282.7936    5282.7936      59.4488     685.1255     714.3750     746.2490     774.8745       0.4464
 5282.6412    5282.6412      59.5556     685.2495     714.4995     746.3745     774.8750       0.4762
 5282.4888    5282.4888      59.6209     685.2500     714.5000     746.0013     774.6259       0.5060
 5282.3364    5282.3364      59.6522     685.2500     714.3754     746.3739     774.7496       0.5358
 5282.1840    5282.1840      59.6633     685.2500     714.4997     746.1257     774.7500       0.5657
 5282.0316    5282.0316      59.6583     685.2500     714.5000     746.4991     774.8747       0.5955
 5281.8792    5281.8792      59.6288     685.3748     714.5000     746.2505     774.7502       0.6253
 5281.7268    5281.7268      59.5763     685.2502     714.6248     746.6244     774.7500       0.6551
 5281.5744    5281.5744      59.5195     685.2500     714.5001     746.3753     774.7500       0.6849
 5281.4220    5281.4220      59.4845     685.2500     714.6249     746.6248     774.8749       0.7147
 5281.2696    5281.2696      59.4991     685.3749     714.7499     746.3751     774.7501       0.7444
 5281.1172    5281.1172      59.5754     685.2500     714.6250     746.6250     775.0000       0.7742
 5280.9648    5280.9648      59.7145     685.5000     714.5000     746.2500     774.8750       0.8041
 5280.8124    5280.8124      59.9271     685.6252     714.6252     746.2503     774.7500       0.8341
 5280.6600    5280.6600      60.1991     686.0009     714.8754     746.7501     774.7500       0.8642
 5280.5076    5280.5076      60.4203     686.8748     715.2509     746.8755     774.7507       0.8944
 5280.3552    5280.3552      60.4459     686.7506     715.8721     747.2483     775.2477       0.9244
 5280.2028    5280.2028      60.2296     686.7500     716.1239     749.4904     775.3745       0.9546
 5280.0504    5280.0504      59.8946     686.8745     715.8760     749.3755     775.9976       0.9845
 5279.8980    5279.8980      59.7231     686.7504     715.8750     749.4996     776.0000       1.0144
 5279.7456    5279.7456      59.9615     686.6254     716.1242     749.5000     776.0000       1.0444
 5279.5932    5279.5932      60.6637     686.6250     716.1250     749.1261     776.0000       1.0747
 5279.4408    5279.4408      61.6893     686.6250     716.0003     749.4991     776.0000       1.1056
 5279.2884    5279.2884      62.7881     686.6250     715.8753     748.7515     776.0000       1.1370
 5279.1360    5279.1360      63.7124     686.6250     715.6254     749.3739     776.0000       1.1688
 5278.9836    5278.9836      64.2915     686.7498     715.9995     749.4998     776.0000       1.2010
 5278.8312    5278.8312      64.4760     686.9998     716.1249     749.0005     776.0000       1.2333
 5278.6788    5278.6788      64.3210     687.0000     716.2499     749.3748     776.0000       1.2654
 5278.5264    5278.5264      63.9868     686.8750     716.5000     749.5000     776.0000       1.2974
 5278.3740    5278.3740      63.6958     687.2500     716.2500     750.0000     776.0000       1.3293
 5278.2216    5278.2216      63.6560     687.6249     716.2497     749.9995     776.0000       1.3611
 5278.0692    5278.0692      63.9254     687.5002     715.7496     749.1247     776.0000       1.3931
 5277.9168    5277.9168      64.3657     687.7502     715.2498     748.7476     776.0020       1.4253
 5277.7644    5277.7644      64.9155     687.8744     715.1256     746.8839     777.6173       1.4576
 5277.6120    5277.6120      65.6931     687.9994     714.8761     747.4972     778.4961       1.4904
 5277.4596    5277.4596      66.7981     687.0040     715.2485     745.8816     779.3715       1.5238
 5277.3072    5277.3072      68.0089     685.5055     712.2610     745.6259     780.9940       1.5579
 5277.1548    5277.1548      68.7318     694.9686     720.2236     749.6118     782.2459       1.5922
 5277.0024    5277.0024      68.6168     698.6144     727.9773     759.2218     782.2500       1.6266
 5276.8500    5276.8500      67.9757     696.0067     724.0103     759.9981     792.7231       1.6606
 5276.6976    5276.6976      67.4368     686.1467     717.5143     752.0176     784.0192       1.6943
 5276.5452    5276.5452      67.1889     683.6296     715.6284     752.0000     781.3798       1.7279
 5276.3928    5276.3928      66.7318     683.8746     720.2433     757.7416     790.1123       1.7613
 5276.2404    5276.2404      65.5628     684.2496     719.8754     759.2484     790.9990       1.7941
 5276.0880    5276.0880      63.9693     686.2486     717.6266     754.0038     787.5025       1.8261
 5275.9356    5275.9355      62.9712     678.6250     713.2500     748.1250     782.6250       1.8576
 5275.7832    5275.7832      63.3059     672.0000     703.5000     742.8750     774.3750       1.8892
 5275.6308    5275.6309      64.7704     672.0000     705.2500     742.1250     775.6250       1.9216
 5275.4784    5275.4784      66.5780     674.0002     707.8772     744.0003     776.0001       1.9549
 5275.3260    5275.3260      68.0503     674.2510     710.7501     744.3771     776.1268       1.9890
 5275.1736    5275.1736      69.0376     675.1207     710.8744     746.2408     777.7421       2.0233
 5275.0212    5275.0212      69.5696     675.1250     710.1284     746.4989     782.4784       2.0581
 5274.8688    5274.8688      69.5036     676.8677     710.2495     745.7531     782.8734       2.0928
 5274.7164    5274.7164      68.7914     684.7200     708.8802     745.7500     782.9995       2.1272
 5274.5640    5274.5640      67.7291     672.0438     713.3595     748.1168     783.0000       2.1611
