~VERSION INFORMATION
VERS.           2.0   :CWLS Log ASCII Standard - VERSION 2.0
WRAP.           NO    :One Line per depth step
PROD.  Schlumberger   :LAS Producer
PROG.  DLIS to ASCII 2.3                               :LAS Program name and version
CREA.        2023/07/14 00:15                          :LAS Creation date {YYYY/MM/DD hh:mm}
DLIS_CREA.  2023-Jul-14 00:11                          :DLIS Creation date and time {YYYY-MMM-DD hh:mm}
SOURCE.     LIS_010.dlis                               :DLIS File Name
FILE-ID.     LIS   .003                                :File Identification Number
#--------------------------------------------------
~WELL INFORMATION
#MNEM.UNIT      DATA             DESCRIPTION
#---- ------ --------------   -----------------------------
STRT .M      5284.9272       :START DEPTH     
STOP .M      4939.1316       :STOP DEPTH     
STEP .M        -0.1524       :STEP     
NULL .          -999.25      :NULL VALUE
COMP .        PETROBRAS S.A.                           :COMPANY
WELL .        3-BRSA-293D-SPS                          :WELL
FLD  .        BS-400                                   :FIELD
LOC  .        BASE SAD 69:                             :LOCATION
CNTY .        SANTOS                                   :COUNTY
STAT .        BRASIL                                   :STATE
CTRY .        BRASIL                                   :COUNTRY
API  .                                                 :API NUMBER
UWI  .                                                 :UNIQUE WELL ID
DATE .        15/11/2004                               :LOG DATE
SRVC .        Schlumberger                             :SERVICE COMPANY
LATI .DEG                                              :LATITUDE
LONG .DEG                                              :LONGITUDE
GDAT .                                                 :GeoDetic Datum
#-----------------------------------------------------------------------------
~PARAMETER INFORMATION
#MNEM.UNIT    VALUE                      DESCRIPTION
#---- -----   --------------------       ------------------------
APD  .M               24                 :
BHT  .DEGF           260                 :
BLI  .M             5289                 :
BS   .IN         8.50000                 :
CN   .        PETROBRAS S.A.             :
COUN .        SANTOS                     :
CS   .IN         9.62500                 :
DATE .        15/11/2004                 :
DFD  .LB/G      12.30000                 :
DFL  .C3               2                 :
DFPH .        N/A                        :
DFT  .        SINTETICO                  :
DFV  .S               95                 :
DMF  .        MESA ROTATIVA              :
EDF  .M               24                 :
EGL  .M             -500                 :
EKB  .        N/A                        :
ENGI .        HERNANDEZ / LOCK           :
FL1  .        X   7292392.00 M LAT 24 28 47.189 S :
FL2  .        Y    584087.00 M LON 44 10 12.698 W :
FL3  .        MC  45 GRAUS               :
FN   .        BS-400                     :
LMF  .        MESA ROTATIVA              :
LUL  .        MACAE                      :
MCSS .        PRENSA                     :
MCST .DEGF            80                 :
MFSS .        PRENSA                     :
MFST .DEGF            80                 :
MSS  .        LINHA DE FLUXO             :
MST  .DEGF            80                 :
PDAT .        NIVEL DO MAR               :
R1   .        01. APRESENTAÇÃO DE ACORDO COM REQUERIMENTO DO CLIENTE :
R2   .        02. TEMPERATURA MÁXIMA DO POÇO T1=T2= 290 DEGF @  5275 M :
R3   .        03. INICIO DA CIRCULAÇÃO  12/11/2004 09 00 H :
R4   .        04. FINAL DA CIRCULAÇÃO   12/11/2004 18 00 H :
R5   .        05. TEMPO TOTAL DE CIRCULAÇÃO   09 00 H :
R6   .        06. FLUIDO DE PERFURAÇÃO  SINTETICO (BR-MUL  BR-MI)  60% TEOR DO OLEO :
R7   .        07. SALINIDADE DA LAMA  254762 PPM NACL NA FASE DE AGUA :
R8   .        08. INCLINAÇÃO MÁXIMA DO POÇO  37.37 GRAUS @ 5100 M :
R9   .        09. PRIMEIRAS E ULTIMAS LEITURAS  :
RMB  .OHMM    > 10                       :
RMCS .OHMM    > 10                       :
RMFS .OHMM    > 10                       :
RMS  .OHMM    >10                        :
RUN  .                 2                 :
STAT .        BRASIL                     :
TCS  .        18 00 H                    :
TDD  .M             5288                 :
TDL  .M             5293                 :
TLAB .        N/A                        :
TLI  .M             5000                 :
WITN .        ERNANI / ZE MARIA          :
WN   .        3-BRSA-293D-SPS            :
LUN  .              8808                 :
HIDE .        3-SPS-41D                  :
HID2 .        HIGH DEFINITION INDUCTION LOG :
HID3 .        X-MULTIPOLE ARRAY ACOUSTILOG :
HID4 .        GAMMA RAY LOG              :
HID5 .        TTRM SUB                   :
CLAB .        BACIA                      :
SLAB .        PAIS                       :
CMT1 .        ESC  1 200                 :
CMT2 .        PROF. MEDIDA               :
CMT4 .        SONDA  SS-43               :
HDAT .        SAD 69                     :
FL   .        BASE SAD 69                :
OS1  .        RCI/GR                     :
OS2  .        CHECK SHOT                 :
OS3  .        GR/CN/ZDL                  :
OS5  .        RCOR/GR                    :
LNAM .        ZDL/CN/XMAC/HDIL/EARTH IMAGER/RCI/RCOR/CHECK SHOT/GR :
TOOL .        ZDL/CN/XMAC/HDIL/EARTH IMAGER/RCI/RCOR/CHECK SHOT/GR :
LSOU .        PETROBRAS                  :
LSRV .        OH WIRELINE                :
LTYP .        RAW                        :
EPD  .M                0                 :
LDAT .        15/11/2004                 :
TRIP .                 3                 :
SON  .            786588                 :
CBDR .M             4277                 :
CBLO .        NR                         :
CBL1 .        NR                         :
STEM .DEGF    N/A                        :
BSAL .            254762                 :
BARI .        OFF                        :
DLAB .        12/11/2004                 :
MRT  .DEGF           290                 :
TSTR .        HDIL/XMAC/GR/TTRM          :
TSTG .        N/A                        :
STUS .        FINAL                      :
LCNM .        BAKER ATLAS                :
LCC  .               150                 :
NATI .        BRASIL                     :
OPMD .        OH.WIRELINE                :
PANA .        HERNANDEZ / LOCK           :
PCON .        BAKER ATLAS                :
R11  .        SL     5268.3 M / 5000.0 M :
R12  .        GR     5268.3 M / 5000.0 M :
R13  .        XMAC   5279.5 M / 5000.0 M :
R14  .        HDIL   5289.0 M / 5000.0 M :
R17  .        11. DECLINAÇÃO MAGNETICA  -20.9 GRAUS :
R18  .        12. COORDENADAS BASE       :
R21  .        Y    583936.00 M           :
R22  .        MC  45 GRAUS               :
PVER .           4.10000                 :
WDFN .        /space/expusr/3-SPS-41D_RUN2/i77bf02_2spf.xtf :
OCT  .        i77bf                      :
OS4  .        EARTH IMAGER               :
R16  .        10. PONTO FRACO UTILIZADO  10K :
R20  .        X   7292512.00 M           :
R24  .        13. CADASTRO ANP  86316021017 :
#-----------------------------------------------------------------------------
~CURVE INFORMATION
#MNEM.UNIT   API CODE                                  DESCRIPTION
#---- -----  --------                                  -----------------------
DEPT .M                                                :DEPTH (BOREHOLE) {F10.4}
DEPT .M                                                : {F13.4}
DT   .US/F                                             : {F13.4}
SFN1 .US                                               : {F13.4}
SFN2 .US                                               : {F13.4}
SFN3 .US                                               : {F13.4}
SFN4 .US                                               : {F13.4}
TT   .MS                                               : {F13.4}
#-----------------------------------------------------------------------------
# 
#     DEPT        DEPT         DT           SFN1         SFN2         SFN3         SFN4         TT
#
~A  
# ...
 5236.7688    5236.7688      62.3683     691.7587     727.3748     757.5002     785.6246       9.8271
 5236.6164    5236.6164      63.0214     704.4842     597.5363     760.3714     785.6250       9.8586
 5236.4640    5236.4640      63.4948     701.8773     400.1721     755.1296     796.7403       9.8903
 5236.3116    5236.3116      63.8197     700.3758     728.2100     762.7462     789.5036       9.9223
 5236.1592    5236.1592      64.3171     701.3750     728.0000     763.6250     797.1250       9.9544
 5236.0068    5236.0068      65.0643     701.3750     728.3750     767.3750     800.0000       9.9870
 5235.8544    5235.8544      65.7988     695.9994     728.5015     768.1252     800.5007      10.0199
 5235.7020    5235.7020      66.7404     695.0011     730.9959     768.4991     801.6251      10.0533
 5235.5496    5235.5496      68.3952     696.1141     726.7500     767.6153     801.7485      10.0875
 5235.3972    5235.3972      70.8307     687.9951     726.7349     760.3686     800.6063      10.1229
 5235.2448    5235.2448      73.0982     685.1374     717.9132     756.6411     789.6723      10.1593
 5235.0924    5235.0924      73.4663     685.1250     720.9876     756.6250     787.6329      10.1960
 5234.9400    5234.9400      71.0989     684.5022     721.1246     752.0166     783.6394      10.2316
 5234.7876    5234.7876      67.3668     686.7428     720.0036     751.8754     778.7657      10.2653
 5234.6352    5234.6352      64.7565     687.9964     719.0029     747.8864     778.8746      10.2976
 5234.4828    5234.4828      64.4999     680.0199     719.4988     747.7503     779.3738      10.3299
 5234.3304    5234.3304      65.8299     686.6110     711.1427     748.9974     782.4934      10.3628
 5234.1780    5234.1780      66.9061     685.1276     717.7384     750.2478     783.9974      10.3963
 5234.0256    5234.0256      66.5925     687.9960     717.9997     755.7424     784.0000      10.4296
 5233.8732    5233.8732      65.6135     688.0000     717.7503     749.3814     784.0000      10.4624
 5233.7208    5233.7208      65.1840     688.1249     715.2516     749.7498     776.2549      10.4950
 5233.5684    5233.5684      65.6393     688.8750     716.1250     750.6250     782.5000      10.5279
 5233.4160    5233.4160      66.3580     703.2500     719.0000     752.0000     789.1250      10.5611
 5233.2636    5233.2636      66.5496     702.4981     736.1212     760.6289     791.1277      10.5943
 5233.1112    5233.1112      66.3427     698.5002     727.9966     768.8675     796.8739      10.6275
 5232.9588    5232.9588      66.6240     698.7480     724.0014     760.0065     795.6294      10.6609
 5232.8064    5232.8064      68.0435     697.1346     725.1309     765.3766     799.2527      10.6949
 5232.6540    5232.6540      70.2095     703.2228     728.8584     766.3706     800.9922      10.7298
 5232.5016    5232.5016      71.9552     706.8602     790.8703     769.2382     801.9959      10.7658
 5232.3492    5232.3492      72.2628     704.0107     731.4729     823.6716     803.3699      10.8019
 5232.1968    5232.1968      70.9588     708.6095     737.9774     696.4289     792.2873      10.8374
 5232.0444    5232.0444      68.6817     708.7496     743.6082     562.7738     806.5821      10.8718
 5231.8920    5231.8920      66.3553     711.9915     743.9990     775.4413     800.2667      10.9050
 5231.7396    5231.7396      64.7732     701.6483     740.3831     776.0000     800.7489      10.9374
 5231.5872    5231.5872      64.2509     696.0106     728.0232     768.0150     800.6252      10.9695
 5231.4348    5231.4348      64.4590     694.6271     730.2466     768.0000     800.0009      11.0017
 5231.2824    5231.2824      64.8135     703.9893     731.6234     770.7469     803.9954      11.0342
 5231.1300    5231.1300      64.9576     703.1257     729.5016     770.1255     802.0015      11.0666
 5230.9776    5230.9776      65.0395     703.3749     728.6254     761.5035     796.7521      11.0992
 5230.8252    5230.8252      65.3864     695.6250     728.7500     767.1250     796.3750      11.1319
 5230.6728    5230.6729      65.9107     699.3750     730.5000     767.2500     802.3750      11.1648
 5230.5204    5230.5204      66.1073     699.3748     731.0000     769.8704     802.4997      11.1979
 5230.3680    5230.3680      65.6174     699.1251     731.0000     763.3750     802.1163      11.2307
 5230.2156    5230.2156      64.7336     699.2502     731.0002     763.3750     794.0000      11.2631
 5230.0632    5230.0632      64.1445     699.3777     731.1248     763.3755     794.0005      11.2952
 5229.9108    5229.9108      64.2945     700.8687     731.0005     763.6240     794.2490      11.3271
 5229.7584    5229.7584      65.1129     690.1665     729.5058     763.0024     794.1255      11.3597
 5229.6060    5229.6060      66.1408     687.6337     728.0052     764.7439     793.8759      11.3928
 5229.4536    5229.4536      66.9142     684.5097     720.0249     760.0148     793.2519      11.4263
 5229.3012    5229.3012      67.1909     684.7493     720.1247     758.3795     791.6295      11.4599
 5229.1488    5229.1488      66.9494     686.1217     720.1250     757.6268     790.6274      11.4934
 5228.9964    5228.9964      66.3664     687.8715     720.2497     757.7497     785.2608      11.5266
 5228.8440    5228.8440      65.7329     687.9998     721.2484     757.5004     785.3748      11.5594
 5228.6916    5228.6916      65.2957     688.0000     721.2500     757.1255     784.0017      11.5921
 5228.5392    5228.5392      65.0849     688.0000     721.6247     757.0001     784.0000      11.6247
 5228.3868    5228.3868      64.9291     688.0000     721.8749     757.2499     784.0000      11.6571
 5228.2344    5228.2344      64.5858     689.8750     915.7500     757.0000     784.0000      11.6894
 5228.0820    5228.0820      64.0467     691.2500     724.2500    1084.3750     784.0000      11.7215
 5227.9296    5227.9296      63.7242     693.6242     725.4968     753.0012     784.0029      11.7533
 5227.7772    5227.7772      64.0348     692.2460     719.9981     755.1221     788.9978      11.7854
 5227.6248    5227.6248      64.9438     688.0105     717.9949     752.0005     786.6299      11.8179
 5227.4724    5227.4724      65.8881     696.0025     714.1463     752.3804     790.3748      11.8508
 5227.3200    5227.3200      66.2218     697.4935     726.8198     755.6109     790.2505      11.8837
 5227.1676    5227.1676      65.9277     693.3915     725.6300     759.3600     786.7640      11.9167
 5227.0152    5227.0152      65.6180     691.7559     722.1377     757.3822     789.7391      11.9495
 5226.8628    5226.8628      65.8662     689.8811     720.0069     758.9947     794.6091      11.9825
 5226.7104    5226.7104      66.5996     695.8577     721.6203     759.2493     796.1207      12.0158
 5226.5580    5226.5580      67.2155     693.1319     727.9840     761.7437     795.7509      12.0494
 5226.4056    5226.4056      67.2738     688.0110     723.6344     759.5048     793.3801      12.0830
 5226.2532    5226.2532      66.9717     690.1212     720.0064     754.6337     791.2538      12.1165
 5226.1008    5226.1008      66.8469     692.6215     725.6171     759.6180     789.3776      12.1500
 5225.9484    5225.9484      67.1209     694.1234     726.3742     761.4981     789.1253      12.1836
 5225.7960    5225.7960      67.5377     694.0001     726.6248     761.5000     791.6233      12.2173
 5225.6436    5225.6436      67.6304     692.3750     723.7500     761.1250     793.8750      12.2512
 5225.4912    5225.4912      67.0677     691.8750     724.0000     760.0000     795.0000      12.2847
 5225.3388    5225.3388      65.9639     695.9982     724.8751     762.9985     791.0013      12.3177
 5225.1864    5225.1864      64.7768     692.0020     724.9986     759.4965     793.9927      12.3501
 5225.0340    5225.0340      63.9299     694.4922     723.2488     755.1223     785.0009      12.3821
 5224.8816    5224.8816      63.5609     687.8850     722.2460     752.8767     785.7552      12.4139
