~VERSION INFORMATION
VERS.           2.0   :CWLS Log ASCII Standard - VERSION 2.0
WRAP.           NO    :One Line per depth step
PROD.  Schlumberger   :LAS Producer
PROG.  DLIS to ASCII 2.3                               :LAS Program name and version
CREA.        2023/07/14 00:15                          :LAS Creation date {YYYY/MM/DD hh:mm}
DLIS_CREA.  2023-Jul-14 00:11                          :DLIS Creation date and time {YYYY-MMM-DD hh:mm}
SOURCE.     LIS_008.dlis                               :DLIS File Name
FILE-ID.     LIS   .001                                :File Identification Number
#--------------------------------------------------
~WELL INFORMATION
#MNEM.UNIT      DATA             DESCRIPTION
#---- ------ --------------   -----------------------------
STRT .M      5286.4512       :START DEPTH     
STOP .M      5066.6904       :STOP DEPTH     
STEP .M        -0.1524       :STEP     
NULL .          -999.25      :NULL VALUE
COMP .        PETROBRAS S.A.                           :COMPANY
WELL .        3-BRSA-293D-SPS                          :WELL
FLD  .        BS-400                                   :FIELD
LOC  .        BASE SAD 69:                             :LOCATION
CNTY .        SANTOS                                   :COUNTY
STAT .        BRASIL                                   :STATE
CTRY .        BRASIL                                   :COUNTRY
API  .                                                 :API NUMBER
UWI  .                                                 :UNIQUE WELL ID
DATE .        15/11/2004                               :LOG DATE
SRVC .        Schlumberger                             :SERVICE COMPANY
LATI .DEG                                              :LATITUDE
LONG .DEG                                              :LONGITUDE
GDAT .                                                 :GeoDetic Datum
#-----------------------------------------------------------------------------
~PARAMETER INFORMATION
#MNEM.UNIT    VALUE                      DESCRIPTION
#---- -----   --------------------       ------------------------
APD  .M               24                 :
BHT  .DEGF           260                 :
BLI  .M             5289                 :
BS   .IN         8.50000                 :
CN   .        PETROBRAS S.A.             :
COUN .        SANTOS                     :
CS   .IN         9.62500                 :
DATE .        15/11/2004                 :
DFD  .LB/G      12.30000                 :
DFL  .C3               2                 :
DFPH .        N/A                        :
DFT  .        SINTETICO                  :
DFV  .S               95                 :
DMF  .        MESA ROTATIVA              :
EDF  .M               24                 :
EGL  .M             -500                 :
EKB  .        N/A                        :
ENGI .        HERNANDEZ / LOCK           :
FL1  .        X   7292392.00 M LAT 24 28 47.189 S :
FL2  .        Y    584087.00 M LON 44 10 12.698 W :
FL3  .        MC  45 GRAUS               :
FN   .        BS-400                     :
LMF  .        MESA ROTATIVA              :
LUL  .        MACAE                      :
MCSS .        PRENSA                     :
MCST .DEGF            80                 :
MFSS .        PRENSA                     :
MFST .DEGF            80                 :
MSS  .        LINHA DE FLUXO             :
MST  .DEGF            80                 :
PDAT .        NIVEL DO MAR               :
R1   .        01. APRESENTAÇÃO DE ACORDO COM REQUERIMENTO DO CLIENTE :
R2   .        02. TEMPERATURA MÁXIMA DO POÇO T1=T2= 290 DEGF @  5275 M :
R3   .        03. INICIO DA CIRCULAÇÃO  12/11/2004 09 00 H :
R4   .        04. FINAL DA CIRCULAÇÃO   12/11/2004 18 00 H :
R5   .        05. TEMPO TOTAL DE CIRCULAÇÃO   09 00 H :
R6   .        06. FLUIDO DE PERFURAÇÃO  SINTETICO (BR-MUL  BR-MI)  60% TEOR DO OLEO :
R7   .        07. SALINIDADE DA LAMA  254762 PPM NACL NA FASE DE AGUA :
R8   .        08. INCLINAÇÃO MÁXIMA DO POÇO  37.37 GRAUS @ 5100 M :
R9   .        09. PRIMEIRAS E ULTIMAS LEITURAS  :
RMB  .OHMM    > 10                       :
RMCS .OHMM    > 10                       :
RMFS .OHMM    > 10                       :
RMS  .OHMM    >10                        :
RUN  .                 2                 :
STAT .        BRASIL                     :
TCS  .        18 00 H                    :
TDD  .M             5288                 :
TDL  .M             5293                 :
TLAB .        N/A                        :
TLI  .M             5000                 :
WITN .        ERNANI / ZE MARIA          :
WN   .        3-BRSA-293D-SPS            :
LUN  .              8808                 :
HIDE .        3-SPS-41D                  :
HID2 .        HIGH DEFINITION INDUCTION LOG :
HID3 .        X-MULTIPOLE ARRAY ACOUSTILOG :
HID4 .        GAMMA RAY LOG              :
HID5 .        TTRM SUB                   :
CLAB .        BACIA                      :
SLAB .        PAIS                       :
CMT1 .        ESC  1 200                 :
CMT2 .        PROF. MEDIDA               :
CMT4 .        SONDA  SS-43               :
HDAT .        SAD 69                     :
FL   .        BASE SAD 69                :
OS1  .        RCI/GR                     :
OS2  .        CHECK SHOT                 :
OS3  .        GR/CN/ZDL                  :
OS5  .        RCOR/GR                    :
LNAM .        ZDL/CN/XMAC/HDIL/EARTH IMAGER/RCI/RCOR/CHECK SHOT/GR :
TOOL .        ZDL/CN/XMAC/HDIL/EARTH IMAGER/RCI/RCOR/CHECK SHOT/GR :
LSOU .        PETROBRAS                  :
LSRV .        OH WIRELINE                :
LTYP .        RAW                        :
EPD  .M                0                 :
LDAT .        15/11/2004                 :
TRIP .                 3                 :
SON  .            786588                 :
CBDR .M             4277                 :
CBLO .        NR                         :
CBL1 .        NR                         :
STEM .DEGF    N/A                        :
BSAL .            254762                 :
BARI .        OFF                        :
DLAB .        12/11/2004                 :
MRT  .DEGF           290                 :
TSTR .        HDIL/XMAC/GR/TTRM          :
TSTG .        N/A                        :
STUS .        FINAL                      :
LCNM .        BAKER ATLAS                :
LCC  .               150                 :
NATI .        BRASIL                     :
OPMD .        OH.WIRELINE                :
PANA .        HERNANDEZ / LOCK           :
PCON .        BAKER ATLAS                :
R11  .        SL     5268.3 M / 5000.0 M :
R12  .        GR     5268.3 M / 5000.0 M :
R13  .        XMAC   5279.5 M / 5000.0 M :
R14  .        HDIL   5289.0 M / 5000.0 M :
R17  .        11. DECLINAÇÃO MAGNETICA  -20.9 GRAUS :
R18  .        12. COORDENADAS BASE       :
R21  .        Y    583936.00 M           :
R22  .        MC  45 GRAUS               :
PVER .           4.10000                 :
WDFN .        /space/expusr/3-SPS-41D_RUN2/i77bf01_2spf.xtf :
OCT  .        i77bf                      :
OS4  .        EARTH IMAGER               :
R16  .        10. PONTO FRACO UTILIZADO  10K :
R20  .        X   7292512.00 M           :
R24  .        13. CADASTRO ANP  86316021017 :
#-----------------------------------------------------------------------------
~CURVE INFORMATION
#MNEM.UNIT   API CODE                                  DESCRIPTION
#---- -----  --------                                  -----------------------
DEPT .M                                                :DEPTH (BOREHOLE) {F10.4}
DEPT .M                                                : {F13.4}
DT   .US/F                                             : {F13.4}
SFN1 .US                                               : {F13.4}
SFN2 .US                                               : {F13.4}
SFN3 .US                                               : {F13.4}
SFN4 .US                                               : {F13.4}
TT   .MS                                               : {F13.4}
#-----------------------------------------------------------------------------
# 
#     DEPT        DEPT         DT           SFN1         SFN2         SFN3         SFN4         TT
#
~A  
# ...
 5262.3720    5262.3720      65.6306     684.1244     713.0015     751.0005     782.5006       4.7727
 5262.2196    5262.2196      64.6369     682.7472     716.2465     751.9985     783.7472       4.8050
 5262.0672    5262.0672      63.9621     679.3696     711.9967     750.2490     780.3771       4.8370
 5261.9148    5261.9148      63.4296     674.8966     709.2632     749.3792     782.1166       4.8685
 5261.7624    5261.7624      62.7017     674.7506     706.3879     744.0240     778.7651       4.8999
 5261.6100    5261.6100      61.7177     672.6337     702.0179     738.5226     771.1563       4.9308
 5261.4576    5261.4576      60.8733     672.0023     699.3848     736.0093     768.0117       4.9612
 5261.3052    5261.3052      60.8045     672.0000     697.0080     731.6397     948.8894       4.9916
 5261.1528    5261.1528      61.8994     672.0000     698.7448     734.1175     762.4369       5.0226
 5261.0004    5261.0004      63.9530     672.0000     702.2408     736.8678     767.9839       5.0546
 5260.8480    5260.8480      66.2440     672.0000     704.4949     738.9952     771.2427       5.0877
 5260.6956    5260.6956      68.0104     672.0000     704.0009     743.9906     776.2406       5.1217
 5260.5432    5260.5432      68.8190     672.0000     704.2496     739.3820     775.0019       5.1562
 5260.3908    5260.3908      68.6193     672.0000     704.9991     739.4999     775.9989       5.1905
 5260.2384    5260.2384      67.6753     672.0000     708.4973     740.4992     776.0000       5.2243
 5260.0860    5260.0860      66.3866     672.0000     709.1247     742.2493     776.0000       5.2575
 5259.9336    5259.9336      65.1494     669.8750     704.0000     742.3750     776.8750       5.2901
 5259.7812    5259.7813      64.2153     666.0000     698.5000     742.3750     776.8750       5.3222
 5259.6288    5259.6288      63.6058     669.1270     697.7524     735.9992     769.6234       5.3541
 5259.4764    5259.4764      63.1951     671.9993     701.1233     734.8761     767.3702       5.3857
 5259.3240    5259.3240      62.8766     671.3781     699.5080     735.8701     762.8972       5.4169
 5259.1716    5259.1716      62.7126     667.8911     697.0115     734.7552     764.1192       5.4483
 5259.0192    5259.0192      62.8647     665.0122     696.0042     731.0159     763.7516       5.4797
 5258.8668    5258.8668      63.4618     664.0039     695.7510     728.2606     757.7732       5.5115
 5258.7144    5258.7144      64.4894     666.9895     692.3868     728.1254     759.9921       5.5437
 5258.5620    5258.5620      65.6776     671.9844     696.7363     728.0004     760.0000       5.5766
 5258.4096    5258.4096      66.6659     676.4876     704.6033     735.9779     761.3712       5.6099
 5258.2572    5258.2572      67.1812     675.8765     707.1190     743.9809     768.7324       5.6435
 5258.1048    5258.1048      67.1360     678.4947     711.9901     744.2495     775.9854       5.6771
 5257.9524    5257.9524      66.6528     672.5099     706.1347     744.9988     776.0000       5.7104
 5257.8000    5257.8000      65.8778     675.1216     706.6244     744.0013     779.2458       5.7434
 5257.6476    5257.6476      64.8399     671.8780     703.7526     744.0000     776.0030       5.7758
 5257.4952    5257.4952      63.5970     671.6251     703.2503     619.6926     773.5014       5.8076
 5257.3428    5257.3428      62.4269     672.0000     702.3750     620.3750     772.2500       5.8389
 5257.1904    5257.1904      61.6371     672.0000     701.1250     656.0000     768.0000       5.8697
 5257.0380    5257.0380      61.2259     671.4984     699.1241     656.0438     762.9999       5.9003
 5256.8856    5256.8856      60.8913     668.7474     697.4986     733.6258     762.8742       5.9308
 5256.7332    5256.7332      60.4254     665.9997     695.9982     734.4935     761.9992       5.9610
 5256.5808    5256.5808      60.1423     665.7512     694.6315     729.5235     761.3779       5.9909
 5256.4284    5256.4284      60.7117     666.3723     695.6206     728.0066     757.6414       6.0213
 5256.2760    5256.2760      62.3687     664.0095     698.8620     736.5905     767.7095       6.0525
 5256.1236    5256.1236      64.3899     672.4691     702.4868     739.8632     770.2409       6.0847
 5255.9712    5255.9712      65.5487     672.9984     705.6148     738.3799     771.7451       6.1174
 5255.8188    5255.8188      65.0730     679.9798     708.8656     743.9837     773.6196       6.1500
 5255.6664    5255.6664      63.2482     678.2544     711.1193     744.9975     778.6124       6.1816
 5255.5140    5255.5140      61.2020     672.8866     704.2648     744.0022     776.0057       6.2122
 5255.3616    5255.3616      60.0371     672.9998     699.8828     736.0143     773.1301       6.2423
 5255.2092    5255.2092      60.1218     667.5078     700.4991     734.7518     768.0073       6.2723
 5255.0568    5255.0568      61.1557     664.0037     696.0047     735.4992     762.8804       6.3029
 5254.9044    5254.9044      62.5865     664.0000     694.1263     729.2542     763.8743       6.3342
 5254.7520    5254.7520      63.9409     664.0000     693.7500     728.0000     760.0000       6.3662
 5254.5996    5254.5996      65.0118     664.0000     695.0000     728.0000     758.1250       6.3987
 5254.4472    5254.4472      65.7553     664.0000     695.1250     728.1250     760.0000       6.4316
 5254.2948    5254.2948      66.1130     664.0000     695.1250     728.1250     760.0000       6.4647
 5254.1424    5254.1424      66.0300     664.0001     695.1250     728.1251     760.0000       6.4977
 5253.9900    5253.9900      65.4263     664.1244     695.1250     728.2494     760.0000       6.5302
 5253.8376    5253.8376      64.2684     673.0845     694.7517     728.2500     760.0000       6.5624
 5253.6852    5253.6852      62.7278     675.3657    1019.2780     728.6234     760.0000       6.5938
 5253.5328    5253.5328      61.0368     672.0127     707.5579     926.3778     760.0000       6.6243
 5253.3804    5253.3804      59.3895     668.8856     701.3920     374.8812    1070.6916       6.6540
 5253.2280    5253.2280      57.9273     664.3886     695.7670     455.7489     697.1369       6.6830
 5253.0756    5253.0756      56.7946     664.3750     688.5193     724.1608     488.5525       6.7114
 5252.9232    5252.9232      56.2397     664.2503     688.5000     720.5100     752.0198       6.7395
 5252.7708    5252.7708      56.5577     664.2500     688.6248     720.7495     749.5060       6.7678
 5252.6184    5252.6184      57.7957     664.2500     688.6250     720.5004     749.1256       6.7967
 5252.4660    5252.4660      59.5576     664.0003     688.5001     720.5000     749.2499       6.8265
 5252.3136    5252.3136      61.2913     650.5109     688.0004     720.3751     748.8753       6.8571
 5252.1612    5252.1612      62.6368     654.9980     680.2534     720.0002     749.1249       6.8885
 5252.0088    5252.0088      63.5637     650.2500     683.6250     717.5000     747.8750       6.9203
 5251.8564    5251.8564      64.2609     648.0000     680.0000     716.6250     520.0000       6.9524
 5251.7040    5251.7040      64.8458     648.7495     680.0000     716.7481     386.7417       6.9848
 5251.5516    5251.5516      65.3558     647.9988     679.9992     713.8766     749.0018       7.0175
 5251.3992    5251.3992      65.8778     646.8760     679.2472     715.3764     750.7517       7.0505
 5251.2468    5251.2468      66.4189     647.6215     677.2592     716.3704     751.9942       7.0835
 5251.0944    5251.0944      66.7634     655.9643     680.4861     717.6197     752.0000       7.1169
 5250.9420    5250.9420      66.5504     661.3541     690.0875     719.9907     752.0000       7.1502
 5250.7896    5250.7896      65.6070     663.9907     689.0040     723.7368     755.7368       7.1830
 5250.6372    5250.6372      64.1985     664.0000     688.7508     721.8809     752.0118       7.2151
 5250.4848    5250.4848      62.9524     660.8837     688.9993     722.6229     752.0000       7.2466
