~VERSION INFORMATION
VERS.           2.0   :CWLS Log ASCII Standard - VERSION 2.0
WRAP.           YES   :Multiple lines per depth step
PROD.  Schlumberger   :LAS Producer
PROG.  DLIS to ASCII 2.3                               :LAS Program name and version
CREA.        2023/07/14 00:15                          :LAS Creation date {YYYY/MM/DD hh:mm}
DLIS_CREA.  2023-Jul-14 00:11                          :DLIS Creation date and time {YYYY-MMM-DD hh:mm}
SOURCE.     LIS_012.dlis                               :DLIS File Name
FILE-ID.     LIS   .001                                :File Identification Number
#--------------------------------------------------
~WELL INFORMATION
#MNEM.UNIT      DATA             DESCRIPTION
#---- ------ --------------   -----------------------------
STRT .M      5265.1152       :START DEPTH     
STOP .M      5185.4100       :STOP DEPTH     
STEP .M        -0.1524       :STEP     
NULL .          -999.25      :NULL VALUE
COMP .        PETROBRAS S.A.                           :COMPANY
WELL .        3-BRSA-293D-SPS                          :WELL
FLD  .        BS-400                                   :FIELD
LOC  .        BASE SAD 69:                             :LOCATION
CNTY .        SANTOS                                   :COUNTY
STAT .        BRASIL                                   :STATE
CTRY .        BRASIL                                   :COUNTRY
API  .                                                 :API NUMBER
UWI  .                                                 :UNIQUE WELL ID
DATE .        15/11/2004                               :LOG DATE
SRVC .        Schlumberger                             :SERVICE COMPANY
LATI .DEG                                              :LATITUDE
LONG .DEG                                              :LONGITUDE
GDAT .                                                 :GeoDetic Datum
#-----------------------------------------------------------------------------
~PARAMETER INFORMATION
#MNEM.UNIT    VALUE                      DESCRIPTION
#---- -----   --------------------       ------------------------
APD  .M               24                 :
BHT  .DEGF           260                 :
BLI  .M             5289                 :
BS   .IN         8.50000                 :
CN   .        PETROBRAS S.A.             :
COUN .        SANTOS                     :
CS   .IN         9.62500                 :
DATE .        15/11/2004                 :
DFD  .LB/G      12.30000                 :
DFL  .C3               2                 :
DFPH .        N/A                        :
DFT  .        SINTETICO                  :
DFV  .S               95                 :
DMF  .        MESA ROTATIVA              :
EDF  .M               24                 :
EGL  .M             -500                 :
EKB  .        N/A                        :
ENGI .        HERNANDEZ / LOCK           :
FL1  .        X   7292392.00 M LAT 24 28 47.189 S :
FL2  .        Y    584087.00 M LON 44 10 12.698 W :
FL3  .        MC  45 GRAUS               :
FN   .        BS-400                     :
LMF  .        MESA ROTATIVA              :
LUL  .        MACAE                      :
MCSS .        PRENSA                     :
MCST .DEGF            80                 :
MFSS .        PRENSA                     :
MFST .DEGF            80                 :
MSS  .        LINHA DE FLUXO             :
MST  .DEGF            80                 :
PDAT .        NIVEL DO MAR               :
R1   .        01. APRESENTAÇÃO DE ACORDO COM REQUERIMENTO DO CLIENTE :
R2   .        02. TEMPERATURA MÁXIMA DO POÇO T1=T2= 292 DEGF @  5277 M :
R3   .        03. INICIO DA CIRCULAÇÃO  12/11/2004 09 00 H :
R4   .        04. FINAL DA CIRCULAÇÃO   12/11/2004 18 00 H :
R5   .        05. TEMPO TOTAL DE CIRCULAÇÃO   09 00 H :
R6   .        06. FLUIDO DE PERFURAÇÃO  SINTETICO (BR-MUL  BR-MI)  60% TEOR DO OLEO :
R7   .        07. SALINIDADE DA LAMA  254762 PPM NACL NA FASE DE AGUA :
R8   .        08. INCLINAÇÃO MÁXIMA DO POÇO  37.37 GRAUS @ 5100 M :
R9   .        09. PRIMEIRAS E ULTIMAS LEITURAS  :
RMB  .OHMM    > 10                       :
RMCS .OHMM    > 10                       :
RMFS .OHMM    > 10                       :
RMS  .OHMM    >10                        :
RUN  .                 2                 :
STAT .        BRASIL                     :
TCS  .        18 00 H                    :
TDD  .M             5288                 :
TDL  .M             5293                 :
TLAB .        N/A                        :
TLI  .M             4277                 :
WITN .        ERNANI / ZE MARIA          :
WN   .        3-BRSA-293D-SPS            :
LUN  .              8808                 :
HIDE .        3-SPS-41D                  :
HID2 .        COMPENSATED Z-DENSILOG     :
HID3 .        COMPENSATED NEUTRON LOG    :
HID4 .        GAMMA RAY LOG              :
HID5 .        TTRM SUB                   :
CLAB .        BACIA                      :
SLAB .        PAIS                       :
CMT1 .        ESC  1 1000                :
CMT2 .        PROF. MEDIDA               :
CMT4 .        SONDA  SS-43               :
HDAT .        SAD 69                     :
FL   .        BASE SAD 69                :
OS1  .        RCI/GR                     :
OS2  .        CHECK SHOT                 :
OS3  .        GR/XMAC/HDIL               :
OS5  .        RCOR/GR                    :
LNAM .        ZDL/CN/XMAC/HDIL/EARTH IMAGER/RCI/RCOR/CHECK SHOT/GR :
TOOL .        ZDL/CN/XMAC/HDIL/EARTH IMAGER/RCI/RCOR/CHECK SHOT/GR :
LSOU .        PETROBRAS                  :
LSRV .        OH WIRELINE                :
LTYP .        RAW                        :
EPD  .M                0                 :
LDAT .        15/11/2004                 :
TRIP .                 4                 :
SON  .            786588                 :
CBDR .M             4277                 :
CBLO .        NR                         :
CBL1 .        NR                         :
STEM .DEGF    N/A                        :
BSAL .            254762                 :
BARI .        OFF                        :
DLAB .        12/11/2004                 :
MRT  .DEGF           292                 :
TSTR .        ZDL/CN/GR/TTRM             :
TSTG .        N/A                        :
STUS .        FINAL                      :
LCNM .        BAKER ATLAS                :
LCC  .               150                 :
NATI .        BRASIL                     :
OPMD .        OH.WIRELINE                :
PANA .        HERNANDEZ / LOCK           :
PCON .        BAKER ATLAS                :
R11  .        GR     5268.3 M / 4277.0 M :
R12  .        CN     5286.5 M / 5128.0 M (FERRAMENTA PERDEU LEITURA ACIMA DE 5128M) :
R13  .        ZDL    5292.0 M / 4277.0 M :
R15  .        10. PONTO FRACO UTILIZADO  10K :
R17  .        12. COORDENADAS BASE       :
R19  .        X   7292512.00 M           :
R21  .        MC  45 GRAUS               :
R23  .        13. CADASTRO ANP  86316021017 :
PVER .           4.10000                 :
WDFN .        /space/expusr/3-SPS-41D_RUN2/i77bf03_8spf.xtf :
OCT  .        i77bf                      :
OS4  .        EARTH IMAGER               :
R16  .        11. DECLINAÇÃO MAGNETICA  -20.9 GRAUS :
R20  .        Y    583936.00 M           :
#-----------------------------------------------------------------------------
~CURVE INFORMATION
#MNEM.UNIT   API CODE                                  DESCRIPTION
#---- -----  --------                                  -----------------------
DEPT .M                                                :DEPTH (BOREHOLE) {F10.4}
DEPT .M                                                : {F13.4}
BIT  .IN                                               : {F13.4}
DEPM .M                                                : {F13.4}
GR   .GAPI                                             : {F13.4}
SPD  .M/MN                                             : {F13.4}
TTEN .LBF                                              : {F13.4}
CAL  .IN                                               : {F13.4}
CALX .IN                                               : {F13.4}
HRD1 .HZ                                               : {F13.4}
HRD2 .HZ                                               : {F13.4}
PE   .B/E                                              : {F13.4}
SFT2 .HZ                                               : {F13.4}
SOFT .HZ                                               : {F13.4}
SSD  .HZ                                               : {F13.4}
ZCOR .G/C3                                             : {F13.4}
ZDEN .G/C3                                             : {F13.4}
CNC  .PU                                               : {F13.4}
CN   .PU                                               : {F13.4}
LSN  .HZ                                               : {F13.4}
SSN  .HZ                                               : {F13.4}
CNCF .PU                                               : {F13.4}
MMRK .MN                                               : {F13.4}
#-----------------------------------------------------------------------------
# DEPT       
#     DEPT         BIT          DEPM         GR           SPD          TTEN         
#     CAL          CALX         HRD1         HRD2         PE           SFT2         
#     SOFT         SSD          ZCOR         ZDEN         CNC          CN           
#     LSN          SSN          CNCF         MMRK         
~A  
# ...
5218.1760
   5218.1760       8.5000    5217.8830      66.9271       6.0353    7268.8471
      9.0611       9.0633     784.0934     982.2387       3.8411     675.6315
    508.5334    7290.0303      -0.0104       2.4998       8.1639       8.5687
   2965.9400    4958.5957       8.1639       0.0000
5218.0236
   5218.0236       8.5000    5217.7306      67.1620       6.0350    7256.6098
      9.0607       9.0609     793.5466     992.2189       3.7923     662.7905
    517.5352    7303.2097      -0.0093       2.4974       7.6610       8.0853
   3073.2175    4996.3482       7.6610       0.0000
5217.8712
   5217.8712       8.5000    5217.5782      65.6677       6.0364    7251.7808
      9.0544       9.0584     785.0657     945.6231       3.6392     641.7332
    510.9267    7260.4380      -0.0048       2.5125       7.1747       7.5646
   3226.8677    5102.1467       7.1747       0.0000
5217.7188
   5217.7188       8.5000    5217.4258      63.6962       6.0250    7251.2998
      9.0518       9.0513     754.4261     937.3125       3.5929     676.8813
    511.1472    7233.2930      -0.0040       2.5239       6.4455       6.8832
   3441.4087    5225.5410       6.4455       0.0000
5217.5664
   5217.5664       8.5000    5217.2725      61.3291       6.0248    7248.9033
      9.0591       9.0553     721.0002     934.7155       3.7673     636.0831
    492.0719    7209.2422       0.0007       2.5355       5.9247       6.2165
   3564.8364    5285.4092       5.9247       0.0000
5217.4140
   5217.4140       8.5000    5217.1201      58.8144       6.0007    7245.8355
      9.0640       9.0623     668.0692     881.9628       4.0933     582.2143
    442.1966    7069.9224       0.0022       2.5605       6.4602       6.7387
   3523.7294    5378.6459       6.4602       0.0000
5217.2616
   5217.2616       8.5000    5216.9677      57.5365       5.9535    7262.5464
      9.0616       9.0632     704.3296     916.0280       4.0457     595.5647
    461.1945    7230.5555       0.0004       2.5431       6.4300       6.8040
   3582.7204    5469.2891       6.4300       0.0000
5217.1092
   5217.1092       8.5000    5216.8153      58.7557       5.9386    7286.8427
      9.0606       9.0604     765.2646     928.6713       3.5971     614.0128
    503.1746    7253.7173      -0.0014       2.5213       6.1928       6.4644
   3485.5787    5320.5310       6.1928       0.0000
5216.9568
   5216.9568       8.5000    5216.6629      61.7653       6.0093    7285.0210
      9.0614       9.0619     783.5723     975.2770       3.4507     675.1159
    537.0844    7330.2007      -0.0051       2.5041       7.8993       7.9836
   2918.7873    4941.4618       7.8993       0.0000
5216.8044
   5216.8044       8.5000    5216.5114      64.3155       6.0706    7254.8085
      9.0590       9.0594     834.3515    1019.8133       3.3076     730.7474
    580.6372    7383.4458      -0.0104       2.4806      10.1746      10.4056
   2477.0746    4627.0215      10.1746       0.0000
5216.6520
   5216.6520       8.5000    5216.3590      64.9419       6.0579    7224.6040
      9.0565       9.0586     870.6388    1024.3950       3.4366     707.1367
    567.2221    7318.5987      -0.0212       2.4702      10.6741      11.0925
   2389.8059    4507.5536      10.6741       0.0000
5216.4996
   5216.4996       8.5000    5216.2066      64.1210       6.0079    7212.4256
      9.0699       9.0593     864.1336    1016.3770       3.7166     697.9775
    531.4746    7327.6524      -0.0230       2.4727      11.1815      11.5836
   2345.9509    4515.4035      11.1815       0.0000
5216.3472
   5216.3472       8.5000    5216.0542      63.0276       6.0099    7220.3730
      9.0850       9.0801     826.9782     981.3292       3.7142     674.6064
    523.9613    7416.7516      -0.0000       2.4867      10.5141      11.0822
   2434.1314    4539.5914      10.5141       0.0000
5216.1948
   5216.1948       8.5000    5215.9018      62.2107       6.0103    7242.6623
      9.0829       9.0867     812.8926     965.9102       3.7303     651.7122
    504.5992    7314.3254      -0.0032       2.4906      10.1612      10.5294
   2456.3848    4534.0676      10.1612       0.0000
5216.0424
   5216.0424       8.5000    5215.7494      61.9040       6.0096    7268.3364
      9.0614       9.0724     783.2830    1002.1106       3.6464     645.0462
    535.0684    7245.1878      -0.0155       2.4920      11.0161      11.3911
   2402.1192    4575.8609      11.0161       0.0000
5215.8900
   5215.8900       8.5000    5215.5970      61.4577       6.0058    7281.3563
      9.0533       9.0549     698.1266     912.7024       3.4313     600.4486
    510.3718    7044.9290      -0.0049       2.5325      10.5303      11.1316
   2638.3202    4838.7899      10.5303       0.0000
5215.7376
   5215.7376       8.5000    5215.4446      60.3830       6.0014    7262.3274
      9.0590       9.0556     625.9508     856.3808       4.3836     523.2905
    413.5794    6753.4037      -0.0271       2.5649       7.9812       8.6739
   3277.3916    5298.2746       7.9812       0.0000
5215.5852
   5215.5852       8.5000    5215.2922      58.5423       6.0170    7232.7335
      9.0563       9.0594     652.8836     838.5235       4.6729     483.2617
    388.3849    6822.9536      -0.0253       2.5634       5.0935       5.6973
   4109.5214    5682.7512       5.0935       0.0000
5215.4328
   5215.4328       8.5000    5215.1398      55.5753       5.9740    7231.9549
      9.0506       9.0522     605.7368     749.1897       4.1416     465.5961
    384.5053    6562.5339      -0.0217       2.5990       3.1201       3.4897
   4876.8463    5938.6847       3.1201       0.0000
5215.2804
   5215.2804       8.5000    5214.9874      51.2262       6.0226    7252.1897
      9.0543       9.0518     519.7069     698.5830       4.5164     423.6880
    332.3328    6329.6632      -0.0342       2.6414       2.6500       2.9103
   5500.7042    6441.1548       2.6500       0.0000
5215.1280
   5215.1280       8.5000    5214.8350      46.1117       6.0210    7262.3000
      9.0642       9.0587     509.2002     692.0901       4.9822     412.4119
    310.7806    6381.8307      -0.0305       2.6474       1.9781       2.3048
   6548.3687    7241.4860       1.9781       0.0000
5214.9756
   5214.9756       8.5000    5214.6816      41.7294       5.9884    7263.4688
      9.0680       9.0684     515.2881     687.1628       5.4708     428.7308
    292.7456    6340.9004      -0.0308       2.6455       0.8924       1.2008
   7839.6602    7984.0088       0.8924       0.0000
5214.8232
   5214.8232       8.5000    5214.5293      39.8265       5.9805    7266.3584
      9.0587       9.0639     536.9960     714.0304       5.8178     422.3871
    284.9794    6417.8779      -0.0379       2.6299       0.1799       0.3943
   8637.6230    8357.5586       0.1799       0.0000
5214.6708
   5214.6708       8.5000    5214.3769      40.7507       5.9830    7272.5783
      9.0525       9.0545     557.9734     710.8023       5.2747     435.6157
    310.2043    6486.2662      -0.0282       2.6224       0.2168       0.3562
   8539.6898    8373.5776       0.2168       0.0000
5214.5184
   5214.5184       8.5000    5214.2254      42.1579       6.0000    7277.8001
      9.0556       9.0531     557.4537     741.2940       5.1749     446.2906
    327.0979    6506.7970      -0.0309       2.6161       0.3369       0.5195
   8259.0586    8199.2141       0.3369       0.0000
5214.3660
   5214.3660       8.5000    5214.0721      42.6738       5.9963    7276.2284
      9.0606       9.0586     558.3485     752.7427       5.7653     461.6938
    309.2549    6563.0089      -0.0288       2.6107       0.4450       0.5677
   7771.5891    7857.1374       0.4450       0.0000
5214.2136
   5214.2136       8.5000    5213.9197      43.3522       6.0163    7273.3158
      9.0601       9.0606     605.3444     799.9714       6.2957     450.4292
    308.5603    6716.9365      -0.0276       2.5830       1.4288       1.4687
   6589.3491    7331.4624       1.4288       0.0000
5214.0612
   5214.0612       8.5000    5213.7682      45.6525       6.0163    7276.6297
      9.0599       9.0603     622.0946     816.5264       5.4607     520.3651
    347.5201    6831.8312      -0.0167       2.5719       3.9024       3.7797
   4911.5340    6664.0255       3.9024       0.0000
