~VERSION INFORMATION
VERS.           2.0   :CWLS Log ASCII Standard - VERSION 2.0
WRAP.           NO    :One Line per depth step
PROD.  Schlumberger   :LAS Producer
PROG.  DLIS to ASCII 2.3                               :LAS Program name and version
CREA.        2023/07/14 00:15                          :LAS Creation date {YYYY/MM/DD hh:mm}
DLIS_CREA.  2023-Jul-14 00:11                          :DLIS Creation date and time {YYYY-MMM-DD hh:mm}
SOURCE.     LIS_008.dlis                               :DLIS File Name
FILE-ID.     LIS   .001                                :File Identification Number
#--------------------------------------------------
~WELL INFORMATION
#MNEM.UNIT      DATA             DESCRIPTION
#---- ------ --------------   -----------------------------
STRT .M      5286.4512       :START DEPTH     
STOP .M      5066.6904       :STOP DEPTH     
STEP .M        -0.1524       :STEP     
NULL .          -999.25      :NULL VALUE
COMP .        PETROBRAS S.A.                           :COMPANY
WELL .        3-BRSA-293D-SPS                          :WELL
FLD  .        BS-400                                   :FIELD
LOC  .        BASE SAD 69:                             :LOCATION
CNTY .        SANTOS                                   :COUNTY
STAT .        BRASIL                                   :STATE
CTRY .        BRASIL                                   :COUNTRY
API  .                                                 :API NUMBER
UWI  .                                                 :UNIQUE WELL ID
DATE .        15/11/2004                               :LOG DATE
SRVC .        Schlumberger                             :SERVICE COMPANY
LATI .DEG                                              :LATITUDE
LONG .DEG                                              :LONGITUDE
GDAT .                                                 :GeoDetic Datum
#-----------------------------------------------------------------------------
~PARAMETER INFORMATION
#MNEM.UNIT    VALUE                      DESCRIPTION
#---- -----   --------------------       ------------------------
APD  .M               24                 :
BHT  .DEGF           260                 :
BLI  .M             5289                 :
BS   .IN         8.50000                 :
CN   .        PETROBRAS S.A.             :
COUN .        SANTOS                     :
CS   .IN         9.62500                 :
DATE .        15/11/2004                 :
DFD  .LB/G      12.30000                 :
DFL  .C3               2                 :
DFPH .        N/A                        :
DFT  .        SINTETICO                  :
DFV  .S               95                 :
DMF  .        MESA ROTATIVA              :
EDF  .M               24                 :
EGL  .M             -500                 :
EKB  .        N/A                        :
ENGI .        HERNANDEZ / LOCK           :
FL1  .        X   7292392.00 M LAT 24 28 47.189 S :
FL2  .        Y    584087.00 M LON 44 10 12.698 W :
FL3  .        MC  45 GRAUS               :
FN   .        BS-400                     :
LMF  .        MESA ROTATIVA              :
LUL  .        MACAE                      :
MCSS .        PRENSA                     :
MCST .DEGF            80                 :
MFSS .        PRENSA                     :
MFST .DEGF            80                 :
MSS  .        LINHA DE FLUXO             :
MST  .DEGF            80                 :
PDAT .        NIVEL DO MAR               :
R1   .        01. APRESENTAÇÃO DE ACORDO COM REQUERIMENTO DO CLIENTE :
R2   .        02. TEMPERATURA MÁXIMA DO POÇO T1=T2= 290 DEGF @  5275 M :
R3   .        03. INICIO DA CIRCULAÇÃO  12/11/2004 09 00 H :
R4   .        04. FINAL DA CIRCULAÇÃO   12/11/2004 18 00 H :
R5   .        05. TEMPO TOTAL DE CIRCULAÇÃO   09 00 H :
R6   .        06. FLUIDO DE PERFURAÇÃO  SINTETICO (BR-MUL  BR-MI)  60% TEOR DO OLEO :
R7   .        07. SALINIDADE DA LAMA  254762 PPM NACL NA FASE DE AGUA :
R8   .        08. INCLINAÇÃO MÁXIMA DO POÇO  37.37 GRAUS @ 5100 M :
R9   .        09. PRIMEIRAS E ULTIMAS LEITURAS  :
RMB  .OHMM    > 10                       :
RMCS .OHMM    > 10                       :
RMFS .OHMM    > 10                       :
RMS  .OHMM    >10                        :
RUN  .                 2                 :
STAT .        BRASIL                     :
TCS  .        18 00 H                    :
TDD  .M             5288                 :
TDL  .M             5293                 :
TLAB .        N/A                        :
TLI  .M             5000                 :
WITN .        ERNANI / ZE MARIA          :
WN   .        3-BRSA-293D-SPS            :
LUN  .              8808                 :
HIDE .        3-SPS-41D                  :
HID2 .        HIGH DEFINITION INDUCTION LOG :
HID3 .        X-MULTIPOLE ARRAY ACOUSTILOG :
HID4 .        GAMMA RAY LOG              :
HID5 .        TTRM SUB                   :
CLAB .        BACIA                      :
SLAB .        PAIS                       :
CMT1 .        ESC  1 200                 :
CMT2 .        PROF. MEDIDA               :
CMT4 .        SONDA  SS-43               :
HDAT .        SAD 69                     :
FL   .        BASE SAD 69                :
OS1  .        RCI/GR                     :
OS2  .        CHECK SHOT                 :
OS3  .        GR/CN/ZDL                  :
OS5  .        RCOR/GR                    :
LNAM .        ZDL/CN/XMAC/HDIL/EARTH IMAGER/RCI/RCOR/CHECK SHOT/GR :
TOOL .        ZDL/CN/XMAC/HDIL/EARTH IMAGER/RCI/RCOR/CHECK SHOT/GR :
LSOU .        PETROBRAS                  :
LSRV .        OH WIRELINE                :
LTYP .        RAW                        :
EPD  .M                0                 :
LDAT .        15/11/2004                 :
TRIP .                 3                 :
SON  .            786588                 :
CBDR .M             4277                 :
CBLO .        NR                         :
CBL1 .        NR                         :
STEM .DEGF    N/A                        :
BSAL .            254762                 :
BARI .        OFF                        :
DLAB .        12/11/2004                 :
MRT  .DEGF           290                 :
TSTR .        HDIL/XMAC/GR/TTRM          :
TSTG .        N/A                        :
STUS .        FINAL                      :
LCNM .        BAKER ATLAS                :
LCC  .               150                 :
NATI .        BRASIL                     :
OPMD .        OH.WIRELINE                :
PANA .        HERNANDEZ / LOCK           :
PCON .        BAKER ATLAS                :
R11  .        SL     5268.3 M / 5000.0 M :
R12  .        GR     5268.3 M / 5000.0 M :
R13  .        XMAC   5279.5 M / 5000.0 M :
R14  .        HDIL   5289.0 M / 5000.0 M :
R17  .        11. DECLINAÇÃO MAGNETICA  -20.9 GRAUS :
R18  .        12. COORDENADAS BASE       :
R21  .        Y    583936.00 M           :
R22  .        MC  45 GRAUS               :
PVER .           4.10000                 :
WDFN .        /space/expusr/3-SPS-41D_RUN2/i77bf01_2spf.xtf :
OCT  .        i77bf                      :
OS4  .        EARTH IMAGER               :
R16  .        10. PONTO FRACO UTILIZADO  10K :
R20  .        X   7292512.00 M           :
R24  .        13. CADASTRO ANP  86316021017 :
#-----------------------------------------------------------------------------
~CURVE INFORMATION
#MNEM.UNIT   API CODE                                  DESCRIPTION
#---- -----  --------                                  -----------------------
DEPT .M                                                :DEPTH (BOREHOLE) {F10.4}
DEPT .M                                                : {F13.4}
DT   .US/F                                             : {F13.4}
SFN1 .US                                               : {F13.4}
SFN2 .US                                               : {F13.4}
SFN3 .US                                               : {F13.4}
SFN4 .US                                               : {F13.4}
TT   .MS                                               : {F13.4}
#-----------------------------------------------------------------------------
# 
#     DEPT        DEPT         DT           SFN1         SFN2         SFN3         SFN4         TT
#
~A  
# ...
 5105.8572    5105.8572      66.7290     692.6355     724.1102     759.0561     776.8824      39.1253
 5105.7048    5105.7048      66.8934     692.7494     724.1250     761.7380     791.9307      39.1587
 5105.5524    5105.5524      67.2351     693.1234     724.2495     760.0074     793.9916      39.1924
 5105.4000    5105.4000      67.6079     694.7437     725.2462     760.1245     792.3813      39.2262
 5105.2476    5105.2476      67.8977     695.9957     726.9939     761.4952     792.7487      39.2601
 5105.0952    5105.0952      68.0598     696.0000     727.9969     764.7399     794.9930      39.2942
 5104.9428    5104.9428      68.1353     696.0000     728.0000     765.1240     796.8699      39.3283
 5104.7904    5104.7904      68.1849     696.0000     728.0000     765.6238     796.6256      39.3624
 5104.6380    5104.6380      68.1950     696.2495     728.0000     765.8745     798.8705      39.3965
 5104.4856    5104.4856      68.1254     696.1252     728.0000     765.3758     798.7502      39.4306
 5104.3332    5104.3332      67.9383     696.0002     728.0000     766.3737     797.3767      39.4645
 5104.1808    5104.1808      67.6218     694.6262     727.7502     767.4990     799.9977      39.4984
 5104.0284    5104.0284      67.2579     694.9998     726.6256     763.8769     798.8756      39.5320
 5103.8760    5103.8760      67.0284     694.8750     726.7500     762.7500     797.7500      39.5655
 5103.7236    5103.7236      66.9592     694.5000     726.6250     762.8750     794.8750      39.5990
 5103.5712    5103.5712      66.7491     692.1269     726.6235     762.8743     794.8749      39.6324
 5103.4188    5103.4188      66.1596     695.3755     724.1275     761.7494     794.7493      39.6655
 5103.2664    5103.2664      65.3094     695.8735     726.7510     761.1235     793.9985      39.6982
 5103.1140    5103.1140      64.7315     694.7553     727.4965     760.0053     792.8803      39.7303
 5102.9616    5102.9616      65.0269     682.1799     713.0631     752.0348     783.4163      39.7629
 5102.8092    5102.8092      66.2120     687.9766     719.9721     758.5986     789.3511      39.7960
 5102.6568    5102.6568      67.6322     688.0000     721.2455     759.9950     791.9905      39.8298
 5102.5044    5102.5044      68.5607     689.8689     722.8697     760.0000     792.0000      39.8641
 5102.3520    5102.3520      68.7746     689.9996     722.8750     760.0000     792.0000      39.8985
 5102.1996    5102.1996      68.5775     689.8753     722.0022     760.0000     792.3741      39.9328
 5102.0472    5102.0472      68.4449     689.7503     721.6258     760.0000     792.1255      39.9670
 5101.8948    5101.8948      68.5778     690.1243     721.3754     760.0000     792.0002      40.0013
 5101.7424    5101.7424      68.7640     690.1250     721.3750     760.0000     792.0000      40.0357
 5101.5900    5101.5900      68.7473     688.5017     721.3750     760.0000     792.0000      40.0701
 5101.4376    5101.4376      68.4322     692.6223     721.2501     760.0000     792.0000      40.1044
 5101.2852    5101.2852      67.8945     696.0000     725.1250     760.0000     792.1250      40.1383
 5101.1328    5101.1328      67.3591     694.6250     726.2500     762.2500     793.0000      40.1720
 5100.9804    5100.9804      67.0377     694.9991     725.1257     760.6248     797.3736      40.2055
 5100.8280    5100.8280      67.0124     692.9981     726.7481     760.1253     794.2499      40.2391
 5100.6756    5100.6756      67.2098     690.6259     724.3741     760.4994     794.1249      40.2727
 5100.5232    5100.5232      67.4675     691.3714     723.6286     760.0024     794.0006      40.3062
 5100.3708    5100.3708      67.6602     697.5970     723.8739     760.0000     792.7556      40.3400
 5100.2184    5100.2184      67.7500     698.7454     730.3483     760.6224     792.3765      40.3739
 5100.0660    5100.0660      67.8036     698.8745     729.5033     767.9724     793.6203      40.4078
 5099.9136    5099.9136      67.9085     698.5013     730.1229     768.0000     799.9785      40.4418
 5099.7612    5099.7612      68.0630     697.0045     729.1280     767.8754     800.0000      40.4758
 5099.6088    5099.6088      68.1702     697.0000     729.1250     767.8750     800.0000      40.5100
 5099.4564    5099.4564      68.1251     697.0000     729.1250     767.9997     800.0000      40.5440
 5099.3040    5099.3040      67.9096     697.0000     729.1250     768.0000     800.0000      40.5780
 5099.1516    5099.1516      67.6187     697.4992     729.1250     768.0000     800.0000      40.6118
 5098.9992    5098.9992      67.3875     696.0017     729.9990     768.0000     800.0000      40.6455
 5098.8468    5098.8468      67.2861     695.6253     727.6269     768.0000     800.0000      40.6792
 5098.6944    5098.6944      67.2917     695.5001     726.2506     761.5027     799.7501      40.7128
 5098.5420    5098.5420      67.3321     695.3750     726.0000     761.8750     795.2500      40.7465
 5098.3896    5098.3896      67.3379     695.7500     726.8750     762.8750     796.0000      40.7802
 5098.2372    5098.2372      67.2996     695.8751     727.4998     762.6260     796.6250      40.8139
 5098.0848    5098.0848      67.2913     696.0000     727.2507     764.1247     796.6254      40.8475
 5097.9324    5097.9324      67.3976     696.0000     727.8746     763.8759     797.0000      40.8812
 5097.7800    5097.7800      67.6319     696.0000     727.6261     764.4971     797.0000      40.9148
 5097.6276    5097.6276      67.9402     695.7511     727.2516     764.3755     797.9958      40.9488
 5097.4752    5097.4752      68.2305     695.5010     727.7481     764.1260     798.0000      40.9829
 5097.3228    5097.3228      68.4435     695.9982     727.8746     764.7478     797.8754      41.0172
 5097.1704    5097.1704      68.5876     696.0000     727.9996     765.3730     797.9996      41.0515
 5097.0180    5097.0180      68.7040     696.0000     728.0000     766.2476     798.4986      41.0858
 5096.8656    5096.8656      68.8609     696.0000     728.0000     766.8735     798.8741      41.1203
 5096.7132    5096.7132      69.1500     696.0000     728.0000     766.9997     799.1245      41.1549
 5096.5608    5096.5608      69.5689     696.8735     728.0000     765.5025     799.1250      41.1897
 5096.4084    5096.4084      69.9443     702.3679     732.2445     767.9968     798.8753      41.2247
 5096.2560    5096.2560      69.9995     703.8736     735.9965     771.9963     802.6215      41.2597
 5096.1036    5096.1036      69.5352     703.9999     736.0000     774.6235     806.1231      41.2945
 5095.9512    5095.9512      68.6519     704.0000     736.0000     771.3750     804.6250      41.3288
 5095.7988    5095.7988      67.7434     704.0000     736.0000     769.7500     804.6250      41.3627
 5095.6464    5095.6464      67.2167     702.8748     734.2493     770.0001     805.2501      41.3963
 5095.4940    5095.4940      67.2500     702.5001     733.0014     770.1245     805.3723      41.4299
 5095.3416    5095.3416      67.7173     702.6260     734.5008     769.6269     802.4992      41.4638
 5095.1892    5095.1892      68.2795     703.3715     735.1221     771.1179     801.8779      41.4977
 5095.0368    5095.0368      68.6305     703.6239     735.2495     771.8717     804.8619      41.5321
 5094.8844    5094.8844      68.6503     703.5005     735.9970     773.4935     806.4935      41.5664
 5094.7320    5094.7320      68.4616     703.9982     736.0000     773.5000     806.7491      41.6007
 5094.5796    5094.5796      68.3255     704.0000     736.0000     773.2508     806.7500      41.6348
 5094.4272    5094.4272      68.4474     704.0000     736.0000     773.9978     806.9993      41.6691
 5094.2748    5094.2748      68.8055     704.0000     736.0000     774.1247     806.5013      41.7035
 5094.1224    5094.1224      69.1782     704.0000     736.0000     775.4970     807.9968      41.7381
 5093.9700    5093.9700      69.3538     704.0000     736.1248     775.5000     808.0000      41.7728
