~VERSION INFORMATION
VERS.           2.0   :CWLS Log ASCII Standard - VERSION 2.0
WRAP.           NO    :One Line per depth step
PROD.  Schlumberger   :LAS Producer
PROG.  DLIS to ASCII 2.3                               :LAS Program name and version
CREA.        2023/07/14 00:15                          :LAS Creation date {YYYY/MM/DD hh:mm}
DLIS_CREA.  2023-Jul-14 00:11                          :DLIS Creation date and time {YYYY-MMM-DD hh:mm}
SOURCE.     LIS_001.dlis                               :DLIS File Name
FILE-ID.     LIS   .001                                :File Identification Number
#--------------------------------------------------
~WELL INFORMATION
#MNEM.UNIT      DATA             DESCRIPTION
#---- ------ --------------   -----------------------------
STRT .M      5244.5412       :START DEPTH     
STOP .M      5059.0704       :STOP DEPTH     
STEP .M        -0.1524       :STEP     
NULL .          -999.25      :NULL VALUE
COMP .        PETROBRAS S.A.                           :COMPANY
WELL .        3-BRSA-293D-SPS                          :WELL
FLD  .        BS-400                                   :FIELD
LOC  .        BASE SAD 69:                             :LOCATION
CNTY .        SANTOS                                   :COUNTY
STAT .        BRASIL                                   :STATE
CTRY .        BRASIL                                   :COUNTRY
API  .                                                 :API NUMBER
UWI  .                                                 :UNIQUE WELL ID
DATE .        22/10/2004                               :LOG DATE
SRVC .        Schlumberger                             :SERVICE COMPANY
LATI .DEG                                              :LATITUDE
LONG .DEG                                              :LONGITUDE
GDAT .                                                 :GeoDetic Datum
#-----------------------------------------------------------------------------
~PARAMETER INFORMATION
#MNEM.UNIT    VALUE                      DESCRIPTION
#---- -----   --------------------       ------------------------
APD  .M               24                 :
BHT  .DEGF           260                 :
BLI  .M       5227.50000                 :
BS   .IN         8.50000                 :
CN   .        PETROBRAS S.A.             :
COUN .        SANTOS                     :
CS   .IN         9.62500                 :
DATE .        22/10/2004                 :
DFD  .LB/G      12.30000                 :
DFL  .C3               2                 :
DFPH .        N/A                        :
DFT  .        SINTETICO                  :
DFV  .S               87                 :
DMF  .        MESA ROTATIVA              :
EDF  .M               24                 :
EGL  .M             -500                 :
EKB  .        N/A                        :
ENGI .        HERNANDEZ/LOCK             :
FL1  .        X   7292392.00 M LAT 24 28 47.189 S :
FL2  .        Y    584087.00 M LON 44 10 12.698 W :
FL3  .        MC  45 GRAUS               :
FN   .        BS-400                     :
LMF  .        MESA ROTATIVA              :
LUL  .        MACAE                      :
MCSS .        PRENSA                     :
MCST .DEGF            80                 :
MFSS .        PRENSA                     :
MFST .DEGF            80                 :
MSS  .        LINHA DE FLUXO             :
MST  .DEGF            80                 :
PDAT .        NIVEL DO MAR               :
R1   .        01. APRESENTAÇÃO DE ACORDO COM REQUERIMENTO DO CLIENTE :
R2   .        02. TEMPERATURA MÁXIMA DO POÇO T1=T2= 260 DEGF @  5180 M :
R3   .        03. INICIO DA CIRCULAÇÃO  13 45 H 21/10/2004 :
R4   .        04. FINAL DA CIRCULAÇÃO   16 00 H 21/10/2004 :
R5   .        05. TEMPO TOTAL DE CIRCULAÇÃO  02 15 H :
R6   .        06. FLUIDO DE PERFURAÇÃO  SINTETICO (BR-MUL  BR-MI)  65% TEOR DO OLEO :
R7   .        07. SALINIDADE DA LAMA  266377 PPM NACL NA FASE DE AGUA :
R8   .        08. INCLINAÇÃO MÁXIMA DO POÇO  37.37 GRAUS @ 5100 M :
R9   .        09. PRIMEIRAS E ULTIMAS LEITURAS  :
RMB  .OHMM    > 10                       :
RMCS .OHMM    > 10                       :
RMFS .OHMM    > 10                       :
RMS  .OHMM    > 10                       :
RUN  .                 1                 :
STAT .        BRASIL                     :
TCS  .        16 00 H                    :
TDD  .M             5230                 :
TDL  .M             5231                 :
TLAB .        N/A                        :
TLI  .M             3850                 :
WITN .        ALCIDIO/VLADIMIR           :
WN   .        3-BRSA-293D-SPS            :
LUN  .              8808                 :
HIDE .        3-SPS-41D                  :
HID2 .        HIGH DEFINITION INDUCTION LOG :
HID3 .        X-MULTIPOLE ARRAY ACOUSTILOG :
HID4 .        GAMMA RAY LOG              :
HID5 .        TTRM SUB                   :
CLAB .        BACIA                      :
SLAB .        PAIS                       :
CMT1 .        ESC  1 1000                :
CMT2 .        PROF. MEDIDA               :
CMT4 .        SONDA  SS-43               :
HDAT .        SAD 69                     :
FL   .        BASE SAD 69                :
OS1  .        GR/CN/ZDL                  :
OS2  .        MREX/GR                    :
OS3  .        RCI/GR                     :
0S4  .        3DEX/GR                    :
OS5  .        SL/GR                      :
LNAM .        MREX/ZDL/CN/XMAC/HDIL/RCI/3DEX/SL/GR :
TOOL .        MREX/ZDL/CN/XMAC/HDIL/RCI/3DEX/SL/GR :
LSOU .        PETROBRAS                  :
LSRV .        OH WIRELINE                :
LTYP .        RAW                        :
EPD  .M                0                 :
LDAT .        22/10/2004                 :
TRIP .                 1                 :
SON  .            772317                 :
CBDR .M             4277                 :
CBLO .M             4277                 :
CBL1 .M             4277                 :
STEM .DEGF    N/A                        :
BSAL .            266377                 :
BARI .        OFF                        :
DLAB .        21/10/2004                 :
MRT  .DEGF           260                 :
TSTR .        HDIL/XMAC/GR/TTRM          :
TSTG .        N/A                        :
STUS .        FINAL                      :
LCNM .        BAKER ATLAS                :
LCC  .               150                 :
NATI .        BRASIL                     :
OPMD .        OH.WIRELINE                :
PANA .        HERNANDEZ/LOCK             :
PCON .        BAKER ATLAS                :
R11  .        SL     5196.0 M/4960.0 M   :
R12  .        GR     4960.0 M/4277.0 M   :
R13  .        XMAC   5202.0 M/3850.0 M   :
R14  .        HDIL   5227.5 M/4277.0 M   :
R15  .        3DEX   5217.0 M/4960.0 M   :
R17  .        10. PONTO FRACO UTILIZADO  10K :
R18  .        11. DECLINAÇÃO MAGNETICA  -20.9 GRAUS :
R19  .        12. COORDENADAS ARATU      :
R21  .        X   7292512.00 M           :
R22  .        Y    583936.00 M           :
R23  .        MC  45 GRAUS               :
R25  .        13. CADASTRO ANP  86316021017 :
PVER .           4.10000                 :
WDFN .        /space/expusr/3-SPS-41D/i77bf02_2spf.xtf :
OCT  .        i77bf                      :
#-----------------------------------------------------------------------------
~CURVE INFORMATION
#MNEM.UNIT   API CODE                                  DESCRIPTION
#---- -----  --------                                  -----------------------
DEPT .M                                                :DEPTH (BOREHOLE) {F10.4}
DEPT .M                                                : {F13.4}
DT   .US/F                                             : {F13.4}
SFN1 .US                                               : {F13.4}
SFN2 .US                                               : {F13.4}
SFN3 .US                                               : {F13.4}
SFN4 .US                                               : {F13.4}
TT   .MS                                               : {F13.4}
#-----------------------------------------------------------------------------
# 
#     DEPT        DEPT         DT           SFN1         SFN2         SFN3         SFN4         TT
#
~A  
# ...
 5184.3432    5184.3432      70.0094     678.3726     709.7378     743.6163     775.7455       6.2205
 5184.1908    5184.1908      70.5479     683.2381     710.4982     745.9942     775.9994       6.2558
 5184.0384    5184.0384      70.1588     692.9799     719.1072     749.3680     782.3619       6.2909
 5183.8860    5183.8860      68.8156     692.6256     723.7422     753.3682     780.3784       6.3253
 5183.7336    5183.7336      67.1397     694.6224     728.4937     762.9873     789.7376       6.3589
 5183.5812    5183.5812      66.1796     695.9987     723.7545     757.2555     787.6270       6.3920
 5183.4288    5183.4288      66.6155     688.3795     720.0022     752.6277     785.8760       6.4254
 5183.2764    5183.2764      68.2060     696.0000     721.1250     759.3750     790.2500       6.4595
 5183.1240    5183.1240      69.9308     698.3750     729.8750     760.7500     795.7500       6.4944
 5182.9716    5182.9716      70.8973     703.0038     733.8774     768.8768     796.5044       6.5299
 5182.8192    5182.8192      71.3039     710.2446     738.5020     772.3754     804.8743       6.5656
 5182.6668    5182.6668      72.3074     704.2740     740.7539     772.8867     804.1332       6.6017
 5182.5144    5182.5144      74.8330     723.2374     743.8834     782.1150     810.6293       6.6392
 5182.3620    5182.3620      78.3648     715.5137     749.0082     776.0340     813.2550       6.6784
 5182.2096    5182.2096      81.0651     722.3839     753.1318     792.9938     815.7761       6.7189
 5182.0572    5182.0572      81.3122     726.1247     756.0130     790.3877     826.7462       6.7596
 5181.9048    5181.9048      78.8584     725.9814     760.7302     794.9907     825.3633       6.7990
 5181.7524    5181.7524      74.8514     719.9996     754.3668     791.9879     821.6332       6.8365
 5181.6000    5181.6000      70.7323     719.8753     752.0061     788.5089     823.9939       6.8716
 5181.4476    5181.4476      67.1677     720.6234     755.8665     791.3687     824.0000       6.9052
 5181.2952    5181.2952      64.3846     710.1442     748.8878     786.3841     824.0000       6.9374
 5181.1428    5181.1428      62.7572     696.0206     728.0304     768.0268     806.4007       6.9688
 5180.9904    5180.9904      63.1637     702.3681     726.8762     766.6265     800.0069       7.0004
 5180.8380    5180.8380      66.0469     696.0046     733.6202     763.7521     796.8772       7.0334
 5180.6856    5180.6855      70.6321     703.3750     736.0000     776.0000     804.2500       7.0688
 5180.5332    5180.5332      75.1551     700.7500     743.7500     777.6250     811.3750       7.1064
 5180.3808    5180.3809      77.7057     757.8750     728.0000     819.0000     855.1250       7.1452
 5180.2284    5180.2284      77.6149     696.0061     797.9529     831.9577     863.3330       7.1840
 5180.0760    5180.0760      75.9989     703.4926     736.0082     776.2528     808.0104       7.2221
 5179.9236    5179.9236      74.5481     254.9328     743.2569     778.7644     817.2423       7.2593
 5179.7712    5179.7712      74.2178     710.2911     747.9497     788.3489     812.1206       7.2965
 5179.6188    5179.6188      74.7956     732.1620     787.8633     774.3607     809.7405       7.3339
 5179.4664    5179.4664      75.0979     692.8623     781.3319     766.8293     805.4893       7.3714
 5179.3140    5179.3140      74.0799     687.9903     287.5431     319.9527     801.3824       7.4085
 5179.1616    5179.1616      71.7128     684.7641     720.9967     764.9834     802.3667       7.4444
 5179.0092    5179.0092      68.7338     688.9886     720.0027     760.0134     351.0918       7.4785
 5178.8568    5178.8568      66.2538     680.1457     720.0000     753.0163     793.9637       7.5117
 5178.7044    5178.7044      65.5772     680.0002     706.0274     810.7616     847.0229       7.5445
 5178.5520    5178.5520      67.1238     675.3824     707.9968     743.1079     971.9263       7.5780
 5178.3996    5178.3996      69.9211     686.6113     711.9951     751.9890     784.2296       7.6130
 5178.2472    5178.2472      72.2443     697.7405     727.9864     755.8717     792.6177       7.6491
 5178.0948    5178.0948      72.6731     716.1161     743.6175     773.6164     799.2468       7.6855
 5177.9424    5177.9424      71.0812     712.5000     743.5000     776.6250     807.1250       7.7210
 5177.7900    5177.7900      68.5675     708.0000     741.0000     776.7500     805.2500       7.7553
 5177.6376    5177.6376      66.3352     705.3724     736.3748     774.4976     807.7481       7.7885
 5177.4852    5177.4852      64.8984     900.6766     735.9968     770.6224     804.7448       7.8210
 5177.3328    5177.3328      64.2858     701.5034     732.7456     768.0000     799.5015       7.8531
 5177.1804    5177.1804      64.4782     704.0015     729.5048     767.9981     800.6153       7.8854
 5177.0280    5177.0280      65.2400     704.8566     732.2663     766.8795     795.0100       7.9180
 5176.8756    5176.8756      66.0496     696.1333     739.9740     769.0266     799.7537       7.9511
 5176.7232    5176.7232      66.3919     699.4901     729.4957     779.6989     801.3533       7.9843
 5176.5708    5176.5708      66.0838     695.9486     727.9743     761.7360     837.4601       8.0173
 5176.4184    5176.4184      65.4139     680.0213     719.9751     757.3617     786.2642       8.0500
 5176.2660    5176.2660      64.6924     685.9853     713.0171     753.6342     790.2402       8.0822
 5176.1136    5176.1136      63.8748     686.1247     718.3638     752.0034     790.8737       8.1141
 5175.9612    5175.9612      62.8978     692.4890     718.0006     752.3744     784.0118       8.1456
 5175.8088    5175.8088      62.0810     691.3765     721.8698     751.6260     783.8752       8.1767
 5175.6564    5175.6564      61.9644     679.8863     719.8770     751.9996     779.6292       8.2076
 5175.5040    5175.5040      62.8541     675.0030     706.3833     750.5009     778.3758       8.2391
 5175.3516    5175.3516      64.5709     673.1250     709.7500     746.2500     784.0000       8.2714
 5175.1992    5175.1992      66.4686     667.3750     706.0000     738.3750     771.6250       8.3046
 5175.0468    5175.0468      67.9526     667.2493     698.5023     739.1236     771.7510       8.3386
 5174.8944    5174.8944      68.6942     665.8807     703.1231     736.2527     773.7476       8.3730
 5174.7420    5174.7420      68.4149     672.5065     700.8805     739.3722     771.0040       8.4072
 5174.5896    5174.5896      67.2653     677.7432     705.3782     737.1270     774.2420       8.4408
 5174.4372    5174.4372      66.2372     673.4970     707.3684     738.3765     769.2473       8.4740
 5174.2848    5174.2848      66.6122     671.9982     703.9901     739.1116     767.8855       8.5073
 5174.1324    5174.1324      68.9746     671.2436     699.7615     733.3821     772.3615       8.5418
 5173.9800    5173.9800      72.5744     668.8892     703.9812     736.0135     767.3765       8.5781
 5173.8276    5173.8276      75.7412     673.4859     697.8810     740.3369     767.8664       8.6160
 5173.6752    5173.6752      77.1673     669.3856     699.6205     729.2787     765.3814       8.6543
 5173.5228    5173.5228      76.8299     664.7603     697.2553     733.4905     760.0120       8.6928
 5173.3704    5173.3704      75.6052     672.8599     696.7509     735.9954     766.8622       8.7306
 5173.2180    5173.2180      74.3543     678.9909     708.2329     737.9970     771.4931       8.7678
 5173.0656    5173.0656      73.5181     689.6131     712.7450     747.2397     773.7475       8.8045
 5172.9132    5172.9132      73.0675     691.2488     724.6161     751.9964     787.6146       8.8411
 5172.7608    5172.7607      72.6843     689.6250     722.6250     760.0000     784.0000       8.8775
 5172.6084    5172.6084      72.1052     695.2500     728.0000     764.3750     797.2500       8.9135
 5172.4560    5172.4561      71.2294     694.0000     728.1250     764.8750     798.5000       8.9491
