~VERSION INFORMATION
VERS.           2.0   :CWLS Log ASCII Standard - VERSION 2.0
WRAP.           YES   :Multiple lines per depth step
PROD.  Schlumberger   :LAS Producer
PROG.  DLIS to ASCII 2.3                               :LAS Program name and version
CREA.        2023/07/14 00:15                          :LAS Creation date {YYYY/MM/DD hh:mm}
DLIS_CREA.  2023-Jul-14 00:11                          :DLIS Creation date and time {YYYY-MMM-DD hh:mm}
SOURCE.     LIS_013.dlis                               :DLIS File Name
FILE-ID.     LIS   .002                                :File Identification Number
#--------------------------------------------------
~WELL INFORMATION
#MNEM.UNIT      DATA             DESCRIPTION
#---- ------ --------------   -----------------------------
STRT .M      5299.5576       :START DEPTH     
STOP .M      4241.4444       :STOP DEPTH     
STEP .M        -0.1524       :STEP     
NULL .          -999.25      :NULL VALUE
COMP .        PETROBRAS S.A.                           :COMPANY
WELL .        3-BRSA-293D-SPS                          :WELL
FLD  .        BS-400                                   :FIELD
LOC  .        BASE SAD 69:                             :LOCATION
CNTY .        SANTOS                                   :COUNTY
STAT .        BRASIL                                   :STATE
CTRY .        BRASIL                                   :COUNTRY
API  .                                                 :API NUMBER
UWI  .                                                 :UNIQUE WELL ID
DATE .        15/11/2004                               :LOG DATE
SRVC .        Schlumberger                             :SERVICE COMPANY
LATI .DEG                                              :LATITUDE
LONG .DEG                                              :LONGITUDE
GDAT .                                                 :GeoDetic Datum
#-----------------------------------------------------------------------------
~PARAMETER INFORMATION
#MNEM.UNIT    VALUE                      DESCRIPTION
#---- -----   --------------------       ------------------------
APD  .M               24                 :
BHT  .DEGF           260                 :
BLI  .M             5289                 :
BS   .IN         8.50000                 :
CN   .        PETROBRAS S.A.             :
COUN .        SANTOS                     :
CS   .IN         9.62500                 :
DATE .        15/11/2004                 :
DFD  .LB/G      12.30000                 :
DFL  .C3               2                 :
DFPH .        N/A                        :
DFT  .        SINTETICO                  :
DFV  .S               95                 :
DMF  .        MESA ROTATIVA              :
EDF  .M               24                 :
EGL  .M             -500                 :
EKB  .        N/A                        :
ENGI .        HERNANDEZ / LOCK           :
FL1  .        X   7292392.00 M LAT 24 28 47.189 S :
FL2  .        Y    584087.00 M LON 44 10 12.698 W :
FL3  .        MC  45 GRAUS               :
FN   .        BS-400                     :
LMF  .        MESA ROTATIVA              :
LUL  .        MACAE                      :
MCSS .        PRENSA                     :
MCST .DEGF            80                 :
MFSS .        PRENSA                     :
MFST .DEGF            80                 :
MSS  .        LINHA DE FLUXO             :
MST  .DEGF            80                 :
PDAT .        NIVEL DO MAR               :
R1   .        01. APRESENTAÇÃO DE ACORDO COM REQUERIMENTO DO CLIENTE :
R2   .        02. TEMPERATURA MÁXIMA DO POÇO T1=T2= 292 DEGF @  5277 M :
R3   .        03. INICIO DA CIRCULAÇÃO  12/11/2004 09 00 H :
R4   .        04. FINAL DA CIRCULAÇÃO   12/11/2004 18 00 H :
R5   .        05. TEMPO TOTAL DE CIRCULAÇÃO   09 00 H :
R6   .        06. FLUIDO DE PERFURAÇÃO  SINTETICO (BR-MUL  BR-MI)  60% TEOR DO OLEO :
R7   .        07. SALINIDADE DA LAMA  254762 PPM NACL NA FASE DE AGUA :
R8   .        08. INCLINAÇÃO MÁXIMA DO POÇO  37.37 GRAUS @ 5100 M :
R9   .        09. PRIMEIRAS E ULTIMAS LEITURAS  :
RMB  .OHMM    > 10                       :
RMCS .OHMM    > 10                       :
RMFS .OHMM    > 10                       :
RMS  .OHMM    >10                        :
RUN  .                 2                 :
STAT .        BRASIL                     :
TCS  .        18 00 H                    :
TDD  .M             5288                 :
TDL  .M             5293                 :
TLAB .        N/A                        :
TLI  .M             4277                 :
WITN .        ERNANI / ZE MARIA          :
WN   .        3-BRSA-293D-SPS            :
LUN  .              8808                 :
HIDE .        3-SPS-41D                  :
HID2 .        COMPENSATED Z-DENSILOG     :
HID3 .        COMPENSATED NEUTRON LOG    :
HID4 .        GAMMA RAY LOG              :
HID5 .        TTRM SUB                   :
CLAB .        BACIA                      :
SLAB .        PAIS                       :
CMT1 .        ESC  1 1000                :
CMT2 .        PROF. MEDIDA               :
CMT4 .        SONDA  SS-43               :
HDAT .        SAD 69                     :
FL   .        BASE SAD 69                :
OS1  .        RCI/GR                     :
OS2  .        CHECK SHOT                 :
OS3  .        GR/XMAC/HDIL               :
OS5  .        RCOR/GR                    :
LNAM .        ZDL/CN/XMAC/HDIL/EARTH IMAGER/RCI/RCOR/CHECK SHOT/GR :
TOOL .        ZDL/CN/XMAC/HDIL/EARTH IMAGER/RCI/RCOR/CHECK SHOT/GR :
LSOU .        PETROBRAS                  :
LSRV .        OH WIRELINE                :
LTYP .        RAW                        :
EPD  .M                0                 :
LDAT .        15/11/2004                 :
TRIP .                 4                 :
SON  .            786588                 :
CBDR .M             4277                 :
CBLO .        NR                         :
CBL1 .        NR                         :
STEM .DEGF    N/A                        :
BSAL .            254762                 :
BARI .        OFF                        :
DLAB .        12/11/2004                 :
MRT  .DEGF           292                 :
TSTR .        ZDL/CN/GR/TTRM             :
TSTG .        N/A                        :
STUS .        FINAL                      :
LCNM .        BAKER ATLAS                :
LCC  .               150                 :
NATI .        BRASIL                     :
OPMD .        OH.WIRELINE                :
PANA .        HERNANDEZ / LOCK           :
PCON .        BAKER ATLAS                :
R11  .        GR     5268.3 M / 4277.0 M :
R12  .        CN     5286.5 M / 5128.0 M (FERRAMENTA PERDEU LEITURA ACIMA DE 5128M) :
R13  .        ZDL    5292.0 M / 4277.0 M :
R15  .        10. PONTO FRACO UTILIZADO  10K :
R17  .        12. COORDENADAS BASE       :
R19  .        X   7292512.00 M           :
R21  .        MC  45 GRAUS               :
R23  .        13. CADASTRO ANP  86316021017 :
PVER .           4.10000                 :
WDFN .        /space/expusr/3-SPS-41D_RUN2/i77bf04_8spf.xtf :
OCT  .        i77bf                      :
OS4  .        EARTH IMAGER               :
R16  .        11. DECLINAÇÃO MAGNETICA  -20.9 GRAUS :
R20  .        Y    583936.00 M           :
#-----------------------------------------------------------------------------
~CURVE INFORMATION
#MNEM.UNIT   API CODE                                  DESCRIPTION
#---- -----  --------                                  -----------------------
DEPT .M                                                :DEPTH (BOREHOLE) {F10.4}
DEPT .M                                                : {F13.4}
BIT  .IN                                               : {F13.4}
DEPM .M                                                : {F13.4}
GR   .GAPI                                             : {F13.4}
SPD  .M/MN                                             : {F13.4}
TTEN .LBF                                              : {F13.4}
CAL  .IN                                               : {F13.4}
CALX .IN                                               : {F13.4}
HRD1 .HZ                                               : {F13.4}
HRD2 .HZ                                               : {F13.4}
PE   .B/E                                              : {F13.4}
SFT2 .HZ                                               : {F13.4}
SOFT .HZ                                               : {F13.4}
SSD  .HZ                                               : {F13.4}
ZCOR .G/C3                                             : {F13.4}
ZDEN .G/C3                                             : {F13.4}
CNC  .PU                                               : {F13.4}
CN   .PU                                               : {F13.4}
LSN  .HZ                                               : {F13.4}
SSN  .HZ                                               : {F13.4}
CNCF .PU                                               : {F13.4}
MMRK .MN                                               : {F13.4}
#-----------------------------------------------------------------------------
# DEPT       
#     DEPT         BIT          DEPM         GR           SPD          TTEN         
#     CAL          CALX         HRD1         HRD2         PE           SFT2         
#     SOFT         SSD          ZCOR         ZDEN         CNC          CN           
#     LSN          SSN          CNCF         MMRK         
~A  
# ...
4544.2632
   4544.2632       8.5000    4542.3911      89.2899       7.8053    6639.4268
      9.1374       9.1374     657.3475     849.9786       4.5359     523.2466
    395.9373    6844.3733      -0.0239       2.5621       0.0000      19.0034
   1258.8310    3112.2814      18.3494       0.0000
4544.1108
   4544.1108       8.5000    4542.2378      88.8760       7.7909    6644.6841
      9.1376       9.1376     667.5056     838.7825       4.5475     527.9463
    395.5452    6847.0145      -0.0234       2.5621       0.0000      19.3996
   1234.9011    3086.9553      18.7375       0.0000
4543.9584
   4543.9584       8.5000    4542.0854      88.1867       7.7812    6658.0656
      9.1392       9.1392     671.8922     827.7883       4.5779     531.8338
    395.9301    6870.3162      -0.0191       2.5639       0.0000      19.3858
   1237.1787    3091.4724      18.7228       0.0000
4543.8060
   4543.8060       8.5000    4541.9320      88.6090       7.7727    6677.3455
      9.1425       9.1425     665.9894     825.4051       4.6104     533.8615
    389.9102    6858.0977      -0.0192       2.5661       0.0000      19.0584
   1257.6518    3114.1909      18.3996       0.0000
4543.6536
   4543.6536       8.5000    4541.7796      90.5160       7.7594    6694.2411
      9.1457       9.1457     656.4654     829.7472       4.6865     531.1678
    379.9546    6814.2365      -0.0242       2.5672       0.0000      18.6883
   1277.1150    3129.5789      18.0348       0.0000
4543.5012
   4543.5012       8.5000    4541.6262      91.7412       7.7527    6698.1305
      9.1466       9.1466     661.2254     830.5279       4.7697     522.6891
    378.1158    6809.8650      -0.0258       2.5654       0.0000      18.5242
   1281.4033    3125.4203      17.8734       0.0000
4543.3488
   4543.3488       8.5000    4541.4738      91.1736       7.7690    6673.1433
      9.1463       9.1463     673.0610     828.8844       4.5384     517.7637
    392.4884    6856.5896      -0.0213       2.5623       0.0000      18.6125
   1267.7269    3099.8720      17.9601       0.0000
4543.1964
   4543.1964       8.5000    4541.3204      89.9675       7.7974    6631.4928
      9.1470       9.1470     669.4635     829.7985       4.1727     526.1619
    415.0258    6882.7276      -0.0174       2.5625       0.0000      18.8312
   1243.2639    3058.9879      18.1738       0.0000
4543.0440
   4543.0439       8.5000    4541.1670      90.7404       7.8150    6613.5273
      9.1487       9.1487     659.5206     823.9569       3.9562     544.5265
    425.2729    6864.1816      -0.0170       2.5668       0.0000      19.1552
   1215.7017    3018.4492      18.4900       0.0000
4542.8916
   4542.8916       8.5000    4541.0146      93.6901       7.8137    6629.4619
      9.1497       9.1497     658.9819     807.5891       3.9317     556.7003
    418.5702    6849.3018      -0.0159       2.5721       0.0000      19.5477
   1190.4409    2987.8887      18.8739       0.0000
4542.7392
   4542.7393       8.5000    4540.8613      95.4948       7.8011    6644.7725
      9.1500       9.1500     653.7137     799.9353       4.1298     559.3507
    403.1138    6856.0684      -0.0126       2.5754       0.0000      19.7727
   1171.1328    2957.4790      19.0943       0.0000
4542.5868
   4542.5868       8.5000    4540.7089      94.7411       7.7868    6644.9498
      9.1506       9.1506     640.4788     819.0153       4.5366     552.0446
    388.1973    6872.2926      -0.0115       2.5739       0.0000      19.7367
   1160.9303    2928.8654      19.0584       0.0000
4542.4344
   4542.4344       8.5000    4540.5555      93.3912       7.7767    6646.0275
      9.1513       9.1513     638.5425     841.4829       4.8887     538.2885
    379.5396    6893.7444      -0.0124       2.5693       0.0000      19.4947
   1168.3243    2928.1500      18.8208       0.0000
4542.2820
   4542.2820       8.5000    4540.4031      93.2293       7.7616    6666.7731
      9.1513       9.1513     647.0025     842.5920       4.9806     524.7461
    375.5752    6877.6577      -0.0163       2.5679       0.0000      19.2020
   1191.5424    2962.3340      18.5340       0.0000
4542.1296
   4542.1296       8.5000    4540.2507      93.2443       7.7371    6716.7630
      9.1507       9.1507     646.7193     824.8005       4.8996     518.2788
    371.1120    6822.8507      -0.0204       2.5735       0.0000      19.0660
   1209.5467    2995.7530      18.4011       0.0000
4541.9772
   4541.9772       8.5000    4540.0983      92.2954       7.7254    6782.3767
      9.1502       9.1502     635.3272     800.0115       4.7907     512.2455
    368.4821    6794.9357      -0.0174       2.5832       0.0000      19.0127
   1211.3374    2995.7197      18.3493       0.0000
4541.8248
   4541.8248       8.5000    4539.9449      90.3757       7.7609    6803.9727
      9.1496       9.1496     627.0694     781.6723       4.7423     502.8062
    367.0419    6796.0852      -0.0122       2.5902       0.0000      19.1525
   1195.2512    2967.4611      18.4867       0.0000
4541.6724
   4541.6724       8.5000    4539.7915      88.8912       7.8226    6748.7304
      9.1491       9.1491     629.8220     782.1946       4.7381     500.2634
    365.7697    6780.6456      -0.0150       2.5903       0.0000      19.9258
   1158.6116    2937.7276      19.2450       0.0000
4541.5200
   4541.5200       8.5000    4539.6391      88.9518       7.8537    6666.2828
      9.1481       9.1481     629.7717     792.1428       4.7236     507.6895
    366.9557    6759.6165      -0.0197       2.5880       0.0000      20.6213
   1132.3558    2924.5091      19.9280       0.0000
4541.3676
   4541.3676       8.5000    4539.4858      90.1494       7.8390    6621.1394
      9.1469       9.1469     623.0719     794.1714       4.7150     513.4783
    365.3289    6759.9949      -0.0188       2.5879       0.0000      19.5254
   1167.0751    2926.8321      18.8542       0.0000
4541.2152
   4541.2152       8.5000    4539.3334      91.3950       7.8112    6610.3324
      9.1470       9.1470     625.7973     792.1012       4.7187     509.5626
    360.7679    6784.5336      -0.0156       2.5861       0.0000      16.8763
   1264.7305    2934.9660      16.2610       0.0000
4541.0628
   4541.0628       8.5000    4539.1810      92.5215       7.7859    6610.0909
      9.1476       9.1476     644.0436     794.1422       4.7040     507.3688
    364.6614    6821.2161      -0.0144       2.5798       0.0000      14.4345
   1374.6537    2942.8626      13.8758       0.0000
4540.9104
   4540.9104       8.5000    4539.0276      93.1511       7.7633    6625.8198
      9.1465       9.1465     663.1143     800.8343       4.6425     512.3789
    376.7634    6849.7393      -0.0154       2.5720       0.0000      12.9343
   1456.4415    2951.9354      12.4133       0.0000
4540.7580
   4540.7580       8.5000    4538.8752      92.4742       7.7484    6664.9279
      9.1454       9.1454     670.4598     813.7086       4.5994     518.6604
    386.9288    6863.3215      -0.0172       2.5660       0.0000      12.4400
   1488.1824    2959.5354      11.9320       0.0000
4540.6056
   4540.6056       8.5000    4538.7218      91.7748       7.7431    6707.1563
      9.1461       9.1461     668.1372     827.2360       4.5604     518.5760
    394.4052    6873.5121      -0.0179       2.5625       0.0000      12.4476
   1487.5008    2959.0619      11.9391       0.0000
4540.4532
   4540.4532       8.5000    4538.5684      93.0078       7.7452    6729.8469
      9.1451       9.1451     665.0513     831.0269       4.5244     511.0499
    399.6310    6871.5100      -0.0183       2.5625       0.0000      12.1012
   1506.1500    2955.3454      11.6020       0.0000
4540.3008
   4540.3008       8.5000    4538.4160      93.4276       7.7716    6719.6396
      9.1400       9.1400     658.2263     818.8088       4.5039     499.1104
    396.5803    6830.2168      -0.0204       2.5681       0.0000      11.5139
   1549.9185    2969.6553      11.0325       0.0000
4540.1484
   4540.1484       8.5000    4538.2627      90.3724       7.8132    6688.6816
      9.1341       9.1341     643.1112     796.9736       4.5119     489.8418
    382.9832    6755.2178      -0.0237       2.5785       0.0000      11.4180
   1584.8640    3024.7119      10.9420       0.0000
