~VERSION INFORMATION
VERS.           2.0   :CWLS Log ASCII Standard - VERSION 2.0
WRAP.           YES   :Multiple lines per depth step
PROD.  Schlumberger   :LAS Producer
PROG.  DLIS to ASCII 2.3                               :LAS Program name and version
CREA.        2023/07/14 00:15                          :LAS Creation date {YYYY/MM/DD hh:mm}
DLIS_CREA.  2023-Jul-14 00:11                          :DLIS Creation date and time {YYYY-MMM-DD hh:mm}
SOURCE.     LIS_013.dlis                               :DLIS File Name
FILE-ID.     LIS   .002                                :File Identification Number
#--------------------------------------------------
~WELL INFORMATION
#MNEM.UNIT      DATA             DESCRIPTION
#---- ------ --------------   -----------------------------
STRT .M      5299.5576       :START DEPTH     
STOP .M      4241.4444       :STOP DEPTH     
STEP .M        -0.1524       :STEP     
NULL .          -999.25      :NULL VALUE
COMP .        PETROBRAS S.A.                           :COMPANY
WELL .        3-BRSA-293D-SPS                          :WELL
FLD  .        BS-400                                   :FIELD
LOC  .        BASE SAD 69:                             :LOCATION
CNTY .        SANTOS                                   :COUNTY
STAT .        BRASIL                                   :STATE
CTRY .        BRASIL                                   :COUNTRY
API  .                                                 :API NUMBER
UWI  .                                                 :UNIQUE WELL ID
DATE .        15/11/2004                               :LOG DATE
SRVC .        Schlumberger                             :SERVICE COMPANY
LATI .DEG                                              :LATITUDE
LONG .DEG                                              :LONGITUDE
GDAT .                                                 :GeoDetic Datum
#-----------------------------------------------------------------------------
~PARAMETER INFORMATION
#MNEM.UNIT    VALUE                      DESCRIPTION
#---- -----   --------------------       ------------------------
APD  .M               24                 :
BHT  .DEGF           260                 :
BLI  .M             5289                 :
BS   .IN         8.50000                 :
CN   .        PETROBRAS S.A.             :
COUN .        SANTOS                     :
CS   .IN         9.62500                 :
DATE .        15/11/2004                 :
DFD  .LB/G      12.30000                 :
DFL  .C3               2                 :
DFPH .        N/A                        :
DFT  .        SINTETICO                  :
DFV  .S               95                 :
DMF  .        MESA ROTATIVA              :
EDF  .M               24                 :
EGL  .M             -500                 :
EKB  .        N/A                        :
ENGI .        HERNANDEZ / LOCK           :
FL1  .        X   7292392.00 M LAT 24 28 47.189 S :
FL2  .        Y    584087.00 M LON 44 10 12.698 W :
FL3  .        MC  45 GRAUS               :
FN   .        BS-400                     :
LMF  .        MESA ROTATIVA              :
LUL  .        MACAE                      :
MCSS .        PRENSA                     :
MCST .DEGF            80                 :
MFSS .        PRENSA                     :
MFST .DEGF            80                 :
MSS  .        LINHA DE FLUXO             :
MST  .DEGF            80                 :
PDAT .        NIVEL DO MAR               :
R1   .        01. APRESENTAÇÃO DE ACORDO COM REQUERIMENTO DO CLIENTE :
R2   .        02. TEMPERATURA MÁXIMA DO POÇO T1=T2= 292 DEGF @  5277 M :
R3   .        03. INICIO DA CIRCULAÇÃO  12/11/2004 09 00 H :
R4   .        04. FINAL DA CIRCULAÇÃO   12/11/2004 18 00 H :
R5   .        05. TEMPO TOTAL DE CIRCULAÇÃO   09 00 H :
R6   .        06. FLUIDO DE PERFURAÇÃO  SINTETICO (BR-MUL  BR-MI)  60% TEOR DO OLEO :
R7   .        07. SALINIDADE DA LAMA  254762 PPM NACL NA FASE DE AGUA :
R8   .        08. INCLINAÇÃO MÁXIMA DO POÇO  37.37 GRAUS @ 5100 M :
R9   .        09. PRIMEIRAS E ULTIMAS LEITURAS  :
RMB  .OHMM    > 10                       :
RMCS .OHMM    > 10                       :
RMFS .OHMM    > 10                       :
RMS  .OHMM    >10                        :
RUN  .                 2                 :
STAT .        BRASIL                     :
TCS  .        18 00 H                    :
TDD  .M             5288                 :
TDL  .M             5293                 :
TLAB .        N/A                        :
TLI  .M             4277                 :
WITN .        ERNANI / ZE MARIA          :
WN   .        3-BRSA-293D-SPS            :
LUN  .              8808                 :
HIDE .        3-SPS-41D                  :
HID2 .        COMPENSATED Z-DENSILOG     :
HID3 .        COMPENSATED NEUTRON LOG    :
HID4 .        GAMMA RAY LOG              :
HID5 .        TTRM SUB                   :
CLAB .        BACIA                      :
SLAB .        PAIS                       :
CMT1 .        ESC  1 1000                :
CMT2 .        PROF. MEDIDA               :
CMT4 .        SONDA  SS-43               :
HDAT .        SAD 69                     :
FL   .        BASE SAD 69                :
OS1  .        RCI/GR                     :
OS2  .        CHECK SHOT                 :
OS3  .        GR/XMAC/HDIL               :
OS5  .        RCOR/GR                    :
LNAM .        ZDL/CN/XMAC/HDIL/EARTH IMAGER/RCI/RCOR/CHECK SHOT/GR :
TOOL .        ZDL/CN/XMAC/HDIL/EARTH IMAGER/RCI/RCOR/CHECK SHOT/GR :
LSOU .        PETROBRAS                  :
LSRV .        OH WIRELINE                :
LTYP .        RAW                        :
EPD  .M                0                 :
LDAT .        15/11/2004                 :
TRIP .                 4                 :
SON  .            786588                 :
CBDR .M             4277                 :
CBLO .        NR                         :
CBL1 .        NR                         :
STEM .DEGF    N/A                        :
BSAL .            254762                 :
BARI .        OFF                        :
DLAB .        12/11/2004                 :
MRT  .DEGF           292                 :
TSTR .        ZDL/CN/GR/TTRM             :
TSTG .        N/A                        :
STUS .        FINAL                      :
LCNM .        BAKER ATLAS                :
LCC  .               150                 :
NATI .        BRASIL                     :
OPMD .        OH.WIRELINE                :
PANA .        HERNANDEZ / LOCK           :
PCON .        BAKER ATLAS                :
R11  .        GR     5268.3 M / 4277.0 M :
R12  .        CN     5286.5 M / 5128.0 M (FERRAMENTA PERDEU LEITURA ACIMA DE 5128M) :
R13  .        ZDL    5292.0 M / 4277.0 M :
R15  .        10. PONTO FRACO UTILIZADO  10K :
R17  .        12. COORDENADAS BASE       :
R19  .        X   7292512.00 M           :
R21  .        MC  45 GRAUS               :
R23  .        13. CADASTRO ANP  86316021017 :
PVER .           4.10000                 :
WDFN .        /space/expusr/3-SPS-41D_RUN2/i77bf04_8spf.xtf :
OCT  .        i77bf                      :
OS4  .        EARTH IMAGER               :
R16  .        11. DECLINAÇÃO MAGNETICA  -20.9 GRAUS :
R20  .        Y    583936.00 M           :
#-----------------------------------------------------------------------------
~CURVE INFORMATION
#MNEM.UNIT   API CODE                                  DESCRIPTION
#---- -----  --------                                  -----------------------
DEPT .M                                                :DEPTH (BOREHOLE) {F10.4}
DEPT .M                                                : {F13.4}
BIT  .IN                                               : {F13.4}
DEPM .M                                                : {F13.4}
GR   .GAPI                                             : {F13.4}
SPD  .M/MN                                             : {F13.4}
TTEN .LBF                                              : {F13.4}
CAL  .IN                                               : {F13.4}
CALX .IN                                               : {F13.4}
HRD1 .HZ                                               : {F13.4}
HRD2 .HZ                                               : {F13.4}
PE   .B/E                                              : {F13.4}
SFT2 .HZ                                               : {F13.4}
SOFT .HZ                                               : {F13.4}
SSD  .HZ                                               : {F13.4}
ZCOR .G/C3                                             : {F13.4}
ZDEN .G/C3                                             : {F13.4}
CNC  .PU                                               : {F13.4}
CN   .PU                                               : {F13.4}
LSN  .HZ                                               : {F13.4}
SSN  .HZ                                               : {F13.4}
CNCF .PU                                               : {F13.4}
MMRK .MN                                               : {F13.4}
#-----------------------------------------------------------------------------
# DEPT       
#     DEPT         BIT          DEPM         GR           SPD          TTEN         
#     CAL          CALX         HRD1         HRD2         PE           SFT2         
#     SOFT         SSD          ZCOR         ZDEN         CNC          CN           
#     LSN          SSN          CNCF         MMRK         
~A  
# ...
4339.4376
   4339.4376       8.5000    4337.1319      85.2843       7.6181    6327.3691
      9.0505       9.0505     660.0133     864.3323       4.2679     563.7074
    428.5850    6971.5918      -0.0100       2.5537       0.0000      18.8711
   1213.0514    2988.0433      18.2818       0.0000
4339.2852
   4339.2852       8.5000    4336.9795      86.4586       7.6167    6329.2012
      9.0533       9.0533     663.7025     871.9371       4.3029     561.7831
    427.5979    6964.2139      -0.0130       2.5520       0.0000      18.9906
   1210.5190    2991.8438      18.3972       0.0000
4339.1328
   4339.1328       8.5000    4336.8271      85.6306       7.6257    6326.8799
      9.0536       9.0536     653.4742     881.2755       4.3389     551.7574
    425.8169    6949.1445      -0.0148       2.5535       0.0000      18.7886
   1222.5798    3004.3833      18.1985       0.0000
4338.9804
   4338.9804       8.5000    4336.6747      84.3060       7.6424    6318.4218
      9.0534       9.0534     637.2550     869.2835       4.3456     551.6176
    424.2371    6928.9200      -0.0125       2.5602       0.0000      17.7315
   1270.0436    3026.4079      17.1612       0.0000
4338.8280
   4338.8280       8.5000    4336.5223      83.9950       7.6466    6314.1854
      9.0542       9.0542     640.7140     857.5745       4.3576     561.8159
    420.1869    6930.3385      -0.0108       2.5623       0.0000      16.7446
   1317.3540    3046.1835      16.1929       0.0000
4338.6756
   4338.6756       8.5000    4336.3699      84.5926       7.6316    6322.1361
      9.0544       9.0544     667.4474     873.3679       4.5648     561.8469
    414.0030    6947.5594      -0.0161       2.5531       0.0000      16.7324
   1319.3071    3049.5304      16.1808       0.0000
4338.5232
   4338.5232       8.5000    4336.2175      86.0777       7.6150    6339.0861
      9.0531       9.0531     689.7711     905.0985       4.8910     553.8846
    408.5144    6945.9876      -0.0256       2.5413       0.0000      17.0876
   1305.4238    3050.9362      16.5299       0.0000
4338.3708
   4338.3708       8.5000    4336.0661      88.2180       7.6114    6344.2508
      9.0509       9.0509     693.9111     919.8588       5.0169     558.3611
    407.7417    6938.6274      -0.0297       2.5366       0.0000      17.2402
   1306.3440    3067.4081      16.6810       0.0000
4338.2184
   4338.2184       8.5000    4335.9137      89.8154       7.6131    6327.4042
      9.0490       9.0490     695.9037     906.9456       4.8370     572.5603
    412.9149    6957.5830      -0.0254       2.5389       0.0000      17.5532
   1297.2079    3074.9108      16.9893       0.0000
4338.0660
   4338.0660       8.5000    4335.7613      88.9450       7.6119    6307.5454
      9.0478       9.0478     704.4622     878.5317       4.5147     576.1507
    418.3468    7012.3748      -0.0148       2.5442       0.0000      18.3193
   1253.3784    3038.8301      17.7419       0.0000
4337.9136
   4337.9136       8.5000    4335.6089      85.9173       7.6078    6308.9648
      9.0473       9.0473     707.4085     851.4508       4.2625     569.9140
    421.1904    7072.2758      -0.0028       2.5503       0.0000      19.2206
   1195.5281    2973.6724      18.6275       0.0000
4337.7612
   4337.7612       8.5000    4335.4565      83.8045       7.6093    6323.0412
      9.0483       9.0483     707.4911     841.1458       4.2557     571.0221
    421.4684    7091.7196       0.0016       2.5534       0.0000      19.6975
   1160.4542    2924.5609      19.0955       0.0000
4337.6088
   4337.6088       8.5000    4335.3041      83.4742       7.6203    6330.8068
      9.0512       9.0512     708.6463     853.1530       4.3458     581.8824
    421.2779    7065.6092      -0.0042       2.5512       0.0000      19.5356
   1162.3005    2916.3107      18.9341       0.0000
4337.4564
   4337.4564       8.5000    4335.1517      83.1303       7.6308    6335.6830
      9.0538       9.0538     699.6468     884.2262       4.4028     587.4359
    426.5960    7041.4915      -0.0111       2.5468       0.0000      19.3612
   1176.5739    2938.0576      18.7608       0.0000
4337.3040
   4337.3040       8.5000    4334.9983      82.5481       7.6327    6346.7280
      9.0534       9.0534     680.7772     913.0658       4.5056     581.6048
    434.9778    7038.1558      -0.0133       2.5446       0.0000      19.5243
   1179.5862    2958.7961      18.9214       0.0000
4337.1516
   4337.1516       8.5000    4334.8469      83.9935       7.6277    6364.4877
      9.0518       9.0518     673.2258     921.9009       4.6090     571.5242
    431.6655    7059.6026      -0.0107       2.5449       0.0000      19.3747
   1181.1546    2950.5805      18.7756       0.0000
4336.9992
   4336.9992       8.5000    4334.6945      86.9878       7.6212    6385.3747
      9.0507       9.0507     674.8643     914.1353       4.6475     569.7088
    416.2876    7074.7575      -0.0077       2.5478       0.0000      18.9845
   1180.1006    2916.1711      18.3930       0.0000
4336.8468
   4336.8468       8.5000    4334.5411      88.1162       7.6151    6402.8752
      9.0507       9.0507     666.4664     899.7748       4.7083     575.5792
    408.0522    7059.8675      -0.0057       2.5546       0.0000      18.9642
   1167.0550    2882.2749      18.3731       0.0000
4336.6944
   4336.6944       8.5000    4334.3887      86.7463       7.6200    6395.7235
      9.0512       9.0512     653.2678     878.4236       4.5719     579.0269
    414.3515    7033.9683      -0.0031       2.5630       0.0000      19.1391
   1155.3387    2867.3352      18.5445       0.2482
4336.5420
   4336.5420       8.5000    4334.2363      85.7326       7.6397    6355.1543
      9.0525       9.0525     655.8180     863.8123       4.3690     573.0763
    423.2997    7031.9355      -0.0012       2.5656       0.0000      19.0580
   1158.5051    2868.6841      18.4639       0.0000
4336.3896
   4336.3896       8.5000    4334.0840      85.4886       7.6583    6308.8672
      9.0520       9.0520     672.4773     867.9290       4.3811     564.3820
    424.9819    7058.4199      -0.0014       2.5603       0.0000      18.7368
   1172.1287    2876.2754      18.1489       0.0000
4336.2372
   4336.2372       8.5000    4333.9315      85.3138       7.6614    6290.2099
      9.0472       9.0472     691.4026     874.6562       4.4262     558.3399
    417.3869    7071.9352      -0.0041       2.5536       0.0000      18.5431
   1179.4970    2878.4234      17.9620       0.0000
4336.0848
   4336.0848       8.5000    4333.7791      86.1209       7.6571    6296.0606
      9.0404       9.0404     703.0796     867.8124       4.4312     554.0879
    410.0067    7031.2567      -0.0103       2.5523       0.0000      18.6779
   1170.0591    2866.3897      18.0993       0.0000
4335.9324
   4335.9324       8.5000    4333.6267      87.5299       7.6508    6306.4409
      9.0357       9.0357     697.9885     851.4636       4.3381     550.9146
    412.9272    6965.7720      -0.0152       2.5571       0.0000      18.9212
   1153.7505    2845.9781      18.3417       0.0000
4335.7800
   4335.7800       8.5000    4333.4743      87.8191       7.6393    6320.0666
      9.0337       9.0337     680.9502     840.3858       4.2072     552.2580
    422.0080    6942.2475      -0.0134       2.5630       0.0000      19.0302
   1145.5690    2834.4623      18.4503       0.0000
4335.6276
   4335.6276       8.5000    4333.3229      87.0474       7.6264    6340.6564
      9.0343       9.0343     671.6178     839.5320       4.2069     555.5587
    424.3648    6962.0307      -0.0089       2.5644       0.0000      19.2008
   1142.5743    2840.5219      18.6175       0.0000
4335.4752
   4335.4752       8.5000    4333.1705      85.6525       7.6184    6361.2001
      9.0365       9.0365     673.7403     847.0177       4.2499     557.4378
    420.0696    6996.9394      -0.0060       2.5607       0.0000      19.5099
   1140.6263    2859.9365      18.9197       0.0000
4335.3228
   4335.3228       8.5000    4333.0181      83.9087       7.6120    6373.1790
      9.0382       9.0382     679.1072     863.7437       4.3413     561.4530
    419.3425    7018.0971      -0.0071       2.5536       0.0000      19.7749
   1143.3536    2887.5074      19.1791       0.0000
