~VERSION INFORMATION
VERS.           2.0   :CWLS Log ASCII Standard - VERSION 2.0
WRAP.           NO    :One Line per depth step
PROD.  Schlumberger   :LAS Producer
PROG.  DLIS to ASCII 2.3                               :LAS Program name and version
CREA.        2023/07/14 00:15                          :LAS Creation date {YYYY/MM/DD hh:mm}
DLIS_CREA.  2023-Jul-14 00:11                          :DLIS Creation date and time {YYYY-MMM-DD hh:mm}
SOURCE.     LIS_010.dlis                               :DLIS File Name
FILE-ID.     LIS   .003                                :File Identification Number
#--------------------------------------------------
~WELL INFORMATION
#MNEM.UNIT      DATA             DESCRIPTION
#---- ------ --------------   -----------------------------
STRT .M      5284.9272       :START DEPTH     
STOP .M      4939.1316       :STOP DEPTH     
STEP .M        -0.1524       :STEP     
NULL .          -999.25      :NULL VALUE
COMP .        PETROBRAS S.A.                           :COMPANY
WELL .        3-BRSA-293D-SPS                          :WELL
FLD  .        BS-400                                   :FIELD
LOC  .        BASE SAD 69:                             :LOCATION
CNTY .        SANTOS                                   :COUNTY
STAT .        BRASIL                                   :STATE
CTRY .        BRASIL                                   :COUNTRY
API  .                                                 :API NUMBER
UWI  .                                                 :UNIQUE WELL ID
DATE .        15/11/2004                               :LOG DATE
SRVC .        Schlumberger                             :SERVICE COMPANY
LATI .DEG                                              :LATITUDE
LONG .DEG                                              :LONGITUDE
GDAT .                                                 :GeoDetic Datum
#-----------------------------------------------------------------------------
~PARAMETER INFORMATION
#MNEM.UNIT    VALUE                      DESCRIPTION
#---- -----   --------------------       ------------------------
APD  .M               24                 :
BHT  .DEGF           260                 :
BLI  .M             5289                 :
BS   .IN         8.50000                 :
CN   .        PETROBRAS S.A.             :
COUN .        SANTOS                     :
CS   .IN         9.62500                 :
DATE .        15/11/2004                 :
DFD  .LB/G      12.30000                 :
DFL  .C3               2                 :
DFPH .        N/A                        :
DFT  .        SINTETICO                  :
DFV  .S               95                 :
DMF  .        MESA ROTATIVA              :
EDF  .M               24                 :
EGL  .M             -500                 :
EKB  .        N/A                        :
ENGI .        HERNANDEZ / LOCK           :
FL1  .        X   7292392.00 M LAT 24 28 47.189 S :
FL2  .        Y    584087.00 M LON 44 10 12.698 W :
FL3  .        MC  45 GRAUS               :
FN   .        BS-400                     :
LMF  .        MESA ROTATIVA              :
LUL  .        MACAE                      :
MCSS .        PRENSA                     :
MCST .DEGF            80                 :
MFSS .        PRENSA                     :
MFST .DEGF            80                 :
MSS  .        LINHA DE FLUXO             :
MST  .DEGF            80                 :
PDAT .        NIVEL DO MAR               :
R1   .        01. APRESENTAÇÃO DE ACORDO COM REQUERIMENTO DO CLIENTE :
R2   .        02. TEMPERATURA MÁXIMA DO POÇO T1=T2= 290 DEGF @  5275 M :
R3   .        03. INICIO DA CIRCULAÇÃO  12/11/2004 09 00 H :
R4   .        04. FINAL DA CIRCULAÇÃO   12/11/2004 18 00 H :
R5   .        05. TEMPO TOTAL DE CIRCULAÇÃO   09 00 H :
R6   .        06. FLUIDO DE PERFURAÇÃO  SINTETICO (BR-MUL  BR-MI)  60% TEOR DO OLEO :
R7   .        07. SALINIDADE DA LAMA  254762 PPM NACL NA FASE DE AGUA :
R8   .        08. INCLINAÇÃO MÁXIMA DO POÇO  37.37 GRAUS @ 5100 M :
R9   .        09. PRIMEIRAS E ULTIMAS LEITURAS  :
RMB  .OHMM    > 10                       :
RMCS .OHMM    > 10                       :
RMFS .OHMM    > 10                       :
RMS  .OHMM    >10                        :
RUN  .                 2                 :
STAT .        BRASIL                     :
TCS  .        18 00 H                    :
TDD  .M             5288                 :
TDL  .M             5293                 :
TLAB .        N/A                        :
TLI  .M             5000                 :
WITN .        ERNANI / ZE MARIA          :
WN   .        3-BRSA-293D-SPS            :
LUN  .              8808                 :
HIDE .        3-SPS-41D                  :
HID2 .        HIGH DEFINITION INDUCTION LOG :
HID3 .        X-MULTIPOLE ARRAY ACOUSTILOG :
HID4 .        GAMMA RAY LOG              :
HID5 .        TTRM SUB                   :
CLAB .        BACIA                      :
SLAB .        PAIS                       :
CMT1 .        ESC  1 200                 :
CMT2 .        PROF. MEDIDA               :
CMT4 .        SONDA  SS-43               :
HDAT .        SAD 69                     :
FL   .        BASE SAD 69                :
OS1  .        RCI/GR                     :
OS2  .        CHECK SHOT                 :
OS3  .        GR/CN/ZDL                  :
OS5  .        RCOR/GR                    :
LNAM .        ZDL/CN/XMAC/HDIL/EARTH IMAGER/RCI/RCOR/CHECK SHOT/GR :
TOOL .        ZDL/CN/XMAC/HDIL/EARTH IMAGER/RCI/RCOR/CHECK SHOT/GR :
LSOU .        PETROBRAS                  :
LSRV .        OH WIRELINE                :
LTYP .        RAW                        :
EPD  .M                0                 :
LDAT .        15/11/2004                 :
TRIP .                 3                 :
SON  .            786588                 :
CBDR .M             4277                 :
CBLO .        NR                         :
CBL1 .        NR                         :
STEM .DEGF    N/A                        :
BSAL .            254762                 :
BARI .        OFF                        :
DLAB .        12/11/2004                 :
MRT  .DEGF           290                 :
TSTR .        HDIL/XMAC/GR/TTRM          :
TSTG .        N/A                        :
STUS .        FINAL                      :
LCNM .        BAKER ATLAS                :
LCC  .               150                 :
NATI .        BRASIL                     :
OPMD .        OH.WIRELINE                :
PANA .        HERNANDEZ / LOCK           :
PCON .        BAKER ATLAS                :
R11  .        SL     5268.3 M / 5000.0 M :
R12  .        GR     5268.3 M / 5000.0 M :
R13  .        XMAC   5279.5 M / 5000.0 M :
R14  .        HDIL   5289.0 M / 5000.0 M :
R17  .        11. DECLINAÇÃO MAGNETICA  -20.9 GRAUS :
R18  .        12. COORDENADAS BASE       :
R21  .        Y    583936.00 M           :
R22  .        MC  45 GRAUS               :
PVER .           4.10000                 :
WDFN .        /space/expusr/3-SPS-41D_RUN2/i77bf02_2spf.xtf :
OCT  .        i77bf                      :
OS4  .        EARTH IMAGER               :
R16  .        10. PONTO FRACO UTILIZADO  10K :
R20  .        X   7292512.00 M           :
R24  .        13. CADASTRO ANP  86316021017 :
#-----------------------------------------------------------------------------
~CURVE INFORMATION
#MNEM.UNIT   API CODE                                  DESCRIPTION
#---- -----  --------                                  -----------------------
DEPT .M                                                :DEPTH (BOREHOLE) {F10.4}
DEPT .M                                                : {F13.4}
DT   .US/F                                             : {F13.4}
SFN1 .US                                               : {F13.4}
SFN2 .US                                               : {F13.4}
SFN3 .US                                               : {F13.4}
SFN4 .US                                               : {F13.4}
TT   .MS                                               : {F13.4}
#-----------------------------------------------------------------------------
# 
#     DEPT        DEPT         DT           SFN1         SFN2         SFN3         SFN4         TT
#
~A  
# ...
 5176.5708    5176.5708      63.2497     696.4984     724.5208     764.5164     797.4960      22.7024
 5176.4184    5176.4184      62.9116     688.1487     725.4972     756.2734     792.0156      22.7339
 5176.2660    5176.2660      63.0271     681.3916     713.5295     752.6339     784.0197      22.7654
 5176.1136    5176.1136      63.2874     687.1130     717.8658     757.1156     791.9833      22.7971
 5175.9612    5175.9612      63.2848     693.6138     720.3707     754.0054     787.6325      22.8287
 5175.8088    5175.8088      62.9799     688.2573     719.1267     749.8806     781.3835      22.8602
 5175.6564    5175.6564      62.6463     679.7584     719.9991     755.1198     782.9984      22.8915
 5175.5040    5175.5040      62.5423     675.0029     706.5083     751.0025     781.7508      22.9228
 5175.3516    5175.3516      62.8557     675.3750     704.6250     746.7500     782.2500      22.9543
 5175.1992    5175.1992      63.7362     664.6250     704.0000     736.3750     772.0000      22.9861
 5175.0468    5175.0468      65.1472     669.3749     696.0025     738.4968     769.2496      23.0187
 5174.8944    5174.8944      66.8978     669.2523     701.0019     732.0059     768.4989      23.0522
 5174.7420    5174.7420      68.5172     671.8761     703.2509     738.8773     767.2580      23.0865
 5174.5896    5174.5896      69.2887     672.7542     704.0046     740.7530     773.7528      23.1211
 5174.4372    5174.4372      68.8102     675.3634     706.8623     742.6167     775.4923      23.1553
 5174.2848    5174.2848      67.2290     676.9934     706.2525     743.9944     774.3796      23.1889
 5174.1324    5174.1324      65.0573     674.1356     706.7481     740.1393     773.8769      23.2215
 5173.9800    5173.9800      62.9846     675.2462     702.1404     736.2629     768.0196      23.2530
 5173.8276    5173.8276      61.6231     672.0096     704.3683     736.0007     770.9911      23.2838
 5173.6752    5173.6752      61.3206     674.7429     701.5075     739.4909     768.0078      23.3145
 5173.5228    5173.5228      62.1839     672.0061     700.6269     734.0122     768.0000      23.3456
 5173.3704    5173.3704      64.0195     668.5065     699.3773     734.3743     761.2625      23.3776
 5173.2180    5173.2180      66.3058     676.2385     698.0020     735.9976     767.3659      23.4108
 5173.0656    5173.0656      68.3727     677.3737     710.3612     737.7480     770.7462      23.4450
 5172.9132    5172.9132      69.7760     679.9980     711.9988     749.6161     774.4972      23.4799
 5172.7608    5172.7607      70.4855     688.0000     712.6250     751.5000     786.0000      23.5151
 5172.6084    5172.6084      70.7525     690.7500     721.8750     752.0000     784.0000      23.5505
 5172.4560    5172.4561      70.8688     688.8750     720.1250     756.6250     784.0000      23.5860
 5172.3036    5172.3036      70.8373     694.5000     724.3772     760.0017     792.5015      23.6214
 5172.1512    5172.1512      70.4220     694.4966     727.3724     762.3771     794.5011      23.6566
 5171.9988    5171.9988      69.4892     691.3739     725.0013     764.2473     795.5062      23.6914
 5171.8464    5171.8464      68.1991     690.6202     725.8675     762.3709     799.7407      23.7255
 5171.6940    5171.6940      66.8542     688.0110     721.7672     760.1344     794.6464      23.7587
 5171.5416    5171.5416      65.7061     688.2490     720.0067     759.0043     792.0101      23.7916
 5171.3892    5171.3892      64.8896     691.2396     721.6194     757.0069     791.6263      23.8240
 5171.2368    5171.2368      64.3285     703.7113     727.9803     761.8599     793.1204      23.8562
 5171.0844    5171.0844      64.3795     699.5116     730.1192     760.8777     793.6236      23.8884
 5170.9320    5170.9320      65.9870     702.4929     726.7580     944.3162     792.2532      23.9214
 5170.7796    5170.7796      69.7616     703.9970     732.1143     764.8587     854.9999      23.9563
 5170.6272    5170.6272      75.0833     704.0000     736.7425     773.2358     804.0828      23.9939
 5170.4748    5170.4748      80.0639     717.4831     750.7325     788.8554     804.8739      24.0339
 5170.3224    5170.3224      82.5748     701.2643     732.0165     765.8953     803.1265      24.0752
 5170.1700    5170.1700      81.8229     745.8521     779.6006     770.3727     802.7502      24.1161
 5170.0176    5170.0176      78.9380     680.7500     719.6250     752.6250     792.0000      24.1556
 5169.8652    5169.8652      75.5957     688.0000     727.0000     762.2500     794.5000      24.1934
 5169.7128    5169.7128      72.6739     695.3761     731.0005     767.6250     803.4999      24.2298
 5169.5604    5169.5604      70.1144     697.2448     731.8675     767.6220     803.2460      24.2649
 5169.4080    5169.4080      67.4204     691.8693     724.1200     764.4913     799.1183      24.2986
 5169.2556    5169.2556      64.4704     687.6206     720.3663     757.9898     794.1091      24.3308
 5169.1032    5169.1032      61.8107     685.0113     715.2721     752.0259     784.7904      24.3615
 5168.9508    5168.9508      60.0307     685.1245     712.0129     744.9033     783.7540      24.3916
 5168.7984    5168.7984      59.3692     685.1250     712.0000     744.0032     775.5297      24.4213
 5168.6460    5168.6460      59.7553     685.1250     712.0000     744.0000     776.7460      24.4512
 5168.4936    5168.4936      60.9165     685.1250     712.0000     744.0000     775.5036      24.4816
 5168.3412    5168.3412      62.4156     685.3744     712.0000     744.3741     776.7469      24.5128
 5168.1888    5168.1888      63.8418     674.2736     712.0000     744.3750     777.4984      24.5448
 5168.0364    5168.0364      64.8934     689.8476     702.3919     744.1254     776.7513      24.5772
 5167.8840    5167.8840      65.3943     672.0248     724.4694     738.3830     777.7486      24.6099
 5167.7316    5167.7316      65.4722     658.2640     704.8949     753.9841     776.0018      24.6427
 5167.5792    5167.5792      65.5993     723.5828     684.0135     740.7586     787.9922      24.6755
 5167.4268    5167.4268      66.1777     679.2500     757.0000     790.5000     771.3750      24.7086
 5167.2744    5167.2744      67.1675     680.0000     713.3750     744.0000     758.0000      24.7422
 5167.1220    5167.1220      68.1582     685.1259     712.6271     751.6245     779.5040      24.7763
 5166.9696    5166.9696      68.7120     687.1191     717.1265     750.6274     788.1222      24.8107
 5166.8172    5166.8172      68.7487     680.0003     718.8651     753.4988     784.7522      24.8451
 5166.6648    5166.6648      68.6232     680.2580     710.6291     752.4910     786.6277      24.8794
 5166.5124    5166.5124      68.6215     685.3522     713.2383     746.7755     788.3672      24.9135
 5166.3600    5166.3600      68.6360     690.6035     719.4744     753.2233     784.8894      24.9478
 5166.2076    5166.2076      68.4337     695.9799     721.6171     754.8689     786.3694      24.9820
 5166.0552    5166.0552      67.9106     703.3502     727.3557     759.7336     786.2504      25.0160
 5165.9028    5165.9028      67.2327     703.4996     732.7339     759.9993     790.8611      25.0496
 5165.7504    5165.7504      66.7893     702.0039     734.9941     770.3478     792.8697      25.0830
 5165.5980    5165.5980      66.8591     704.8685     734.1270     770.8739     802.9772      25.1165
 5165.4456    5165.4456      67.3739     704.0017     735.9965     768.2550     802.3762      25.1502
 5165.2932    5165.2932      68.1229     703.5008     735.8752     773.4920     802.6246      25.1843
 5165.1408    5165.1408      68.8948     706.9960     740.3698     775.9971     808.8678      25.2187
 5164.9884    5164.9884      69.4771     714.3693     742.2485     775.3755     810.9983      25.2535
 5164.8360    5164.8360      69.9029     712.0010     744.6240     776.3746     809.8755      25.2884
 5164.6836    5164.6836      70.2926     717.3750     747.3750     783.5000     810.2500      25.3236
