~VERSION INFORMATION
VERS.           2.0   :CWLS Log ASCII Standard - VERSION 2.0
WRAP.           YES   :Multiple lines per depth step
PROD.  Schlumberger   :LAS Producer
PROG.  DLIS to ASCII 2.3                               :LAS Program name and version
CREA.        2023/07/14 00:15                          :LAS Creation date {YYYY/MM/DD hh:mm}
DLIS_CREA.  2023-Jul-14 00:11                          :DLIS Creation date and time {YYYY-MMM-DD hh:mm}
SOURCE.     LIS_007.dlis                               :DLIS File Name
FILE-ID.     LIS   .003                                :File Identification Number
#--------------------------------------------------
~WELL INFORMATION
#MNEM.UNIT      DATA             DESCRIPTION
#---- ------ --------------   -----------------------------
STRT .M      5238.7500       :START DEPTH     
STOP .M      4241.4444       :STOP DEPTH     
STEP .M        -0.1524       :STEP     
NULL .          -999.25      :NULL VALUE
COMP .        PETROBRAS S.A.                           :COMPANY
WELL .        3-BRSA-293D-SPS                          :WELL
FLD  .        BS-400                                   :FIELD
LOC  .        BASE SAD 69:                             :LOCATION
CNTY .        SANTOS                                   :COUNTY
STAT .        BRASIL                                   :STATE
CTRY .        SANTOS                                   :COUNTRY
API  .                                                 :API NUMBER
UWI  .                                                 :UNIQUE WELL ID
DATE .        23/10/2004                               :LOG DATE
SRVC .        Schlumberger                             :SERVICE COMPANY
LATI .DEG                                              :LATITUDE
LONG .DEG                                              :LONGITUDE
GDAT .                                                 :GeoDetic Datum
#-----------------------------------------------------------------------------
~PARAMETER INFORMATION
#MNEM.UNIT    VALUE                      DESCRIPTION
#---- -----   --------------------       ------------------------
APD  .M               24                 :
BHT  .DEGF           280                 :
BLI  .M             5230                 :
BS   .IN         8.50000                 :
CN   .        PETROBRAS S.A.             :
COUN .        SANTOS                     :
CS   .IN         9.62500                 :
DATE .        23/10/2004                 :
DFD  .LB/G      12.30000                 :
DFL  .C3               2                 :
DFPH .        N/A                        :
DFT  .        SINTETICO                  :
DFV  .S               87                 :
DMF  .        MESA ROTATIVA              :
EDF  .M               24                 :
EGL  .M             -500                 :
EKB  .        N/A                        :
ENGI .        HERNANDEZ/LOCK             :
FL1  .        X   7292392.00 M LAT 24 28 47.189 S :
FL2  .        Y    584087.00 M LON 44 10 12.698 W :
FL3  .        MC  45 GRAUS               :
FN   .        BS-400                     :
LMF  .        MESA ROTATIVA              :
LUL  .        MACAE                      :
MCSS .        PRENSA                     :
MCST .DEGF            80                 :
MFSS .        PRENSA                     :
MFST .DEGF            80                 :
MSS  .        LINHA DE FLUXO             :
MST  .DEGF            80                 :
PDAT .        NIVEL DO MAR               :
R1   .        01. APRESENTAÇÃO DE ACORDO COM REQUERIMENTO DO CLIENTE :
R2   .        02. TEMPERATURA MÁXIMA DO POÇO T1=T2= 260 DEGF @  5180 M :
R3   .        03. INICIO DA CIRCULAÇÃO  13 45 H 21/10/2004 :
R4   .        04. FINAL DA CIRCULAÇÃO   16 00 H 21/10/2004 :
R5   .        05. TEMPO TOTAL DE CIRCULAÇÃO  02 15 H :
R6   .        06. FLUIDO DE PERFURAÇÃO  SINTETICO (BR-MUL  BR-MI)  65% TEOR DO OLEO :
R7   .        07. SALINIDADE DA LAMA  266377 PPM NACL NA FASE DE AGUA :
R8   .        08. INCLINAÇÃO MÁXIMA DO POÇO  37.37 GRAUS @ 5100 M :
R9   .        09. PRIMEIRAS E ULTIMAS LEITURAS  :
RMB  .OHMM    > 10                       :
RMCS .OHMM    > 10                       :
RMFS .OHMM    > 10                       :
RMS  .OHMM    > 10                       :
RUN  .                 1                 :
STAT .        BRASIL                     :
TCS  .        16 00 H                    :
TDD  .M             5230                 :
TDL  .M             5231                 :
TLAB .        N/A                        :
TLI  .M             4277                 :
WITN .        ALCIDIO/VLADIMIR           :
WN   .        3-BRSA-293D-SPS            :
LUN  .              8808                 :
HIDE .        3-SPS-41D                  :
HID2 .        COMPENSATED Z-DENSILOG     :
HID3 .        COMPENSATED NEUTRON LOG    :
HID4 .        GAMMA RAY LOG              :
HID5 .        TTRM SUB                   :
CLAB .        BACIA                      :
SLAB .        PAIS                       :
CMT1 .        ESC  1 1000                :
CMT2 .        PROF. MEDIDA               :
CMT4 .        SONDA  SS-43               :
HDAT .        SAD 69                     :
FL   .        BASE SAD 69                :
OS1  .        HDIL/XMAC/SL/GR            :
OS3  .        MREX/GR                    :
OS5  .        SL/GR                      :
LNAM .        MREX/ZDL/CN/XMAC/HDIL/3DEX/RCI/SL/GR :
TOOL .        MREX/ZDL/CN/XMAC/HDIL/3DEX/RCI/SL/GR :
LSOU .        PETROBRAS                  :
LSRV .        OH WIRELINE                :
LTYP .        RAW                        :
EPD  .M                0                 :
LDAT .        23/10/2004                 :
TRIP .                 1                 :
SON  .            772317                 :
CBDR .M             4277                 :
CBLO .M             4277                 :
CBL1 .M             4277                 :
STEM .DEGF    N/A                        :
BSAL .            266377                 :
BARI .        OFF                        :
DLAB .        21/10/2004                 :
MRT  .DEGF           280                 :
TSTR .        ZDL/CN/GR/TTRM             :
TSTG .        N/A                        :
STUS .        FINAL                      :
LCNM .        BAKER ATLAS                :
LCC  .               150                 :
NATI .        SANTOS                     :
OPMD .        OH.WIRELINE                :
PANA .        HERNANDEZ/LOCK             :
PCON .        BAKER ATLAS                :
R11  .        GR     5222.5 M/4277.0 M   :
R12  .        ZDL    5230.0 M/4277.0 M   :
R13  .        CN     5224.0 M/4277.0 M   :
R15  .        10. PONTO FRACO UTILIZADO  10K :
R17  .        12. DECLINAÇÃO MAGNETICA  -20.9 GRAUS :
R18  .        13. COORDENADAS BASE       :
R21  .        Y    583936.00 M           :
R22  .        MC  45 GRAUS               :
PVER .           4.10000                 :
WDFN .        /space/expusr/3-SPS-41D/i77bf07_4spf.xtf :
OCT  .        i77bf                      :
0S2  .        3DEX/GR                    :
OS4  .        RCI/GR                     :
R16  .        11. CNC CORREGIDO PELO CALIPER E SALINIDADE  PRESENTADO MATRIZ CARBONATO :
R20  .        X   7292512.00 M           :
R24  .        14. CADASTRO ANP  86316021017 :
#-----------------------------------------------------------------------------
~CURVE INFORMATION
#MNEM.UNIT   API CODE                                  DESCRIPTION
#---- -----  --------                                  -----------------------
DEPT .M                                                :DEPTH (BOREHOLE) {F10.4}
DEPT .M                                                : {F13.4}
BIT  .IN                                               : {F13.4}
DEPM .M                                                : {F13.4}
GR   .GAPI                                             : {F13.4}
SPD  .M/MN                                             : {F13.4}
TEN  .LBF                                              : {F13.4}
TTEN .LBF                                              : {F13.4}
CAL  .IN                                               : {F13.4}
CALX .IN                                               : {F13.4}
HRD1 .HZ                                               : {F13.4}
HRD2 .HZ                                               : {F13.4}
PE   .B/E                                              : {F13.4}
SFT2 .HZ                                               : {F13.4}
SOFT .HZ                                               : {F13.4}
SSD  .HZ                                               : {F13.4}
ZCOR .G/C3                                             : {F13.4}
ZDEN .G/C3                                             : {F13.4}
CNC  .PU                                               : {F13.4}
CN   .PU                                               : {F13.4}
LSN  .HZ                                               : {F13.4}
SSN  .HZ                                               : {F13.4}
CNCF .PU                                               : {F13.4}
#-----------------------------------------------------------------------------
# DEPT       
#     DEPT         BIT          DEPM         GR           SPD          TEN          
#     TTEN         CAL          CALX         HRD1         HRD2         PE           
#     SFT2         SOFT         SSD          ZCOR         ZDEN         CNC          
#     CN           LSN          SSN          CNCF         
~A  
# ...
4517.5932
   4517.5932       8.5000    4517.0600      66.7081       6.3406     -35.2509
   5755.1254       8.9624       8.9624     657.1091     900.8184       5.7724
    524.8870     364.3345    6443.8699      -0.0260       2.5571      18.1160
     18.6210    1005.7540    2449.5825      18.1160
4517.4408
   4517.4408       8.5000    4516.9076      70.4339       6.3210     -19.8358
   5770.1332       8.9610       8.9610     664.7802     889.0596       5.5192
    529.6455     370.7371    6448.5821      -0.0246       2.5580      18.4244
     18.9331    1001.3979    2460.6330      18.4244
4517.2884
   4517.2884       8.5000    4516.7552      74.3466       6.3147      12.1793
   5802.1225       8.9602       8.9602     663.2272     875.0026       5.3368
    542.4853     373.3629    6444.3016      -0.0225       2.5610      19.1760
     19.6947     992.1206    2489.6515      19.1760
4517.1360
   4517.1360       8.5000    4516.6028      74.4225       6.3066      23.9107
   5814.1229       8.9599       8.9599     664.3917     871.3896       5.2737
    552.1196     373.8181    6420.9755      -0.0253       2.5605      19.8803
     20.4084     985.9850    2521.7707      19.8803
4516.9836
   4516.9836       8.5000    4516.4504      71.2698       6.2837       9.0557
   5799.4504       8.9592       8.9592     671.5067     881.2079       5.2295
    555.6948     378.2868    6390.1647      -0.0326       2.5553      20.4155
     20.9499     981.9804    2546.9646      20.4155
4516.8312
   4516.8312       8.5000    4516.2980      68.4636       6.2566       1.3250
   5791.7100       8.9579       8.9579     680.2108     893.2664       5.1559
    555.1322     387.6458    6373.3403      -0.0385       2.5492      20.5362
     21.0710     985.7724    2564.6971      20.5362
4516.6788
   4516.6788       8.5000    4516.1446      67.9867       6.2448      10.7893
   5801.1880       8.9567       8.9567     684.2358     890.0872       5.0770
    545.7777     390.7429    6389.9707      -0.0363       2.5478      20.2053
     20.7350     998.2255    2574.8562      20.2053
4516.5264
   4516.5264       8.5000    4515.9922      69.4281       6.2322       7.3666
   5797.8164       8.9574       8.9574     678.3846     872.8109       5.0138
    532.9164     386.5336    6425.0635      -0.0274       2.5519      19.7682
     20.2928    1010.0508    2575.4922      19.7682
4516.3740
   4516.3740       8.5000    4515.8398      71.3197       6.2094     -24.3465
   5765.8818       8.9593       8.9593     670.0591     857.2476       4.9308
    528.5051     387.6716    6431.4502      -0.0224       2.5562      19.3580
     19.8786    1019.1143    2570.1152      19.3580
4516.2216
   4516.2216       8.5000    4515.6874      72.3782       6.1955     -61.7055
   5727.7983       8.9605       8.9605     664.7622     866.3117       4.9023
    528.0958     392.5258    6414.5758      -0.0254       2.5545      19.1999
     19.7192    1023.5230    2570.1606      19.1999
4516.0692
   4516.0692       8.5000    4515.5350      72.2542       6.1928     -75.9686
   5712.4585       8.9605       8.9605     660.8907     895.1471       5.1474
    521.3962     388.8363    6404.1135      -0.0312       2.5480      19.3519
     19.8733    1025.8832    2586.8209      19.3519
4515.9168
   4515.9168       8.5000    4515.3826      71.3121       6.1886     -60.2081
   5727.2070       8.9615       8.9615     656.5885     912.4317       5.3463
    517.3180     382.6800    6392.8504      -0.0350       2.5446      19.2849
     19.8062    1039.4246    2616.2310      19.2849
4515.7644
   4515.7644       8.5000    4515.2312      70.6009       6.1919     -43.7245
   5742.9714       8.9633       8.9633     654.2546     899.3374       5.3058
    519.2553     382.9505    6371.8612      -0.0353       2.5483      18.7414
     19.2563    1065.4597    2641.7666      18.7414
4515.6120
   4515.6120       8.5000    4515.0788      71.2527       6.2131     -54.6522
   5731.3597       8.9630       8.9630     649.3618     876.0028       5.2956
    515.4607     377.8496    6345.4557      -0.0341       2.5565      18.1429
     18.6488    1088.5647    2653.3744      18.1429
4515.4596
   4515.4596       8.5000    4514.9264      72.5221       6.2468     -73.4103
   5711.6735       8.9612       8.9612     632.5857     858.1653       5.3184
    504.1347     360.8977    6306.2164      -0.0335       2.5670      18.0777
     18.5813    1092.4103    2657.6221      18.0777
4515.3072
   4515.3072       8.5000    4514.7740      72.8785       6.2622     -64.8452
   5719.2706       8.9597       8.9597     614.1734     835.0799       5.3588
    493.9719     344.6657    6239.2173      -0.0355       2.5782      18.7815
     19.2943    1076.7967    2672.6843      18.7815
4515.1548
   4515.1548       8.5000    4514.6216      72.1366       6.2383     -36.4319
   5747.0635       8.9587       8.9587     615.4164     809.9304       5.3597
    484.3494     340.1213    6174.1519      -0.0405       2.5850      19.4109
     19.9318    1074.3230    2713.2160      19.4109
4515.0024
   4515.0024       8.5000    4514.4692      71.1697       6.2055     -28.8980
   5754.2344       8.9574       8.9574     628.0366     793.6597       5.1316
    475.3302     346.7150    6144.6862      -0.0441       2.5866      18.6463
     19.1554    1120.4117    2770.2407      18.6463
4514.8500
   4514.8500       8.5000    4514.3168      69.3166       6.2009     -49.6229
   5732.9466       8.9566       8.9566     626.9618     789.6908       4.9179
    476.0531     355.4138    6160.4132      -0.0408       2.5880      16.9537
     17.4365    1199.9781    2822.6128      16.9537
4514.6976
   4514.6976       8.5000    4514.1644      66.4359       6.2116     -58.8290
   5722.9015       8.9572       8.9572     614.9935     788.2099       4.9674
    484.3145     352.9090    6212.4695      -0.0307       2.5908      15.6971
     16.1595    1267.4058    2864.6541      15.6971
4514.5452
   4514.5452       8.5000    4514.0120      64.2783       6.2143     -33.8300
   5747.2364       8.9594       8.9594     608.5329     792.5407       5.2917
    492.7318     339.1591    6259.7159      -0.0235       2.5911      15.3999
     15.8586    1299.5268    2908.6928      15.3999
4514.3928
   4514.3928       8.5000    4513.8596      64.4789       6.2140      -1.7880
   5779.0889       8.9617       8.9617     609.4726     805.1303       5.6313
    497.4123     329.8848    6267.1779      -0.0250       2.5867      15.9103
     16.3793    1303.7818    2967.7253      15.9103
4514.2404
   4514.2404       8.5000    4513.7062      66.6302       6.2253       2.6360
   5783.5554       8.9617       8.9617     618.9689     826.6937       5.7923
    499.5946     334.2093    6265.7798      -0.0310       2.5776      16.7115
     17.1940    1305.9269    3049.2508      16.7115
4514.0880
   4514.0880       8.5000    4513.5548      67.3768       6.2343     -21.2575
   5759.5072       8.9608       8.9608     633.6852     850.5114       5.9137
    500.9588     339.2741    6292.8283      -0.0343       2.5667      17.0696
     17.5572    1329.7405    3139.2636      17.0696
4513.9356
   4513.9355       8.5000    4513.4023      65.8692       6.2220     -52.5339
   5727.6465       8.9613       8.9613     645.5193     865.2896       5.9843
    504.5896     339.5803    6325.6436      -0.0344       2.5593      17.0622
     17.5501    1355.3389    3199.0156      17.0622
4513.7832
   4513.7832       8.5000    4513.2500      65.0484       6.2052     -70.2490
   5709.0020       8.9629       8.9629     654.9374     861.1176       5.6923
    511.7057     350.6379    6337.0547      -0.0337       2.5579      17.1492
     17.6396    1351.1055    3197.6045      17.1492
4513.6308
   4513.6309       8.5000    4513.0967      66.7575       6.2034     -63.5193
   5714.7627       8.9645       8.9645     662.0592     842.1647       5.2643
    517.1310     364.7853    6325.8613      -0.0332       2.5613      16.9856
     17.4745    1329.3447    3130.5166      16.9856
4513.4784
   4513.4784       8.5000    4512.9442      69.0674       6.2056     -39.4116
   5738.1757       8.9651       8.9651     658.3188     832.1571       5.2132
    514.5533     361.8902    6303.0531      -0.0339       2.5645      16.3707
     16.8498    1304.0234    3012.6199      16.3707
