~VERSION INFORMATION
VERS.           2.0   :CWLS Log ASCII Standard - VERSION 2.0
WRAP.           YES   :Multiple lines per depth step
PROD.  Schlumberger   :LAS Producer
PROG.  DLIS to ASCII 2.3                               :LAS Program name and version
CREA.        2023/07/14 00:15                          :LAS Creation date {YYYY/MM/DD hh:mm}
DLIS_CREA.  2023-Jul-14 00:11                          :DLIS Creation date and time {YYYY-MMM-DD hh:mm}
SOURCE.     LIS_013.dlis                               :DLIS File Name
FILE-ID.     LIS   .002                                :File Identification Number
#--------------------------------------------------
~WELL INFORMATION
#MNEM.UNIT      DATA             DESCRIPTION
#---- ------ --------------   -----------------------------
STRT .M      5299.5576       :START DEPTH     
STOP .M      4241.4444       :STOP DEPTH     
STEP .M        -0.1524       :STEP     
NULL .          -999.25      :NULL VALUE
COMP .        PETROBRAS S.A.                           :COMPANY
WELL .        3-BRSA-293D-SPS                          :WELL
FLD  .        BS-400                                   :FIELD
LOC  .        BASE SAD 69:                             :LOCATION
CNTY .        SANTOS                                   :COUNTY
STAT .        BRASIL                                   :STATE
CTRY .        BRASIL                                   :COUNTRY
API  .                                                 :API NUMBER
UWI  .                                                 :UNIQUE WELL ID
DATE .        15/11/2004                               :LOG DATE
SRVC .        Schlumberger                             :SERVICE COMPANY
LATI .DEG                                              :LATITUDE
LONG .DEG                                              :LONGITUDE
GDAT .                                                 :GeoDetic Datum
#-----------------------------------------------------------------------------
~PARAMETER INFORMATION
#MNEM.UNIT    VALUE                      DESCRIPTION
#---- -----   --------------------       ------------------------
APD  .M               24                 :
BHT  .DEGF           260                 :
BLI  .M             5289                 :
BS   .IN         8.50000                 :
CN   .        PETROBRAS S.A.             :
COUN .        SANTOS                     :
CS   .IN         9.62500                 :
DATE .        15/11/2004                 :
DFD  .LB/G      12.30000                 :
DFL  .C3               2                 :
DFPH .        N/A                        :
DFT  .        SINTETICO                  :
DFV  .S               95                 :
DMF  .        MESA ROTATIVA              :
EDF  .M               24                 :
EGL  .M             -500                 :
EKB  .        N/A                        :
ENGI .        HERNANDEZ / LOCK           :
FL1  .        X   7292392.00 M LAT 24 28 47.189 S :
FL2  .        Y    584087.00 M LON 44 10 12.698 W :
FL3  .        MC  45 GRAUS               :
FN   .        BS-400                     :
LMF  .        MESA ROTATIVA              :
LUL  .        MACAE                      :
MCSS .        PRENSA                     :
MCST .DEGF            80                 :
MFSS .        PRENSA                     :
MFST .DEGF            80                 :
MSS  .        LINHA DE FLUXO             :
MST  .DEGF            80                 :
PDAT .        NIVEL DO MAR               :
R1   .        01. APRESENTAÇÃO DE ACORDO COM REQUERIMENTO DO CLIENTE :
R2   .        02. TEMPERATURA MÁXIMA DO POÇO T1=T2= 292 DEGF @  5277 M :
R3   .        03. INICIO DA CIRCULAÇÃO  12/11/2004 09 00 H :
R4   .        04. FINAL DA CIRCULAÇÃO   12/11/2004 18 00 H :
R5   .        05. TEMPO TOTAL DE CIRCULAÇÃO   09 00 H :
R6   .        06. FLUIDO DE PERFURAÇÃO  SINTETICO (BR-MUL  BR-MI)  60% TEOR DO OLEO :
R7   .        07. SALINIDADE DA LAMA  254762 PPM NACL NA FASE DE AGUA :
R8   .        08. INCLINAÇÃO MÁXIMA DO POÇO  37.37 GRAUS @ 5100 M :
R9   .        09. PRIMEIRAS E ULTIMAS LEITURAS  :
RMB  .OHMM    > 10                       :
RMCS .OHMM    > 10                       :
RMFS .OHMM    > 10                       :
RMS  .OHMM    >10                        :
RUN  .                 2                 :
STAT .        BRASIL                     :
TCS  .        18 00 H                    :
TDD  .M             5288                 :
TDL  .M             5293                 :
TLAB .        N/A                        :
TLI  .M             4277                 :
WITN .        ERNANI / ZE MARIA          :
WN   .        3-BRSA-293D-SPS            :
LUN  .              8808                 :
HIDE .        3-SPS-41D                  :
HID2 .        COMPENSATED Z-DENSILOG     :
HID3 .        COMPENSATED NEUTRON LOG    :
HID4 .        GAMMA RAY LOG              :
HID5 .        TTRM SUB                   :
CLAB .        BACIA                      :
SLAB .        PAIS                       :
CMT1 .        ESC  1 1000                :
CMT2 .        PROF. MEDIDA               :
CMT4 .        SONDA  SS-43               :
HDAT .        SAD 69                     :
FL   .        BASE SAD 69                :
OS1  .        RCI/GR                     :
OS2  .        CHECK SHOT                 :
OS3  .        GR/XMAC/HDIL               :
OS5  .        RCOR/GR                    :
LNAM .        ZDL/CN/XMAC/HDIL/EARTH IMAGER/RCI/RCOR/CHECK SHOT/GR :
TOOL .        ZDL/CN/XMAC/HDIL/EARTH IMAGER/RCI/RCOR/CHECK SHOT/GR :
LSOU .        PETROBRAS                  :
LSRV .        OH WIRELINE                :
LTYP .        RAW                        :
EPD  .M                0                 :
LDAT .        15/11/2004                 :
TRIP .                 4                 :
SON  .            786588                 :
CBDR .M             4277                 :
CBLO .        NR                         :
CBL1 .        NR                         :
STEM .DEGF    N/A                        :
BSAL .            254762                 :
BARI .        OFF                        :
DLAB .        12/11/2004                 :
MRT  .DEGF           292                 :
TSTR .        ZDL/CN/GR/TTRM             :
TSTG .        N/A                        :
STUS .        FINAL                      :
LCNM .        BAKER ATLAS                :
LCC  .               150                 :
NATI .        BRASIL                     :
OPMD .        OH.WIRELINE                :
PANA .        HERNANDEZ / LOCK           :
PCON .        BAKER ATLAS                :
R11  .        GR     5268.3 M / 4277.0 M :
R12  .        CN     5286.5 M / 5128.0 M (FERRAMENTA PERDEU LEITURA ACIMA DE 5128M) :
R13  .        ZDL    5292.0 M / 4277.0 M :
R15  .        10. PONTO FRACO UTILIZADO  10K :
R17  .        12. COORDENADAS BASE       :
R19  .        X   7292512.00 M           :
R21  .        MC  45 GRAUS               :
R23  .        13. CADASTRO ANP  86316021017 :
PVER .           4.10000                 :
WDFN .        /space/expusr/3-SPS-41D_RUN2/i77bf04_8spf.xtf :
OCT  .        i77bf                      :
OS4  .        EARTH IMAGER               :
R16  .        11. DECLINAÇÃO MAGNETICA  -20.9 GRAUS :
R20  .        Y    583936.00 M           :
#-----------------------------------------------------------------------------
~CURVE INFORMATION
#MNEM.UNIT   API CODE                                  DESCRIPTION
#---- -----  --------                                  -----------------------
DEPT .M                                                :DEPTH (BOREHOLE) {F10.4}
DEPT .M                                                : {F13.4}
BIT  .IN                                               : {F13.4}
DEPM .M                                                : {F13.4}
GR   .GAPI                                             : {F13.4}
SPD  .M/MN                                             : {F13.4}
TTEN .LBF                                              : {F13.4}
CAL  .IN                                               : {F13.4}
CALX .IN                                               : {F13.4}
HRD1 .HZ                                               : {F13.4}
HRD2 .HZ                                               : {F13.4}
PE   .B/E                                              : {F13.4}
SFT2 .HZ                                               : {F13.4}
SOFT .HZ                                               : {F13.4}
SSD  .HZ                                               : {F13.4}
ZCOR .G/C3                                             : {F13.4}
ZDEN .G/C3                                             : {F13.4}
CNC  .PU                                               : {F13.4}
CN   .PU                                               : {F13.4}
LSN  .HZ                                               : {F13.4}
SSN  .HZ                                               : {F13.4}
CNCF .PU                                               : {F13.4}
MMRK .MN                                               : {F13.4}
#-----------------------------------------------------------------------------
# DEPT       
#     DEPT         BIT          DEPM         GR           SPD          TTEN         
#     CAL          CALX         HRD1         HRD2         PE           SFT2         
#     SOFT         SSD          ZCOR         ZDEN         CNC          CN           
#     LSN          SSN          CNCF         MMRK         
~A  
# ...
4958.1816
   4958.1816       8.5000    4958.0127      64.6195       7.6072    7210.9229
      8.9629       8.9629     674.6389     874.9274       4.5094     560.0525
    421.6373    6920.3057      -0.0212       2.5418       0.0000      14.6759
   1737.3689    3752.3110      14.2225       0.0000
4958.0292
   4958.0292       8.5000    4957.8593      61.0624       7.5963    7200.0521
      8.9606       8.9606     680.3517     877.7258       4.5062     553.4220
    423.6389    6916.6125      -0.0232       2.5393       0.0000      14.6505
   1739.4100    3753.3978      14.1990       0.0000
4957.8768
   4957.8768       8.5000    4957.7069      58.8933       7.5857    7182.1011
      8.9609       8.9609     675.7619     893.3014       4.5216     554.8487
    425.8096    6944.5015      -0.0214       2.5357       0.0000      14.7121
   1745.0155    3773.5678      14.2592       0.0000
4957.7244
   4957.7244       8.5000    4957.5545      59.1884       7.5824    7173.6064
      8.9632       8.9632     677.0552     899.4591       4.5271     562.3763
    426.0605    6925.9099      -0.0251       2.5330       0.0000      14.7060
   1756.6498    3797.9197      14.2518       0.0000
4957.5720
   4957.5720       8.5000    4957.4011      60.6394       7.5883    7186.1574
      8.9637       8.9637     690.0031     897.2850       4.5336     565.5769
    420.6569    6863.8820      -0.0353       2.5310       0.0000      14.6869
   1765.3898    3814.2815      14.2327       0.0000
4957.4196
   4957.4196       8.5000    4957.2497      61.8152       7.5930    7216.4433
      8.9610       8.9610     696.9942     886.8099       4.5328     553.8973
    412.2380    6848.1309      -0.0368       2.5333       0.0000      14.9059
   1757.4016    3825.8336      14.4493       0.0000
4957.2672
   4957.2672       8.5000    4957.0973      62.4602       7.5906    7248.6197
      8.9590       8.9590     681.7810     858.3660       4.5126     535.1153
    406.0548    6867.5604      -0.0266       2.5442       0.0000      15.3818
   1730.6910    3829.0497      14.9177       0.0000
4957.1148
   4957.1148       8.5000    4956.9439      63.2744       7.5837    7258.8757
      8.9598       8.9598     657.3320     828.3387       4.4801     518.5812
    401.6434    6839.6709      -0.0207       2.5579       0.0000      15.6045
   1710.2072    3811.9786      15.1358       0.0000
4956.9624
   4956.9624       8.5000    4956.7905      64.4864       7.5705    7241.4661
      8.9616       8.9616     641.0217     815.9399       4.4663     510.8583
    395.7280    6765.8163      -0.0254       2.5663       0.0000      15.3538
   1712.6023    3785.4846      14.8885       0.0000
4956.8100
   4956.8100       8.5000    4956.6381      65.1221       7.5584    7214.5097
      8.9633       8.9633     634.5652     813.5883       4.4561     513.7864
    389.6552    6732.5902      -0.0283       2.5691       0.0000      14.9344
   1729.9295    3769.7210      14.4758       0.0000
4956.6576
   4956.6576       8.5000    4956.4857      65.1521       7.5616    7193.3186
      8.9639       8.9639     633.8344     816.6588       4.4383     523.0222
    392.2670    6778.5676      -0.0225       2.5677       0.0000      14.6451
   1742.4365    3759.2187      14.1916       0.0000
4956.5052
   4956.5052       8.5000    4956.3324      64.4085       7.5740    7178.7644
      8.9622       8.9622     642.1985     832.1434       4.4209     533.7297
    402.1326    6841.6778      -0.0183       2.5608       0.0000      14.5666
   1743.0307    3750.2132      14.1157       0.0000
4956.3528
   4956.3528       8.5000    4956.1799      62.0652       7.5826    7172.6891
      8.9605       8.9605     658.8855     853.4639       4.4142     542.5712
    409.1486    6864.5619      -0.0221       2.5513       0.0000      14.6978
   1744.3511    3770.2620      14.2454       0.0000
4956.2004
   4956.2004       8.5000    4956.0266      59.4882       7.5865    7180.3097
      8.9614       8.9614     674.5820     861.3196       4.4174     545.5406
    411.5483    6862.1982      -0.0266       2.5454       0.0000      14.8520
   1763.6723    3832.4200      14.3962       0.0000
4956.0480
   4956.0480       8.5000    4955.8742      58.9442       7.5905    7203.0956
      8.9632       8.9632     681.5968     859.9261       4.4096     546.5101
    415.6230    6868.6694      -0.0267       2.5439       0.0000      14.8404
   1793.7430    3896.1752      14.3836       0.7215
4955.8956
   4955.8956       8.5000    4955.7218      59.4135       7.5984    7233.4173
      8.9638       8.9638     675.3084     863.4336       4.3741     554.1715
    419.8506    6858.6038      -0.0276       2.5452       0.0000      14.6796
   1811.7956    3913.5590      14.2256       0.0000
4955.7432
   4955.7432       8.5000    4955.5684      59.4739       7.6087    7251.6152
      8.9646       8.9646     661.2014     862.0482       4.3501     561.8247
    416.8353    6831.3857      -0.0285       2.5498       0.0000      14.6708
   1795.4436    3876.9985      14.2163       0.0000
4955.5908
   4955.5908       8.5000    4955.4160      59.9822       7.6102    7242.3057
      8.9658       8.9658     651.8629     842.7853       4.3148     560.4982
    412.4523    6810.7646      -0.0262       2.5577       0.0000      15.0212
   1744.6812    3813.1001      14.5594       0.0000
4955.4384
   4955.4384       8.5000    4955.2636      61.2949       7.5984    7211.6685
      8.9658       8.9658     646.5357     819.4659       4.1881     549.3489
    413.4313    6797.3144      -0.0228       2.5650       0.0000      15.3924
   1697.3070    3756.5477      14.9237       0.0000
4955.2860
   4955.2860       8.5000    4955.1102      63.3692       7.5847    7179.6702
      8.9656       8.9656     643.0840     817.8027       4.2120     535.1036
    408.8896    6787.6859      -0.0232       2.5662       0.0000      15.3514
   1686.1210    3726.6687      14.8837       0.0000
4955.1336
   4955.1336       8.5000    4954.9568      66.5408       7.5853    7158.8707
      8.9663       8.9663     648.1209     837.7664       4.5606     530.1301
    395.8689    6806.6971      -0.0252       2.5599       0.0000      15.0944
   1693.1709    3709.8844      14.6310       0.0000
4954.9812
   4954.9812       8.5000    4954.8044      69.0308       7.5988    7158.7713
      8.9654       8.9654     660.1257     860.4255       4.8811     536.1629
    388.1356    6845.8010      -0.0261       2.5521       0.0000      15.1866
   1677.3615    3686.7002      14.7220       0.0000
4954.8288
   4954.8288       8.5000    4954.6530      68.9401       7.5996    7192.0612
      8.9638       8.9638     665.6198     866.6578       4.9418     540.2031
    388.6098    6879.1709      -0.0237       2.5500       0.0000      15.6917
   1641.4932    3669.2969      15.2189       0.0000
4954.6764
   4954.6764       8.5000    4954.4996      68.0153       7.5848    7244.3160
      8.9637       8.9637     665.7383     852.4228       4.8475     543.1223
    387.5462    6887.5597      -0.0201       2.5539       0.0000      16.1322
   1621.2547    3676.6478      15.6515       0.0000
4954.5240
   4954.5240       8.5000    4954.3472      67.9217       7.5802    7276.9239
      8.9637       8.9637     669.7464     836.4541       4.6663     550.7814
    390.5998    6871.0530      -0.0202       2.5576       0.0000      16.0932
   1628.6699    3688.7856      15.6132       0.0000
4954.3716
   4954.3716       8.5000    4954.1948      68.5878       7.5900    7272.5005
      8.9621       8.9621     678.1722     834.6307       4.4857     557.9764
    398.7342    6854.3291      -0.0236       2.5575       0.0000      15.7034
   1640.9427    3669.5703      15.2315       0.0000
4954.2192
   4954.2192       8.5000    4954.0415      69.8625       7.5938    7241.5111
      8.9620       8.9620     682.3794     836.4083       4.3101     555.8854
    408.1007    6849.6236      -0.0253       2.5571       0.0000      15.4968
   1630.7572    3621.8906      15.0287       0.0000
4954.0668
   4954.0668       8.5000    4953.8881      70.8737       7.5853    7198.8934
      8.9649       8.9649     676.8846     832.8137       4.0865     546.4543
    419.8514    6856.5524      -0.0227       2.5596       0.0000      15.7845
   1600.5423    3588.7163      15.3093       0.0000
