~VERSION INFORMATION
VERS.           2.0   :CWLS Log ASCII Standard - VERSION 2.0
WRAP.           YES   :Multiple lines per depth step
PROD.  Schlumberger   :LAS Producer
PROG.  DLIS to ASCII 2.3                               :LAS Program name and version
CREA.        2023/07/14 00:15                          :LAS Creation date {YYYY/MM/DD hh:mm}
DLIS_CREA.  2023-Jul-14 00:11                          :DLIS Creation date and time {YYYY-MMM-DD hh:mm}
SOURCE.     LIS_012.dlis                               :DLIS File Name
FILE-ID.     LIS   .001                                :File Identification Number
#--------------------------------------------------
~WELL INFORMATION
#MNEM.UNIT      DATA             DESCRIPTION
#---- ------ --------------   -----------------------------
STRT .M      5265.1152       :START DEPTH     
STOP .M      5185.4100       :STOP DEPTH     
STEP .M        -0.1524       :STEP     
NULL .          -999.25      :NULL VALUE
COMP .        PETROBRAS S.A.                           :COMPANY
WELL .        3-BRSA-293D-SPS                          :WELL
FLD  .        BS-400                                   :FIELD
LOC  .        BASE SAD 69:                             :LOCATION
CNTY .        SANTOS                                   :COUNTY
STAT .        BRASIL                                   :STATE
CTRY .        BRASIL                                   :COUNTRY
API  .                                                 :API NUMBER
UWI  .                                                 :UNIQUE WELL ID
DATE .        15/11/2004                               :LOG DATE
SRVC .        Schlumberger                             :SERVICE COMPANY
LATI .DEG                                              :LATITUDE
LONG .DEG                                              :LONGITUDE
GDAT .                                                 :GeoDetic Datum
#-----------------------------------------------------------------------------
~PARAMETER INFORMATION
#MNEM.UNIT    VALUE                      DESCRIPTION
#---- -----   --------------------       ------------------------
APD  .M               24                 :
BHT  .DEGF           260                 :
BLI  .M             5289                 :
BS   .IN         8.50000                 :
CN   .        PETROBRAS S.A.             :
COUN .        SANTOS                     :
CS   .IN         9.62500                 :
DATE .        15/11/2004                 :
DFD  .LB/G      12.30000                 :
DFL  .C3               2                 :
DFPH .        N/A                        :
DFT  .        SINTETICO                  :
DFV  .S               95                 :
DMF  .        MESA ROTATIVA              :
EDF  .M               24                 :
EGL  .M             -500                 :
EKB  .        N/A                        :
ENGI .        HERNANDEZ / LOCK           :
FL1  .        X   7292392.00 M LAT 24 28 47.189 S :
FL2  .        Y    584087.00 M LON 44 10 12.698 W :
FL3  .        MC  45 GRAUS               :
FN   .        BS-400                     :
LMF  .        MESA ROTATIVA              :
LUL  .        MACAE                      :
MCSS .        PRENSA                     :
MCST .DEGF            80                 :
MFSS .        PRENSA                     :
MFST .DEGF            80                 :
MSS  .        LINHA DE FLUXO             :
MST  .DEGF            80                 :
PDAT .        NIVEL DO MAR               :
R1   .        01. APRESENTAÇÃO DE ACORDO COM REQUERIMENTO DO CLIENTE :
R2   .        02. TEMPERATURA MÁXIMA DO POÇO T1=T2= 292 DEGF @  5277 M :
R3   .        03. INICIO DA CIRCULAÇÃO  12/11/2004 09 00 H :
R4   .        04. FINAL DA CIRCULAÇÃO   12/11/2004 18 00 H :
R5   .        05. TEMPO TOTAL DE CIRCULAÇÃO   09 00 H :
R6   .        06. FLUIDO DE PERFURAÇÃO  SINTETICO (BR-MUL  BR-MI)  60% TEOR DO OLEO :
R7   .        07. SALINIDADE DA LAMA  254762 PPM NACL NA FASE DE AGUA :
R8   .        08. INCLINAÇÃO MÁXIMA DO POÇO  37.37 GRAUS @ 5100 M :
R9   .        09. PRIMEIRAS E ULTIMAS LEITURAS  :
RMB  .OHMM    > 10                       :
RMCS .OHMM    > 10                       :
RMFS .OHMM    > 10                       :
RMS  .OHMM    >10                        :
RUN  .                 2                 :
STAT .        BRASIL                     :
TCS  .        18 00 H                    :
TDD  .M             5288                 :
TDL  .M             5293                 :
TLAB .        N/A                        :
TLI  .M             4277                 :
WITN .        ERNANI / ZE MARIA          :
WN   .        3-BRSA-293D-SPS            :
LUN  .              8808                 :
HIDE .        3-SPS-41D                  :
HID2 .        COMPENSATED Z-DENSILOG     :
HID3 .        COMPENSATED NEUTRON LOG    :
HID4 .        GAMMA RAY LOG              :
HID5 .        TTRM SUB                   :
CLAB .        BACIA                      :
SLAB .        PAIS                       :
CMT1 .        ESC  1 1000                :
CMT2 .        PROF. MEDIDA               :
CMT4 .        SONDA  SS-43               :
HDAT .        SAD 69                     :
FL   .        BASE SAD 69                :
OS1  .        RCI/GR                     :
OS2  .        CHECK SHOT                 :
OS3  .        GR/XMAC/HDIL               :
OS5  .        RCOR/GR                    :
LNAM .        ZDL/CN/XMAC/HDIL/EARTH IMAGER/RCI/RCOR/CHECK SHOT/GR :
TOOL .        ZDL/CN/XMAC/HDIL/EARTH IMAGER/RCI/RCOR/CHECK SHOT/GR :
LSOU .        PETROBRAS                  :
LSRV .        OH WIRELINE                :
LTYP .        RAW                        :
EPD  .M                0                 :
LDAT .        15/11/2004                 :
TRIP .                 4                 :
SON  .            786588                 :
CBDR .M             4277                 :
CBLO .        NR                         :
CBL1 .        NR                         :
STEM .DEGF    N/A                        :
BSAL .            254762                 :
BARI .        OFF                        :
DLAB .        12/11/2004                 :
MRT  .DEGF           292                 :
TSTR .        ZDL/CN/GR/TTRM             :
TSTG .        N/A                        :
STUS .        FINAL                      :
LCNM .        BAKER ATLAS                :
LCC  .               150                 :
NATI .        BRASIL                     :
OPMD .        OH.WIRELINE                :
PANA .        HERNANDEZ / LOCK           :
PCON .        BAKER ATLAS                :
R11  .        GR     5268.3 M / 4277.0 M :
R12  .        CN     5286.5 M / 5128.0 M (FERRAMENTA PERDEU LEITURA ACIMA DE 5128M) :
R13  .        ZDL    5292.0 M / 4277.0 M :
R15  .        10. PONTO FRACO UTILIZADO  10K :
R17  .        12. COORDENADAS BASE       :
R19  .        X   7292512.00 M           :
R21  .        MC  45 GRAUS               :
R23  .        13. CADASTRO ANP  86316021017 :
PVER .           4.10000                 :
WDFN .        /space/expusr/3-SPS-41D_RUN2/i77bf03_8spf.xtf :
OCT  .        i77bf                      :
OS4  .        EARTH IMAGER               :
R16  .        11. DECLINAÇÃO MAGNETICA  -20.9 GRAUS :
R20  .        Y    583936.00 M           :
#-----------------------------------------------------------------------------
~CURVE INFORMATION
#MNEM.UNIT   API CODE                                  DESCRIPTION
#---- -----  --------                                  -----------------------
DEPT .M                                                :DEPTH (BOREHOLE) {F10.4}
DEPT .M                                                : {F13.4}
BIT  .IN                                               : {F13.4}
DEPM .M                                                : {F13.4}
GR   .GAPI                                             : {F13.4}
SPD  .M/MN                                             : {F13.4}
TTEN .LBF                                              : {F13.4}
CAL  .IN                                               : {F13.4}
CALX .IN                                               : {F13.4}
HRD1 .HZ                                               : {F13.4}
HRD2 .HZ                                               : {F13.4}
PE   .B/E                                              : {F13.4}
SFT2 .HZ                                               : {F13.4}
SOFT .HZ                                               : {F13.4}
SSD  .HZ                                               : {F13.4}
ZCOR .G/C3                                             : {F13.4}
ZDEN .G/C3                                             : {F13.4}
CNC  .PU                                               : {F13.4}
CN   .PU                                               : {F13.4}
LSN  .HZ                                               : {F13.4}
SSN  .HZ                                               : {F13.4}
CNCF .PU                                               : {F13.4}
MMRK .MN                                               : {F13.4}
#-----------------------------------------------------------------------------
# DEPT       
#     DEPT         BIT          DEPM         GR           SPD          TTEN         
#     CAL          CALX         HRD1         HRD2         PE           SFT2         
#     SOFT         SSD          ZCOR         ZDEN         CNC          CN           
#     LSN          SSN          CNCF         MMRK         
~A  
# ...
5235.2448
   5235.2448       8.5000    5234.9518      75.8988       6.2267    7462.6291
      9.1426       9.1427     601.6508     785.7004       5.2382     482.9597
    341.7434    6587.0202      -0.0353       2.5839      15.8015      16.7069
   1788.1022    4032.4539      15.8015       0.0000
5235.0924
   5235.0924       8.5000    5234.7994      74.6860       6.2183    7443.9453
      9.1408       9.1420     634.1488     750.8950       5.3909     473.7547
    327.1830    6569.4881      -0.0410       2.5833      14.1136      14.7988
   1916.3167    4131.1043      14.1136       0.0000
5234.9400
   5234.9400       8.5000    5234.6470      74.1544       6.1706    7433.4291
      9.1391       9.1408     603.3293     774.3913       5.7688     459.4397
    317.0102    6654.5826      -0.0259       2.5853      13.1043      13.6915
   1958.7041    4076.4763      13.1043       0.0000
5234.7876
   5234.7876       8.5000    5234.4946      74.4572       6.1608    7441.7899
      9.1292       9.1338     573.3992     783.5565       6.1006     423.4786
    309.7536    6581.6472      -0.0303       2.5920      13.3224      13.8553
   1984.9388    4134.7734      13.3224       0.0000
5234.6352
   5234.6352       8.5000    5234.3422      76.9280       6.2153    7461.2193
      9.1308       9.1290     585.5650     759.6537       6.3175     450.8652
    296.0571    6594.9314      -0.0282       2.5957      13.3766      13.8065
   2062.8210    4318.2084      13.3766       0.0000
5234.4828
   5234.4828       8.5000    5234.1898      81.4967       6.2505    7487.9706
      9.1305       9.1316     564.7210     815.9138       6.8754     448.2414
    296.8182    6629.9743      -0.0303       2.5875      16.3207      16.4811
   1877.0846    4405.9374      16.3207       0.0000
5234.3304
   5234.3304       8.5000    5234.0374      85.4617       6.2259    7531.6140
      9.1259       9.1278     585.5334     760.5766       6.1188     464.1772
    302.7768    6555.0633      -0.0296       2.5958      18.3569      19.0143
   1734.9024    4317.3170      18.3569       0.0000
5234.1780
   5234.1780       8.5000    5233.8850      87.0331       6.2281    7582.6905
      9.1306       9.1268     596.8509     748.7916       5.9865     437.3341
    300.8275    6578.2341      -0.0333       2.5960      18.1222      18.7220
   1682.4718    4160.9094      18.1222       0.0000
5234.0256
   5234.0256       8.5000    5233.7326      87.6799       6.2855    7607.1524
      9.1400       9.1359     544.9978     765.0705       6.0696     430.2386
    301.7535    6564.3664      -0.0200       2.6050      18.6739      19.3154
   1616.5059    4048.4301      18.6739       0.0000
5233.8732
   5233.8732       8.5000    5233.5802      89.4604       6.3264    7584.8475
      9.1381       9.1401     543.7269     775.1981       4.9623     455.1743
    352.4215    6466.2452      -0.0411       2.6032      18.4183      19.1248
   1596.8888    3971.5214      18.4183       0.0000
5233.7208
   5233.7208       8.5000    5233.4278      92.3259       6.3764    7521.8450
      9.1374       9.1374     587.7768     765.4713       5.0133     460.0288
    343.1584    6527.9390      -0.0380       2.5931      18.5228      19.1107
   1547.3836    3865.7397      18.5228       0.0000
5233.5684
   5233.5684       8.5000    5233.2754      92.0681       6.3572    7458.7773
      9.1346       9.1362     579.1936     745.7102       5.2643     464.1475
    326.7249    6473.5166      -0.0410       2.5988      17.2617      18.2098
   1581.0430    3779.2051      17.2617       0.0000
5233.4160
   5233.4160       8.5000    5233.1221      87.7314       6.2682    7434.2256
      9.1333       9.1340     573.3070     781.5618       5.5927     476.4667
    321.9996    6574.4404      -0.0355       2.5904      16.6228      17.0705
   1562.5061    3693.3755      16.6228       0.0000
5233.2636
   5233.2636       8.5000    5232.9697      83.9706       6.2525    7443.4035
      9.1323       9.1327     576.0242     732.3151       4.8841     456.8424
    336.1686    6567.4521      -0.0211       2.6021      16.6031      17.4113
   1577.9697    3675.1094      16.6031       0.0000
5233.1112
   5233.1112       8.5000    5232.8173      82.4870       6.2347    7457.8417
      9.1221       9.1303     578.4599     741.9099       5.5099     431.9532
    315.7420    6447.0584      -0.0402       2.6026      16.3703      16.8591
   1635.5958    3794.6382      16.3703       0.0000
5232.9588
   5232.9588       8.5000    5232.6649      81.2374       6.2280    7446.9574
      9.0994       9.1084     566.2293     774.6431       6.9036     421.5941
    279.2451    6504.9928      -0.0431       2.5987      17.5340      17.9849
   1599.9777    3869.2078      17.5340       0.0000
5232.8064
   5232.8064       8.5000    5232.5125      82.1550       6.2645    7401.7866
      9.1037       9.0996     594.7514     787.3794       6.0839     463.5540
    315.9614    6629.0830      -0.0345       2.5888      19.2408      19.7886
   1519.1731    3860.7201      19.2408       0.0000
5232.6540
   5232.6540       8.5000    5232.3610      86.6199       6.1952    7361.8683
      9.1059       9.1059     595.9566     794.8154       5.9956     444.6789
    315.4222    6638.1639      -0.0276       2.5887      18.7876      19.4883
   1513.9959    3801.4602      18.7876       0.0000
5232.5016
   5232.5016       8.5000    5232.2086      90.8864       6.1476    7376.6330
      9.1053       9.1044     555.6711     724.5717       5.7221     438.7468
    300.4305    6590.1055      -0.0154       2.6207      18.7557      19.3788
   1457.9137    3672.1621      18.7557       0.0000
5232.3492
   5232.3492       8.5000    5232.0562      92.0506       6.1749    7452.2442
      9.1106       9.1087     568.5877     693.5587       5.6193     431.7560
    292.2463    6608.2846      -0.0078       2.6285      18.2197      18.9968
   1443.4634    3553.8815      18.2197       0.0000
5232.1968
   5232.1968       8.5000    5231.9038      90.8039       6.1909    7549.9966
      9.1134       9.1101     572.1598     733.7858       5.9198     446.6502
    294.5478    6608.0189      -0.0183       2.6165      17.0606      17.6741
   1498.8484    3555.6239      17.0606       0.0000
5232.0444
   5232.0444       8.5000    5231.7514      89.0375       6.2931    7585.1333
      9.1449       9.1259     573.8645     757.3471       5.8729     468.0319
    307.2494    6535.6413      -0.0291       2.6112      17.9208      18.5348
   1483.0347    3615.1604      17.9208       0.0000
5231.8920
   5231.8920       8.5000    5231.5990      88.4195       6.4181    7500.8411
      9.1605       9.1590     578.3810     732.7093       5.6824     459.7732
    302.4221    6488.8502      -0.0358       2.6160      16.8517      17.6503
   1536.2711    3627.9665      16.8517       0.0000
5231.7396
   5231.7396       8.5000    5231.4466      90.0174       6.3239    7370.0690
      9.1498       9.1537     605.7184     723.4734       4.8333     463.2340
    331.0569    6562.0176      -0.0317       2.6092      15.7703      16.4584
   1576.2756    3600.1052      15.7703       0.0000
5231.5872
   5231.5872       8.5000    5231.2942      90.4441       6.1341    7299.1077
      9.1492       9.1503     605.6625     698.2241       3.9922     490.4917
    360.3530    6605.3317      -0.0191       2.6132      15.7189      16.3020
   1570.2348    3586.7535      15.7189       0.0000
5231.4348
   5231.4348       8.5000    5231.1418      87.2879       6.0943    7300.5845
      9.1468       9.1467     576.1354     728.4863       4.4191     474.5038
    351.7780    6622.5638      -0.0145       2.6128      15.2803      15.9894
   1591.6752    3573.4366      15.2803       0.0000
5231.2824
   5231.2824       8.5000    5230.9894      82.2781       6.0810    7333.4162
      9.1493       9.1481     592.8213     762.0200       5.3608     490.1629
    326.2083    6613.6724      -0.0271       2.5994      13.8644      14.5761
   1669.0465    3559.6176      13.8644       0.0000
5231.1300
   5231.1300       8.5000    5230.8370      78.7417       6.0965    7384.6023
      9.1609       9.1529     602.9467     794.8710       5.6098     488.0145
    330.8829    6561.7605      -0.0397       2.5899      13.2087      13.7368
   1730.7310    3601.5399      13.2087       0.0000
