~VERSION INFORMATION
VERS.           2.0   :CWLS Log ASCII Standard - VERSION 2.0
WRAP.           NO    :One Line per depth step
PROD.  Schlumberger   :LAS Producer
PROG.  DLIS to ASCII 2.3                               :LAS Program name and version
CREA.        2023/07/14 00:15                          :LAS Creation date {YYYY/MM/DD hh:mm}
DLIS_CREA.  2023-Jul-14 00:11                          :DLIS Creation date and time {YYYY-MMM-DD hh:mm}
SOURCE.     LIS_008.dlis                               :DLIS File Name
FILE-ID.     LIS   .001                                :File Identification Number
#--------------------------------------------------
~WELL INFORMATION
#MNEM.UNIT      DATA             DESCRIPTION
#---- ------ --------------   -----------------------------
STRT .M      5286.4512       :START DEPTH     
STOP .M      5066.6904       :STOP DEPTH     
STEP .M        -0.1524       :STEP     
NULL .          -999.25      :NULL VALUE
COMP .        PETROBRAS S.A.                           :COMPANY
WELL .        3-BRSA-293D-SPS                          :WELL
FLD  .        BS-400                                   :FIELD
LOC  .        BASE SAD 69:                             :LOCATION
CNTY .        SANTOS                                   :COUNTY
STAT .        BRASIL                                   :STATE
CTRY .        BRASIL                                   :COUNTRY
API  .                                                 :API NUMBER
UWI  .                                                 :UNIQUE WELL ID
DATE .        15/11/2004                               :LOG DATE
SRVC .        Schlumberger                             :SERVICE COMPANY
LATI .DEG                                              :LATITUDE
LONG .DEG                                              :LONGITUDE
GDAT .                                                 :GeoDetic Datum
#-----------------------------------------------------------------------------
~PARAMETER INFORMATION
#MNEM.UNIT    VALUE                      DESCRIPTION
#---- -----   --------------------       ------------------------
APD  .M               24                 :
BHT  .DEGF           260                 :
BLI  .M             5289                 :
BS   .IN         8.50000                 :
CN   .        PETROBRAS S.A.             :
COUN .        SANTOS                     :
CS   .IN         9.62500                 :
DATE .        15/11/2004                 :
DFD  .LB/G      12.30000                 :
DFL  .C3               2                 :
DFPH .        N/A                        :
DFT  .        SINTETICO                  :
DFV  .S               95                 :
DMF  .        MESA ROTATIVA              :
EDF  .M               24                 :
EGL  .M             -500                 :
EKB  .        N/A                        :
ENGI .        HERNANDEZ / LOCK           :
FL1  .        X   7292392.00 M LAT 24 28 47.189 S :
FL2  .        Y    584087.00 M LON 44 10 12.698 W :
FL3  .        MC  45 GRAUS               :
FN   .        BS-400                     :
LMF  .        MESA ROTATIVA              :
LUL  .        MACAE                      :
MCSS .        PRENSA                     :
MCST .DEGF            80                 :
MFSS .        PRENSA                     :
MFST .DEGF            80                 :
MSS  .        LINHA DE FLUXO             :
MST  .DEGF            80                 :
PDAT .        NIVEL DO MAR               :
R1   .        01. APRESENTAÇÃO DE ACORDO COM REQUERIMENTO DO CLIENTE :
R2   .        02. TEMPERATURA MÁXIMA DO POÇO T1=T2= 290 DEGF @  5275 M :
R3   .        03. INICIO DA CIRCULAÇÃO  12/11/2004 09 00 H :
R4   .        04. FINAL DA CIRCULAÇÃO   12/11/2004 18 00 H :
R5   .        05. TEMPO TOTAL DE CIRCULAÇÃO   09 00 H :
R6   .        06. FLUIDO DE PERFURAÇÃO  SINTETICO (BR-MUL  BR-MI)  60% TEOR DO OLEO :
R7   .        07. SALINIDADE DA LAMA  254762 PPM NACL NA FASE DE AGUA :
R8   .        08. INCLINAÇÃO MÁXIMA DO POÇO  37.37 GRAUS @ 5100 M :
R9   .        09. PRIMEIRAS E ULTIMAS LEITURAS  :
RMB  .OHMM    > 10                       :
RMCS .OHMM    > 10                       :
RMFS .OHMM    > 10                       :
RMS  .OHMM    >10                        :
RUN  .                 2                 :
STAT .        BRASIL                     :
TCS  .        18 00 H                    :
TDD  .M             5288                 :
TDL  .M             5293                 :
TLAB .        N/A                        :
TLI  .M             5000                 :
WITN .        ERNANI / ZE MARIA          :
WN   .        3-BRSA-293D-SPS            :
LUN  .              8808                 :
HIDE .        3-SPS-41D                  :
HID2 .        HIGH DEFINITION INDUCTION LOG :
HID3 .        X-MULTIPOLE ARRAY ACOUSTILOG :
HID4 .        GAMMA RAY LOG              :
HID5 .        TTRM SUB                   :
CLAB .        BACIA                      :
SLAB .        PAIS                       :
CMT1 .        ESC  1 200                 :
CMT2 .        PROF. MEDIDA               :
CMT4 .        SONDA  SS-43               :
HDAT .        SAD 69                     :
FL   .        BASE SAD 69                :
OS1  .        RCI/GR                     :
OS2  .        CHECK SHOT                 :
OS3  .        GR/CN/ZDL                  :
OS5  .        RCOR/GR                    :
LNAM .        ZDL/CN/XMAC/HDIL/EARTH IMAGER/RCI/RCOR/CHECK SHOT/GR :
TOOL .        ZDL/CN/XMAC/HDIL/EARTH IMAGER/RCI/RCOR/CHECK SHOT/GR :
LSOU .        PETROBRAS                  :
LSRV .        OH WIRELINE                :
LTYP .        RAW                        :
EPD  .M                0                 :
LDAT .        15/11/2004                 :
TRIP .                 3                 :
SON  .            786588                 :
CBDR .M             4277                 :
CBLO .        NR                         :
CBL1 .        NR                         :
STEM .DEGF    N/A                        :
BSAL .            254762                 :
BARI .        OFF                        :
DLAB .        12/11/2004                 :
MRT  .DEGF           290                 :
TSTR .        HDIL/XMAC/GR/TTRM          :
TSTG .        N/A                        :
STUS .        FINAL                      :
LCNM .        BAKER ATLAS                :
LCC  .               150                 :
NATI .        BRASIL                     :
OPMD .        OH.WIRELINE                :
PANA .        HERNANDEZ / LOCK           :
PCON .        BAKER ATLAS                :
R11  .        SL     5268.3 M / 5000.0 M :
R12  .        GR     5268.3 M / 5000.0 M :
R13  .        XMAC   5279.5 M / 5000.0 M :
R14  .        HDIL   5289.0 M / 5000.0 M :
R17  .        11. DECLINAÇÃO MAGNETICA  -20.9 GRAUS :
R18  .        12. COORDENADAS BASE       :
R21  .        Y    583936.00 M           :
R22  .        MC  45 GRAUS               :
PVER .           4.10000                 :
WDFN .        /space/expusr/3-SPS-41D_RUN2/i77bf01_2spf.xtf :
OCT  .        i77bf                      :
OS4  .        EARTH IMAGER               :
R16  .        10. PONTO FRACO UTILIZADO  10K :
R20  .        X   7292512.00 M           :
R24  .        13. CADASTRO ANP  86316021017 :
#-----------------------------------------------------------------------------
~CURVE INFORMATION
#MNEM.UNIT   API CODE                                  DESCRIPTION
#---- -----  --------                                  -----------------------
DEPT .M                                                :DEPTH (BOREHOLE) {F10.4}
DEPT .M                                                : {F13.4}
DT   .US/F                                             : {F13.4}
SFN1 .US                                               : {F13.4}
SFN2 .US                                               : {F13.4}
SFN3 .US                                               : {F13.4}
SFN4 .US                                               : {F13.4}
TT   .MS                                               : {F13.4}
#-----------------------------------------------------------------------------
# 
#     DEPT        DEPT         DT           SFN1         SFN2         SFN3         SFN4         TT
#
~A  
# ...
 5226.2532    5226.2532      66.1584     692.6168     721.2462     756.8721     788.0035      12.2960
 5226.1008    5226.1008      66.1882     693.8732     729.4884     759.8708     793.7419      12.3291
 5225.9484    5225.9484      66.0364     693.9999     726.5031     761.6232     790.0039      12.3622
 5225.7960    5225.7960      65.7608     695.6239     726.5000     761.6250     794.6219      12.3951
 5225.6436    5225.6436      65.4353     691.0000     725.1250     761.6250     794.8750      12.4278
 5225.4912    5225.4912      65.0244     691.0000     723.3750     761.3750     795.0000      12.4603
 5225.3388    5225.3388      64.4347     695.2501     722.8756     756.8763     794.6229      12.4926
 5225.1864    5225.1864      63.6151     695.3750     724.2501     759.8700     789.7463      12.5244
 5225.0340    5225.0340      62.5863     695.3750     724.3749     753.7501     785.1254      12.5557
 5224.8816    5224.8816      61.4770     695.3750     724.2506     753.8744     785.4982      12.5862
 5224.7292    5224.7292      60.5237     695.4994     724.3744     753.7506     785.3756      12.6165
 5224.5768    5224.5768      60.1239     695.2510     724.3750     753.7500     785.3750      12.6466
 5224.4244    5224.4244      60.5904     689.8952     724.1259     753.7500     785.4995      12.6769
 5224.2720    5224.2720      61.8024     800.8730     721.3843     753.7500     785.6246      12.7078
 5224.1196    5224.1196      63.1987     674.7576    1113.5638     761.1028     785.6250      12.7394
 5223.9672    5223.9672      64.2588     675.4970     831.8755    1071.1774     939.0928      12.7715
 5223.8148    5223.8148      64.9245     674.0034     704.0400     738.5111     939.5000      12.8040
 5223.6624    5223.6624      65.4449     672.5029     703.9995     738.8729     772.1948      12.8368
 5223.5100    5223.5100      65.9336     672.0008     704.0000     738.5006     775.9937      12.8697
 5223.3576    5223.3576      66.1945     672.0000     704.2497     743.9936     773.6278      12.9028
 5223.2052    5223.2052      65.9487     672.0000     704.2500     744.0000     770.0029      12.9358
 5223.0528    5223.0528      65.1740     672.1249     704.2500     744.0000     768.7505      12.9684
 5222.9004    5222.9004      64.2300     672.1250     704.2500     744.0000     768.5000      13.0006
 5222.7480    5222.7480      63.5475     672.1250     704.5000     744.0000     768.6250      13.0323
 5222.5956    5222.5956      63.3314     672.2502     704.4999     744.0000     768.7497      13.0640
 5222.4432    5222.4432      63.5375     672.4999     704.3751     744.0000     768.3753      13.0958
 5222.2908    5222.2908      63.8705     672.3769     704.5000     744.0000     768.6250      13.1277
 5222.1384    5222.1384      63.9279     673.7437     704.5000     744.0000     768.6250      13.1595
 5221.9860    5221.9860      63.4786     404.1524     706.9894     744.1245     768.8739      13.1913
 5221.8336    5221.8336      62.6683     352.1982     750.8290     742.2573     768.6260      13.2226
 5221.6812    5221.6812      61.9091     664.2726     690.5883     656.3034     772.2372      13.2536
 5221.5288    5221.5288      61.6060     658.5216     688.0075     725.4058     748.3256      13.2844
 5221.3764    5221.3764      61.8848     656.1316     687.2521     720.3896     643.5418      13.3154
 5221.2240    5221.2240      62.4811     656.7485     687.1253     721.2479     580.9006      13.3466
 5221.0716    5221.0716      63.0381     659.7439     687.9982     721.1253     536.0913      13.3781
 5220.9192    5220.9192      63.3716     657.1294     688.9983     722.4977     687.7459      13.4098
 5220.7668    5220.7668      63.5588     656.1263     689.4993     723.6235     688.0000      13.4416
 5220.6144    5220.6144      63.8114     656.0001     686.0033     720.5029     395.8979      13.4735
 5220.4620    5220.4620      64.1578     654.8756     682.8768     720.0003     508.6862      13.5056
 5220.3096    5220.3096      64.3699     650.1250     683.7500     716.2500     612.1250      13.5378
 5220.1572    5220.1572      64.1806     650.1250     680.0000     715.8750     746.5000      13.5699
 5220.0048    5220.0048      63.5867     648.7499     679.9991     713.1250     744.2485      13.6017
 5219.8524    5219.8524      62.8900     648.5005     678.3822     713.1217     741.5000      13.6332
 5219.7000    5219.7000      62.4480     649.0005     686.2425     709.5126     741.4976      13.6644
 5219.5476    5219.5476      62.4070     649.3732     680.4028     719.3283     739.6339      13.6954
 5219.3952    5219.3952      62.6024     649.1261     679.8772     712.4057     938.7471      13.7268
 5219.2428    5219.2428      62.7393     648.1290     679.9995     712.0015     744.4130      13.7581
 5219.0904    5219.0904      62.5771     648.0005     679.3773     712.0000     743.9986      13.7894
 5218.9380    5218.9380      62.1622     648.3738     679.1258     712.0000     743.5016      13.8205
 5218.7856    5218.7856      61.8370     650.8677     679.9975     711.7507     743.3754      13.8515
 5218.6332    5218.6332      61.8194     651.2490     680.4987     711.9994     742.2529      13.8824
 5218.4808    5218.4808      62.0195     651.1253     680.6247     713.9957     743.9962      13.9134
 5218.3284    5218.3284      62.1620     651.1250     680.5002     714.4991     744.7486      13.9445
 5218.1760    5218.1760      61.9793     651.2498     680.6248     714.6248     745.1245      13.9755
 5218.0236    5218.0236      61.4820     651.4997     680.7499     714.8747     745.2499      14.0062
 5217.8712    5217.8712      60.9405     649.2516     680.9998     714.8750     745.3749      14.0367
 5217.7188    5217.7188      60.5275     709.0000     680.0000     715.2500     745.3750      14.0670
 5217.5664    5217.5664      60.2335     640.3750     741.8750     713.0000     745.6250      14.0971
 5217.4140    5217.4140      60.0584     641.0027     741.8466     707.1436     742.3218      14.1272
 5217.2616    5217.2616      59.9852     647.4972     672.7515     448.1995     917.0840      14.1572
 5217.1092    5217.1092      59.9438     643.8769     674.6260     704.0054     544.2191      14.1872
 5216.9568    5216.9568      59.8779     645.4921     675.4957     708.7269     735.0667      14.2169
 5216.8044    5216.8044      59.7067     646.3710     675.5000     709.1233     740.4796      14.2468
 5216.6520    5216.6520      59.3923     647.9932     676.3714     710.7432     739.6286      14.2765
 5216.4996    5216.4996      58.9070     646.1321     676.6241     709.5047     740.3722      14.3060
 5216.3472    5216.3472      58.2071     645.0038     675.1301     710.8703     739.5030      14.3351
 5216.1948    5216.1948      57.7732     645.7477     674.1280     708.5072     741.3693      14.3640
 5216.0424    5216.0424      58.7288     645.8747     673.0030     704.0120     734.8924      14.3933
 5215.8900    5215.8900      62.1861     643.8796     672.3764     703.3764     728.0159      14.4244
 5215.7376    5215.7376      68.5127     635.2667     668.5075     698.8837     727.7505      14.4587
 5215.5852    5215.5852      76.5484     632.0051     663.1334     696.0045     727.9996      14.4970
 5215.4328    5215.4328      83.6954     632.0000     654.7601     696.0000     727.6255      14.5389
 5215.2804    5215.2804      87.2714     623.7569     650.2537     416.2326     721.3802      14.5825
 5215.1280    5215.1280      85.8730     616.0036     648.0010     679.8782     491.7310      14.6255
 5214.9756    5214.9756      80.0886     617.5000     641.8750     677.2500     552.0000      14.6655
 5214.8232    5214.8232      72.3353     751.6250     643.0000     672.0000     632.0000      14.7017
 5214.6708    5214.6708      65.2772     608.0000     702.8787     672.0000     468.7306      14.7344
 5214.5184    5214.5184      60.2062     608.0000     515.3685     671.9919     632.0650      14.7645
 5214.3660    5214.3660      57.0007     608.0000     632.0000     664.0000     695.9931      14.7930
