~VERSION INFORMATION
VERS.           2.0   :CWLS Log ASCII Standard - VERSION 2.0
WRAP.           NO    :One Line per depth step
PROD.  Schlumberger   :LAS Producer
PROG.  DLIS to ASCII 2.3                               :LAS Program name and version
CREA.        2023/07/14 00:15                          :LAS Creation date {YYYY/MM/DD hh:mm}
DLIS_CREA.  2023-Jul-14 00:11                          :DLIS Creation date and time {YYYY-MMM-DD hh:mm}
SOURCE.     LIS_011.dlis                               :DLIS File Name
FILE-ID.     LIS   .004                                :File Identification Number
#--------------------------------------------------
~WELL INFORMATION
#MNEM.UNIT      DATA             DESCRIPTION
#---- ------ --------------   -----------------------------
STRT .M      5300.3196       :START DEPTH     
STOP .M      4931.0544       :STOP DEPTH     
STEP .M        -0.1524       :STEP     
NULL .          -999.25      :NULL VALUE
COMP .        PETROBRAS S.A.                           :COMPANY
WELL .        3-BRSA-293D-SPS                          :WELL
FLD  .        BS-400                                   :FIELD
LOC  .        BASE SAD 69:                             :LOCATION
CNTY .        SANTOS                                   :COUNTY
STAT .        BRASIL                                   :STATE
CTRY .        BRASIL                                   :COUNTRY
API  .                                                 :API NUMBER
UWI  .                                                 :UNIQUE WELL ID
DATE .        15/11/2004                               :LOG DATE
SRVC .        Schlumberger                             :SERVICE COMPANY
LATI .DEG                                              :LATITUDE
LONG .DEG                                              :LONGITUDE
GDAT .                                                 :GeoDetic Datum
#-----------------------------------------------------------------------------
~PARAMETER INFORMATION
#MNEM.UNIT    VALUE                      DESCRIPTION
#---- -----   --------------------       ------------------------
APD  .M               24                 :
BHT  .DEGF           260                 :
BLI  .M             5289                 :
BS   .IN         8.50000                 :
CN   .        PETROBRAS S.A.             :
COUN .        SANTOS                     :
CS   .IN         9.62500                 :
DATE .        15/11/2004                 :
DFD  .LB/G      12.30000                 :
DFL  .C3               2                 :
DFPH .        N/A                        :
DFT  .        SINTETICO                  :
DFV  .S               95                 :
DMF  .        MESA ROTATIVA              :
EDF  .M               24                 :
EGL  .M             -500                 :
EKB  .        N/A                        :
ENGI .        HERNANDEZ / LOCK           :
FL1  .        X   7292392.00 M LAT 24 28 47.189 S :
FL2  .        Y    584087.00 M LON 44 10 12.698 W :
FL3  .        MC  45 GRAUS               :
FN   .        BS-400                     :
LMF  .        MESA ROTATIVA              :
LUL  .        MACAE                      :
MCSS .        PRENSA                     :
MCST .DEGF            80                 :
MFSS .        PRENSA                     :
MFST .DEGF            80                 :
MSS  .        LINHA DE FLUXO             :
MST  .DEGF            80                 :
PDAT .        NIVEL DO MAR               :
R1   .        01. APRESENTAÇÃO DE ACORDO COM REQUERIMENTO DO CLIENTE :
R2   .        02. TEMPERATURA MÁXIMA DO POÇO T1=T2= 290 DEGF @  5275 M :
R3   .        03. INICIO DA CIRCULAÇÃO  12/11/2004 09 00 H :
R4   .        04. FINAL DA CIRCULAÇÃO   12/11/2004 18 00 H :
R5   .        05. TEMPO TOTAL DE CIRCULAÇÃO   09 00 H :
R6   .        06. FLUIDO DE PERFURAÇÃO  SINTETICO (BR-MUL  BR-MI)  60% TEOR DO OLEO :
R7   .        07. SALINIDADE DA LAMA  254762 PPM NACL NA FASE DE AGUA :
R8   .        08. INCLINAÇÃO MÁXIMA DO POÇO  37.37 GRAUS @ 5100 M :
R9   .        09. PRIMEIRAS E ULTIMAS LEITURAS  :
RMB  .OHMM    > 10                       :
RMCS .OHMM    > 10                       :
RMFS .OHMM    > 10                       :
RMS  .OHMM    >10                        :
RUN  .                 2                 :
STAT .        BRASIL                     :
TCS  .        18 00 H                    :
TDD  .M             5288                 :
TDL  .M             5293                 :
TLAB .        N/A                        :
TLI  .M             5000                 :
WITN .        ERNANI / ZE MARIA          :
WN   .        3-BRSA-293D-SPS            :
LUN  .              8808                 :
HIDE .        3-SPS-41D                  :
HID2 .        HIGH DEFINITION INDUCTION LOG :
HID3 .        X-MULTIPOLE ARRAY ACOUSTILOG :
HID4 .        GAMMA RAY LOG              :
HID5 .        TTRM SUB                   :
CLAB .        BACIA                      :
SLAB .        PAIS                       :
CMT1 .        ESC  1 200                 :
CMT2 .        PROF. MEDIDA               :
CMT4 .        SONDA  SS-43               :
HDAT .        SAD 69                     :
FL   .        BASE SAD 69                :
OS1  .        RCI/GR                     :
OS2  .        CHECK SHOT                 :
OS3  .        GR/CN/ZDL                  :
OS5  .        RCOR/GR                    :
LNAM .        ZDL/CN/XMAC/HDIL/EARTH IMAGER/RCI/RCOR/CHECK SHOT/GR :
TOOL .        ZDL/CN/XMAC/HDIL/EARTH IMAGER/RCI/RCOR/CHECK SHOT/GR :
LSOU .        PETROBRAS                  :
LSRV .        OH WIRELINE                :
LTYP .        RAW                        :
EPD  .M                0                 :
LDAT .        15/11/2004                 :
TRIP .                 3                 :
SON  .            786588                 :
CBDR .M             4277                 :
CBLO .        NR                         :
CBL1 .        NR                         :
STEM .DEGF    N/A                        :
BSAL .            254762                 :
BARI .        OFF                        :
DLAB .        12/11/2004                 :
MRT  .DEGF           290                 :
TSTR .        HDIL/XMAC/GR/TTRM          :
TSTG .        N/A                        :
STUS .        FINAL                      :
LCNM .        BAKER ATLAS                :
LCC  .               150                 :
NATI .        BRASIL                     :
OPMD .        OH.WIRELINE                :
PANA .        HERNANDEZ / LOCK           :
PCON .        BAKER ATLAS                :
R11  .        SL     5268.3 M / 5000.0 M :
R12  .        GR     5268.3 M / 5000.0 M :
R13  .        XMAC   5279.5 M / 5000.0 M :
R14  .        HDIL   5289.0 M / 5000.0 M :
R17  .        11. DECLINAÇÃO MAGNETICA  -20.9 GRAUS :
R18  .        12. COORDENADAS BASE       :
R21  .        Y    583936.00 M           :
R22  .        MC  45 GRAUS               :
PVER .           4.10000                 :
WDFN .        /space/expusr/3-SPS-41D_RUN2/i77bf02_4spf.xtf :
OCT  .        i77bf                      :
OS4  .        EARTH IMAGER               :
R16  .        10. PONTO FRACO UTILIZADO  10K :
R20  .        X   7292512.00 M           :
R24  .        13. CADASTRO ANP  86316021017 :
#-----------------------------------------------------------------------------
~CURVE INFORMATION
#MNEM.UNIT   API CODE                                  DESCRIPTION
#---- -----  --------                                  -----------------------
DEPT .M                                                :DEPTH (BOREHOLE) {F10.4}
DEPT .M                                                : {F13.4}
BIT  .IN                                               : {F13.4}
GR   .GAPI                                             : {F13.4}
M2R1 .OHMM                                             : {F13.4}
M2R2 .OHMM                                             : {F13.4}
M2R3 .OHMM                                             : {F13.4}
M2R6 .OHMM                                             : {F13.4}
M2R9 .OHMM                                             : {F13.4}
M2RX .OHMM                                             : {F13.4}
SPD  .M/MN                                             : {F13.4}
TEN  .LBF                                              : {F13.4}
TTEN .LBF                                              : {F13.4}
#-----------------------------------------------------------------------------
# 
#     DEPT        DEPT         BIT          GR           M2R1         M2R2         M2R3         M2R6         M2R9         M2RX         SPD          TEN          TTEN
#
~A  
# ...
 5029.6572    5029.6572       8.5000      96.1589       3.7751       5.2271       6.2220       6.8798       7.0596       7.2834       4.8490     -25.4236    7566.7227
 5029.5048    5029.5048       8.5000      95.8545       3.8483       5.2997       6.3109       6.9871       7.1753       7.4051       4.8520     -26.9328    7564.6938
 5029.3524    5029.3524       8.5000      94.1847       3.9772       5.4553       6.5020       7.2107       7.4121       7.6531       4.8549     -12.5758    7578.6914
 5029.2000    5029.2000       8.5000      92.4914       4.1170       5.6344       6.7255       7.4729       7.6899       7.9450       4.8582      10.2934    7601.5587
 5029.0476    5029.0476       8.5000      89.7165       4.2305       5.7869       6.9206       7.7048       7.9372       8.2063       4.8631      17.3403    7608.8646
 5028.8952    5028.8952       8.5000      86.1856       4.2943       5.8778       7.0423       7.8545       8.0995       8.3802       4.8653       2.7574    7594.4258
 5028.7428    5028.7428       8.5000      84.8134       4.2896       5.8732       7.0458       7.8701       8.1221       8.4097       4.8559     -12.8679    7578.6371
 5028.5904    5028.5904       8.5000      85.8881       4.2408       5.8016       6.9630       7.7862       8.0400       8.3303       4.8402     -13.8410    7577.3429
 5028.4380    5028.4380       8.5000      86.7510       4.1954       5.7319       6.8771       7.6954       7.9489       8.2407       4.8328      -7.6565    7583.2578
 5028.2856    5028.2856       8.5000      87.1945       4.1745       5.6999       6.8348       7.6513       7.9044       8.1987       4.8379     -10.0592    7580.6432
 5028.1332    5028.1332       8.5000      89.4387       4.1646       5.6910       6.8220       7.6392       7.8920       8.1891       4.8474     -23.4551    7566.8945
 5027.9808    5027.9808       8.5000      91.8875       4.1382       5.6688       6.7969       7.6135       7.8652       8.1639       4.8563     -36.4999    7553.2114
 5027.8284    5027.8284       8.5000      92.1823       4.0895       5.6220       6.7454       7.5585       7.8083       8.1067       4.8536     -39.8154    7549.1095
 5027.6760    5027.6760       8.5000      91.7090       4.0278       5.5584       6.6752       7.4830       7.7306       8.0272       4.8329     -48.5165    7539.5454
 5027.5236    5027.5236       8.5000      92.2538       3.9584       5.4829       6.5908       7.3911       7.6365       7.9301       4.8075     -66.8934    7519.9869
 5027.3712    5027.3712       8.5000      92.5245       3.8956       5.4169       6.5176       7.3111       7.5550       7.8457       4.7872     -71.4964    7513.9088
 5027.2188    5027.2188       8.5000      91.4725       3.8563       5.3867       6.4871       7.2779       7.5219       7.8113       4.7666     -48.4761    7535.6846
 5027.0664    5027.0664       8.5000      91.0390       3.8261       5.3706       6.4731       7.2622       7.5070       7.7957       4.7524     -16.0029    7567.5674
 5026.9140    5026.9140       8.5000      92.7797       3.7733       5.3193       6.4155       7.1973       7.4411       7.7271       4.7549       1.2505    7584.7413
 5026.7616    5026.7616       8.5000      94.4924       3.6974       5.2278       6.3085       7.0774       7.3184       7.5997       4.7660      -7.0245    7576.4247
 5026.6092    5026.6092       8.5000      94.4949       3.6280       5.1376       6.2029       6.9603       7.1985       7.4757       4.7729     -28.0865    7554.9973
 5026.4568    5026.4568       8.5000      94.5073       3.5922       5.0884       6.1480       6.9019       7.1398       7.4156       4.7713     -39.7114    7542.7027
 5026.3044    5026.3044       8.5000      94.6627       3.5919       5.0840       6.1494       6.9091       7.1494       7.4269       4.7610     -37.7545    7543.8880
 5026.1520    5026.1520       8.5000      92.8844       3.6074       5.0978       6.1751       6.9457       7.1901       7.4712       4.7472     -28.7278    7552.2124
 5025.9996    5025.9996       8.5000      89.5426       3.6344       5.1264       6.2195       7.0054       7.2553       7.5414       4.7394     -19.8792    7560.5393
 5025.8472    5025.8472       8.5000      86.7969       3.6850       5.1902       6.3066       7.1141       7.3717       7.6652       4.7411     -18.4511    7561.6076
 5025.6948    5025.6948       8.5000      85.3022       3.7520       5.2824       6.4280       7.2614       7.5283       7.8307       4.7424     -22.3060    7557.3996
 5025.5424    5025.5424       8.5000      85.4099       3.8064       5.3650       6.5384       7.3953       7.6706       7.9811       4.7383     -20.1754    7559.1371
 5025.3900    5025.3900       8.5000      87.6512       3.8176       5.3954       6.5857       7.4556       7.7355       8.0503       4.7383     -11.0322    7568.0077
 5025.2376    5025.2376       8.5000      91.2631       3.7838       5.3658       6.5589       7.4288       7.7084       8.0229       4.7473      -1.3019    7577.6911
 5025.0852    5025.0852       8.5000      93.4975       3.7339       5.3067       6.4919       7.3532       7.6289       7.9399       4.7595       5.5721    7584.6826
 5024.9328    5024.9328       8.5000      93.3892       3.7024       5.2577       6.4309       7.2820       7.5521       7.8588       4.7690       8.7850    7588.0552
 5024.7804    5024.7804       8.5000      93.4810       3.7085       5.2433       6.4064       7.2505       7.5152       7.8184       4.7681       6.0900    7585.4789
 5024.6280    5024.6280       8.5000      95.2708       3.7516       5.2681       6.4267       7.2699       7.5302       7.8316       4.7582      -1.7591    7577.6368
 5024.4756    5024.4756       8.5000      96.3055       3.8212       5.3286       6.4913       7.3407       7.5987       7.8997       4.7500     -14.1519    7565.0684
 5024.3232    5024.3232       8.5000      95.2057       3.8992       5.4107       6.5857       7.4477       7.7055       8.0074       4.7499     -37.4774    7541.2188
 5024.1708    5024.1708       8.5000      93.8611       3.9687       5.4954       6.6876       7.5660       7.8255       8.1285       4.7548     -57.4378    7520.3096
 5024.0184    5024.0184       8.5000      93.7582       4.0282       5.5768       6.7886       7.6856       7.9488       8.2527       4.7593     -49.1993    7527.5146
 5023.8660    5023.8660       8.5000      94.6868       4.0829       5.6537       6.8853       7.8017       8.0699       8.3743       4.7637     -27.0680    7548.9437
 5023.7136    5023.7136       8.5000      95.8837       4.1386       5.7300       6.9812       7.9165       8.1908       8.4953       4.7703     -33.7117    7541.6910
 5023.5612    5023.5612       8.5000      96.9235       4.1912       5.8072       7.0774       8.0295       8.3099       8.6139       4.7706     -59.0030    7515.3934
 5023.4088    5023.4088       8.5000      98.9709       4.1849       5.8198       7.0949       8.0501       8.3324       8.6321       4.7599     -64.3801    7508.7449
 5023.2564    5023.2564       8.5000     103.0874       4.0601       5.6869       6.9354       7.8662       8.1418       8.4294       4.7659     -54.7283    7517.2454
 5023.1040    5023.1040       8.5000     106.9206       3.8690       5.4657       6.6679       7.5569       7.8197       8.0909       4.7790     -46.3704    7524.6476
 5022.9516    5022.9516       8.5000     107.7010       3.7078       5.2728       6.4333       7.2829       7.5327       7.7893       4.7679     -20.7296    7549.6498
 5022.7992    5022.7992       8.5000     106.2977       3.6176       5.1566       6.2898       7.1116       7.3512       7.5976       4.7743      14.6208    7584.9765
 5022.6468    5022.6468       8.5000     105.3353       3.5945       5.1129       6.2323       7.0387       7.2714       7.5118       4.8286      14.6664    7585.3379
 5022.4944    5022.4944       8.5000     104.9407       3.6202       5.1259       6.2440       7.0465       7.2757       7.5136       4.8677     -25.6447    7544.9012
