~VERSION INFORMATION
VERS.           2.0   :CWLS Log ASCII Standard - VERSION 2.0
WRAP.           NO    :One Line per depth step
PROD.  Schlumberger   :LAS Producer
PROG.  DLIS to ASCII 2.3                               :LAS Program name and version
CREA.        2023/07/14 00:15                          :LAS Creation date {YYYY/MM/DD hh:mm}
DLIS_CREA.  2023-Jul-14 00:11                          :DLIS Creation date and time {YYYY-MMM-DD hh:mm}
SOURCE.     LIS_010.dlis                               :DLIS File Name
FILE-ID.     LIS   .003                                :File Identification Number
#--------------------------------------------------
~WELL INFORMATION
#MNEM.UNIT      DATA             DESCRIPTION
#---- ------ --------------   -----------------------------
STRT .M      5284.9272       :START DEPTH     
STOP .M      4939.1316       :STOP DEPTH     
STEP .M        -0.1524       :STEP     
NULL .          -999.25      :NULL VALUE
COMP .        PETROBRAS S.A.                           :COMPANY
WELL .        3-BRSA-293D-SPS                          :WELL
FLD  .        BS-400                                   :FIELD
LOC  .        BASE SAD 69:                             :LOCATION
CNTY .        SANTOS                                   :COUNTY
STAT .        BRASIL                                   :STATE
CTRY .        BRASIL                                   :COUNTRY
API  .                                                 :API NUMBER
UWI  .                                                 :UNIQUE WELL ID
DATE .        15/11/2004                               :LOG DATE
SRVC .        Schlumberger                             :SERVICE COMPANY
LATI .DEG                                              :LATITUDE
LONG .DEG                                              :LONGITUDE
GDAT .                                                 :GeoDetic Datum
#-----------------------------------------------------------------------------
~PARAMETER INFORMATION
#MNEM.UNIT    VALUE                      DESCRIPTION
#---- -----   --------------------       ------------------------
APD  .M               24                 :
BHT  .DEGF           260                 :
BLI  .M             5289                 :
BS   .IN         8.50000                 :
CN   .        PETROBRAS S.A.             :
COUN .        SANTOS                     :
CS   .IN         9.62500                 :
DATE .        15/11/2004                 :
DFD  .LB/G      12.30000                 :
DFL  .C3               2                 :
DFPH .        N/A                        :
DFT  .        SINTETICO                  :
DFV  .S               95                 :
DMF  .        MESA ROTATIVA              :
EDF  .M               24                 :
EGL  .M             -500                 :
EKB  .        N/A                        :
ENGI .        HERNANDEZ / LOCK           :
FL1  .        X   7292392.00 M LAT 24 28 47.189 S :
FL2  .        Y    584087.00 M LON 44 10 12.698 W :
FL3  .        MC  45 GRAUS               :
FN   .        BS-400                     :
LMF  .        MESA ROTATIVA              :
LUL  .        MACAE                      :
MCSS .        PRENSA                     :
MCST .DEGF            80                 :
MFSS .        PRENSA                     :
MFST .DEGF            80                 :
MSS  .        LINHA DE FLUXO             :
MST  .DEGF            80                 :
PDAT .        NIVEL DO MAR               :
R1   .        01. APRESENTAÇÃO DE ACORDO COM REQUERIMENTO DO CLIENTE :
R2   .        02. TEMPERATURA MÁXIMA DO POÇO T1=T2= 290 DEGF @  5275 M :
R3   .        03. INICIO DA CIRCULAÇÃO  12/11/2004 09 00 H :
R4   .        04. FINAL DA CIRCULAÇÃO   12/11/2004 18 00 H :
R5   .        05. TEMPO TOTAL DE CIRCULAÇÃO   09 00 H :
R6   .        06. FLUIDO DE PERFURAÇÃO  SINTETICO (BR-MUL  BR-MI)  60% TEOR DO OLEO :
R7   .        07. SALINIDADE DA LAMA  254762 PPM NACL NA FASE DE AGUA :
R8   .        08. INCLINAÇÃO MÁXIMA DO POÇO  37.37 GRAUS @ 5100 M :
R9   .        09. PRIMEIRAS E ULTIMAS LEITURAS  :
RMB  .OHMM    > 10                       :
RMCS .OHMM    > 10                       :
RMFS .OHMM    > 10                       :
RMS  .OHMM    >10                        :
RUN  .                 2                 :
STAT .        BRASIL                     :
TCS  .        18 00 H                    :
TDD  .M             5288                 :
TDL  .M             5293                 :
TLAB .        N/A                        :
TLI  .M             5000                 :
WITN .        ERNANI / ZE MARIA          :
WN   .        3-BRSA-293D-SPS            :
LUN  .              8808                 :
HIDE .        3-SPS-41D                  :
HID2 .        HIGH DEFINITION INDUCTION LOG :
HID3 .        X-MULTIPOLE ARRAY ACOUSTILOG :
HID4 .        GAMMA RAY LOG              :
HID5 .        TTRM SUB                   :
CLAB .        BACIA                      :
SLAB .        PAIS                       :
CMT1 .        ESC  1 200                 :
CMT2 .        PROF. MEDIDA               :
CMT4 .        SONDA  SS-43               :
HDAT .        SAD 69                     :
FL   .        BASE SAD 69                :
OS1  .        RCI/GR                     :
OS2  .        CHECK SHOT                 :
OS3  .        GR/CN/ZDL                  :
OS5  .        RCOR/GR                    :
LNAM .        ZDL/CN/XMAC/HDIL/EARTH IMAGER/RCI/RCOR/CHECK SHOT/GR :
TOOL .        ZDL/CN/XMAC/HDIL/EARTH IMAGER/RCI/RCOR/CHECK SHOT/GR :
LSOU .        PETROBRAS                  :
LSRV .        OH WIRELINE                :
LTYP .        RAW                        :
EPD  .M                0                 :
LDAT .        15/11/2004                 :
TRIP .                 3                 :
SON  .            786588                 :
CBDR .M             4277                 :
CBLO .        NR                         :
CBL1 .        NR                         :
STEM .DEGF    N/A                        :
BSAL .            254762                 :
BARI .        OFF                        :
DLAB .        12/11/2004                 :
MRT  .DEGF           290                 :
TSTR .        HDIL/XMAC/GR/TTRM          :
TSTG .        N/A                        :
STUS .        FINAL                      :
LCNM .        BAKER ATLAS                :
LCC  .               150                 :
NATI .        BRASIL                     :
OPMD .        OH.WIRELINE                :
PANA .        HERNANDEZ / LOCK           :
PCON .        BAKER ATLAS                :
R11  .        SL     5268.3 M / 5000.0 M :
R12  .        GR     5268.3 M / 5000.0 M :
R13  .        XMAC   5279.5 M / 5000.0 M :
R14  .        HDIL   5289.0 M / 5000.0 M :
R17  .        11. DECLINAÇÃO MAGNETICA  -20.9 GRAUS :
R18  .        12. COORDENADAS BASE       :
R21  .        Y    583936.00 M           :
R22  .        MC  45 GRAUS               :
PVER .           4.10000                 :
WDFN .        /space/expusr/3-SPS-41D_RUN2/i77bf02_2spf.xtf :
OCT  .        i77bf                      :
OS4  .        EARTH IMAGER               :
R16  .        10. PONTO FRACO UTILIZADO  10K :
R20  .        X   7292512.00 M           :
R24  .        13. CADASTRO ANP  86316021017 :
#-----------------------------------------------------------------------------
~CURVE INFORMATION
#MNEM.UNIT   API CODE                                  DESCRIPTION
#---- -----  --------                                  -----------------------
DEPT .M                                                :DEPTH (BOREHOLE) {F10.4}
DEPT .M                                                : {F13.4}
DT   .US/F                                             : {F13.4}
SFN1 .US                                               : {F13.4}
SFN2 .US                                               : {F13.4}
SFN3 .US                                               : {F13.4}
SFN4 .US                                               : {F13.4}
TT   .MS                                               : {F13.4}
#-----------------------------------------------------------------------------
# 
#     DEPT        DEPT         DT           SFN1         SFN2         SFN3         SFN4         TT
#
~A  
# ...
 5200.6500    5200.6500      64.3625     667.7620     698.5192     736.0000     766.8750      17.4488
 5200.4976    5200.4976      64.6237     666.0061     697.0052     734.2561     766.3767      17.4811
 5200.3452    5200.3452      64.5138     670.6106     700.7383     735.9946     765.5027      17.5133
 5200.1928    5200.1928      63.9579     666.1373     696.0130     732.0110     764.2534      17.5453
 5200.0404    5200.0404      63.1011     670.6143     699.1176     735.1176     766.6194      17.5769
 5199.8880    5199.8880      62.2135     670.1260     701.4952     735.7487     765.0033      17.6080
 5199.7356    5199.7356      61.6469     664.0100     696.0090     732.0061     761.2561      17.6389
 5199.5832    5199.5832      61.6614     666.9962     696.4994     730.8764     763.4972      17.6697
 5199.4308    5199.4308      62.1487     670.2471     696.7498     732.8732     763.3751      17.7008
 5199.2784    5199.2784      62.8131     667.2516     698.9988     733.2498     764.1246      17.7322
 5199.1260    5199.1260      63.4111     668.2500     697.7500     734.0000     764.6250      17.7639
 5198.9736    5198.9736      63.7711     665.1250     696.5000     732.8750     764.3750      17.7958
 5198.8212    5198.8212      63.9962     664.0000     695.9972     735.1235     764.0009      17.8278
 5198.6688    5198.6688      64.3681     664.0000     691.2536     732.4957     765.6206      17.8600
 5198.5164    5198.5164      65.0855     664.0000     694.7298     728.0043     761.0003      17.8926
 5198.3640    5198.3640      66.1536     664.0063     491.1014     731.2555     761.2595      17.9257
 5198.2116    5198.2116      67.2520     667.7338     698.8469     734.4860     766.8507      17.9591
 5198.0592    5198.0592      67.9763     671.9831     697.0109     735.9940     766.1280      17.9931
 5197.9068    5197.9068      68.1947     668.1390     703.9747     736.0000     767.9932      18.0272
 5197.7544    5197.7544      68.1242     671.9874     700.2622     741.1084     768.0000      18.0613
 5197.6020    5197.6020      68.0022     672.0000     702.7428     736.0147     771.1160      18.0953
 5197.4496    5197.4496      67.8164     674.6184     703.9969     736.0000     767.8831      18.1292
 5197.2972    5197.2972      67.1455     678.7412     588.3722     743.9829     775.9827      18.1628
 5197.1448    5197.1448      65.4710     674.0084     385.2336     744.0000     776.0000      18.1955
 5196.9924    5196.9924      62.8445     678.6185     365.4022     737.5091     770.7573      18.2270
 5196.8400    5196.8400      60.0053     678.3753     405.3340     743.9933     769.6262      18.2570
 5196.6876    5196.6876      58.0036     671.3796     360.0298     735.5056     766.1273      18.2860
 5196.5352    5196.5352      57.6386     664.0000     528.0000     729.0000     760.0000      18.3148
 5196.3828    5196.3828      58.8392     672.0000     371.1250     738.1250     612.2500      18.3443
 5196.2304    5196.2304      60.6808     674.4995     705.6230     741.9979     770.7489      18.3746
 5196.0780    5196.0780      62.3009     673.3739     701.1274     737.2490     768.3747      18.4058
 5195.9256    5195.9256      63.5002     672.0095     704.0000     736.0012     768.0000      18.4375
 5195.7732    5195.7732      64.5587     679.8761     703.9986     736.9985     767.9992      18.4698
 5195.6208    5195.6208      65.7696     600.3563     703.1289     736.0045     767.5022      18.5025
 5195.4684    5195.4684      66.9659     461.1982     703.9964     743.5936     772.1060      18.5360
 5195.3160    5195.3160      67.5613     674.6956     707.3624     742.6287     778.3516      18.5698
 5195.1636    5195.1636      67.3090     672.0118     705.8801     743.1233     774.8868      18.6035
 5195.0112    5195.0112      66.6050     672.0000     702.8840     741.3803     775.9966      18.6368
 5194.8588    5194.8588      65.9489     669.2572     703.4984     737.8842     773.6313      18.6698
 5194.7064    5194.7064      65.4561     670.3724     698.6361     736.0043     769.2599      18.7025
 5194.5540    5194.5540      64.8753     665.2597     699.3736     734.8771     768.0024      18.7350
 5194.4016    5194.4016      63.9313     665.1252     696.5044     735.9983     766.5023      18.7669
 5194.2492    5194.2492      62.8010     664.3759     696.0006     728.7584     765.0017      18.7984
 5194.0968    5194.0968      62.1107     664.1252     693.6269     728.0006     760.0039      18.8294
 5193.9444    5193.9444      62.3412     671.1221     695.9990     728.0000     759.8751      18.8606
 5193.7920    5193.7920      63.3874     668.1250     700.3750     728.5000     759.3750      18.8923
 5193.6396    5193.6396      64.7071     664.0000     696.0000     733.0000     760.0000      18.9247
 5193.4872    5193.4872      65.8238     668.1277     702.0015     736.0007     769.6249      18.9576
 5193.3348    5193.3348      66.6537     672.0008     704.1249     736.9966     769.4971      18.9909
 5193.1824    5193.1824      67.3745     672.7489     703.9963     733.7532     766.7541      19.0246
 5193.0300    5193.0300      68.0195     672.0065     701.3826     736.0109     769.6308      19.0587
 5192.8776    5192.8776      68.2876     675.6097     705.6071     742.0992     772.8613      19.0926
 5192.7252    5192.7252      67.7926     677.9908     710.2321     745.8605     776.4859      19.1265
 5192.5728    5192.5728      66.4769     674.1386     705.7658     744.0066     776.6246      19.1598
 5192.4204    5192.4204      64.8290     672.0067     703.0086     739.2649     774.1328      19.1922
 5192.2680    5192.2680      63.5973     672.0000     702.6260     736.0090     768.1416      19.2240
 5192.1156    5192.1156      63.4240     670.2542     697.7617     736.0000     769.3720      19.2557
 5191.9632    5191.9632      64.5077     670.3747     697.0015     735.7505     763.7614      19.2880
 5191.8108    5191.8108      66.3244     668.2535     697.1248     736.3740     768.9913      19.3212
 5191.6584    5191.6584      67.9833     671.9952     698.1237     736.4998     774.3681      19.3552
 5191.5060    5191.5060      68.8370     681.1166     706.1176     737.3742     774.4999      19.3896
 5191.3536    5191.3536      68.7254     688.3710     716.1195     744.7459     774.7499      19.4240
 5191.2012    5191.2012      67.9743     680.3750     714.5000     751.0000     778.3750      19.4580
 5191.0488    5191.0488      67.1481     687.3750     718.0000     749.8750     776.1250      19.4915
 5190.8964    5190.8964      66.5552     690.1260     720.6252     753.2493     787.6222      19.5248
 5190.7440    5190.7440      66.1257     691.8693     720.9963     752.0009     782.6271      19.5579
 5190.5916    5190.5916      65.7125     685.7565     717.0018     753.0029     784.8819      19.5908
 5190.4392    5190.4392      65.2450     690.7463     718.3851     755.2504     790.2502      19.6234
 5190.2868    5190.2868      64.8520     688.5098     724.4733     755.4989     790.3745      19.6557
 5190.1344    5190.1344      64.8867     680.0341     711.1786     752.8855     790.4995      19.6881
 5189.9820    5189.9820      65.6534     680.0000     707.1396     746.6478     781.0346      19.7209
 5189.8296    5189.8296      67.0801     680.0000     709.6168     749.3660     783.9902      19.7545
 5189.6772    5189.6772      68.6256     680.0000     713.8627     750.7460     781.8812      19.7888
 5189.5248    5189.5248      69.5218     684.7380     715.1218     752.3709     781.5010      19.8236
 5189.3724    5189.3724      69.2253     695.7262     718.2432     752.0008     787.1128      19.8582
 5189.2200    5189.2200      67.7609     693.5040     727.9825     759.7361     785.5029      19.8921
 5189.0676    5189.0676      65.6719     688.7568     720.5107     761.7471     933.6635      19.9250
 5188.9152    5188.9152      63.6559     688.0008     719.0016     755.1320     792.1499      19.9568
 5188.7628    5188.7628      62.3231     681.3796     715.5024     752.0021     784.5052      19.9880
