~VERSION INFORMATION
VERS.           2.0   :CWLS Log ASCII Standard - VERSION 2.0
WRAP.           NO    :One Line per depth step
PROD.  Schlumberger   :LAS Producer
PROG.  DLIS to ASCII 2.3                               :LAS Program name and version
CREA.        2023/07/14 00:15                          :LAS Creation date {YYYY/MM/DD hh:mm}
DLIS_CREA.  2023-Jul-14 00:11                          :DLIS Creation date and time {YYYY-MMM-DD hh:mm}
SOURCE.     LIS_009.dlis                               :DLIS File Name
FILE-ID.     LIS   .002                                :File Identification Number
#--------------------------------------------------
~WELL INFORMATION
#MNEM.UNIT      DATA             DESCRIPTION
#---- ------ --------------   -----------------------------
STRT .M      5301.9960       :START DEPTH     
STOP .M      5058.6132       :STOP DEPTH     
STEP .M        -0.1524       :STEP     
NULL .          -999.25      :NULL VALUE
COMP .        PETROBRAS S.A.                           :COMPANY
WELL .        3-BRSA-293D-SPS                          :WELL
FLD  .        BS-400                                   :FIELD
LOC  .        BASE SAD 69:                             :LOCATION
CNTY .        SANTOS                                   :COUNTY
STAT .        BRASIL                                   :STATE
CTRY .        BRASIL                                   :COUNTRY
API  .                                                 :API NUMBER
UWI  .                                                 :UNIQUE WELL ID
DATE .        15/11/2004                               :LOG DATE
SRVC .        Schlumberger                             :SERVICE COMPANY
LATI .DEG                                              :LATITUDE
LONG .DEG                                              :LONGITUDE
GDAT .                                                 :GeoDetic Datum
#-----------------------------------------------------------------------------
~PARAMETER INFORMATION
#MNEM.UNIT    VALUE                      DESCRIPTION
#---- -----   --------------------       ------------------------
APD  .M               24                 :
BHT  .DEGF           260                 :
BLI  .M             5289                 :
BS   .IN         8.50000                 :
CN   .        PETROBRAS S.A.             :
COUN .        SANTOS                     :
CS   .IN         9.62500                 :
DATE .        15/11/2004                 :
DFD  .LB/G      12.30000                 :
DFL  .C3               2                 :
DFPH .        N/A                        :
DFT  .        SINTETICO                  :
DFV  .S               95                 :
DMF  .        MESA ROTATIVA              :
EDF  .M               24                 :
EGL  .M             -500                 :
EKB  .        N/A                        :
ENGI .        HERNANDEZ / LOCK           :
FL1  .        X   7292392.00 M LAT 24 28 47.189 S :
FL2  .        Y    584087.00 M LON 44 10 12.698 W :
FL3  .        MC  45 GRAUS               :
FN   .        BS-400                     :
LMF  .        MESA ROTATIVA              :
LUL  .        MACAE                      :
MCSS .        PRENSA                     :
MCST .DEGF            80                 :
MFSS .        PRENSA                     :
MFST .DEGF            80                 :
MSS  .        LINHA DE FLUXO             :
MST  .DEGF            80                 :
PDAT .        NIVEL DO MAR               :
R1   .        01. APRESENTAÇÃO DE ACORDO COM REQUERIMENTO DO CLIENTE :
R2   .        02. TEMPERATURA MÁXIMA DO POÇO T1=T2= 290 DEGF @  5275 M :
R3   .        03. INICIO DA CIRCULAÇÃO  12/11/2004 09 00 H :
R4   .        04. FINAL DA CIRCULAÇÃO   12/11/2004 18 00 H :
R5   .        05. TEMPO TOTAL DE CIRCULAÇÃO   09 00 H :
R6   .        06. FLUIDO DE PERFURAÇÃO  SINTETICO (BR-MUL  BR-MI)  60% TEOR DO OLEO :
R7   .        07. SALINIDADE DA LAMA  254762 PPM NACL NA FASE DE AGUA :
R8   .        08. INCLINAÇÃO MÁXIMA DO POÇO  37.37 GRAUS @ 5100 M :
R9   .        09. PRIMEIRAS E ULTIMAS LEITURAS  :
RMB  .OHMM    > 10                       :
RMCS .OHMM    > 10                       :
RMFS .OHMM    > 10                       :
RMS  .OHMM    >10                        :
RUN  .                 2                 :
STAT .        BRASIL                     :
TCS  .        18 00 H                    :
TDD  .M             5288                 :
TDL  .M             5293                 :
TLAB .        N/A                        :
TLI  .M             5000                 :
WITN .        ERNANI / ZE MARIA          :
WN   .        3-BRSA-293D-SPS            :
LUN  .              8808                 :
HIDE .        3-SPS-41D                  :
HID2 .        HIGH DEFINITION INDUCTION LOG :
HID3 .        X-MULTIPOLE ARRAY ACOUSTILOG :
HID4 .        GAMMA RAY LOG              :
HID5 .        TTRM SUB                   :
CLAB .        BACIA                      :
SLAB .        PAIS                       :
CMT1 .        ESC  1 200                 :
CMT2 .        PROF. MEDIDA               :
CMT4 .        SONDA  SS-43               :
HDAT .        SAD 69                     :
FL   .        BASE SAD 69                :
OS1  .        RCI/GR                     :
OS2  .        CHECK SHOT                 :
OS3  .        GR/CN/ZDL                  :
OS5  .        RCOR/GR                    :
LNAM .        ZDL/CN/XMAC/HDIL/EARTH IMAGER/RCI/RCOR/CHECK SHOT/GR :
TOOL .        ZDL/CN/XMAC/HDIL/EARTH IMAGER/RCI/RCOR/CHECK SHOT/GR :
LSOU .        PETROBRAS                  :
LSRV .        OH WIRELINE                :
LTYP .        RAW                        :
EPD  .M                0                 :
LDAT .        15/11/2004                 :
TRIP .                 3                 :
SON  .            786588                 :
CBDR .M             4277                 :
CBLO .        NR                         :
CBL1 .        NR                         :
STEM .DEGF    N/A                        :
BSAL .            254762                 :
BARI .        OFF                        :
DLAB .        12/11/2004                 :
MRT  .DEGF           290                 :
TSTR .        HDIL/XMAC/GR/TTRM          :
TSTG .        N/A                        :
STUS .        FINAL                      :
LCNM .        BAKER ATLAS                :
LCC  .               150                 :
NATI .        BRASIL                     :
OPMD .        OH.WIRELINE                :
PANA .        HERNANDEZ / LOCK           :
PCON .        BAKER ATLAS                :
R11  .        SL     5268.3 M / 5000.0 M :
R12  .        GR     5268.3 M / 5000.0 M :
R13  .        XMAC   5279.5 M / 5000.0 M :
R14  .        HDIL   5289.0 M / 5000.0 M :
R17  .        11. DECLINAÇÃO MAGNETICA  -20.9 GRAUS :
R18  .        12. COORDENADAS BASE       :
R21  .        Y    583936.00 M           :
R22  .        MC  45 GRAUS               :
PVER .           4.10000                 :
WDFN .        /space/expusr/3-SPS-41D_RUN2/i77bf01_4spf.xtf :
OCT  .        i77bf                      :
OS4  .        EARTH IMAGER               :
R16  .        10. PONTO FRACO UTILIZADO  10K :
R20  .        X   7292512.00 M           :
R24  .        13. CADASTRO ANP  86316021017 :
#-----------------------------------------------------------------------------
~CURVE INFORMATION
#MNEM.UNIT   API CODE                                  DESCRIPTION
#---- -----  --------                                  -----------------------
DEPT .M                                                :DEPTH (BOREHOLE) {F10.4}
DEPT .M                                                : {F13.4}
BIT  .IN                                               : {F13.4}
GR   .GAPI                                             : {F13.4}
M2R1 .OHMM                                             : {F13.4}
M2R2 .OHMM                                             : {F13.4}
M2R3 .OHMM                                             : {F13.4}
M2R6 .OHMM                                             : {F13.4}
M2R9 .OHMM                                             : {F13.4}
M2RX .OHMM                                             : {F13.4}
SPD  .M/MN                                             : {F13.4}
TEN  .LBF                                              : {F13.4}
TTEN .LBF                                              : {F13.4}
#-----------------------------------------------------------------------------
# 
#     DEPT        DEPT         BIT          GR           M2R1         M2R2         M2R3         M2R6         M2R9         M2RX         SPD          TEN          TTEN
#
~A  
# ...
 5155.6920    5155.6920       8.5000      73.5085       0.9143       1.3317       1.6433       1.7711       1.7915       1.8262       4.7658     -27.5716    7423.5797
 5155.5396    5155.5396       8.5000      71.0356       0.9061       1.3226       1.6347       1.7648       1.7860       1.8199       4.7528     -18.1454    7432.3820
 5155.3872    5155.3872       8.5000      68.4303       0.8870       1.2958       1.6028       1.7330       1.7548       1.7873       4.7489      -2.0170    7448.2391
 5155.2348    5155.2348       8.5000      67.2109       0.8652       1.2642       1.5644       1.6937       1.7161       1.7470       4.7514      15.9280    7466.2881
 5155.0824    5155.0824       8.5000      68.0450       0.8506       1.2432       1.5386       1.6675       1.6907       1.7202       4.7551      43.8088    7494.7311
 5154.9300    5154.9300       8.5000      69.5044       0.8434       1.2339       1.5273       1.6563       1.6804       1.7086       4.7629      56.6746    7508.5879
 5154.7776    5154.7776       8.5000      69.7716       0.8359       1.2245       1.5154       1.6437       1.6686       1.6955       4.7715      26.4367    7479.1510
 5154.6252    5154.6252       8.5000      68.5713       0.8254       1.2106       1.4976       1.6240       1.6493       1.6746       4.7741     -24.2043    7428.4604
 5154.4728    5154.4728       8.5000      67.5386       0.8164       1.1979       1.4807       1.6044       1.6300       1.6536       4.7730     -46.4717    7405.4126
 5154.3204    5154.3204       8.5000      67.3648       0.8116       1.1896       1.4691       1.5903       1.6158       1.6379       4.7671     -30.2794    7420.7862
 5154.1680    5154.1680       8.5000      67.6870       0.8117       1.1868       1.4649       1.5837       1.6090       1.6296       4.7589      -1.6620    7449.0156
 5154.0156    5154.0156       8.5000      67.9457       0.8198       1.1955       1.4761       1.5938       1.6189       1.6383       4.7550      21.1899    7471.9932
 5153.8632    5153.8632       8.5000      69.3894       0.8416       1.2264       1.5160       1.6351       1.6600       1.6788       4.7550      20.8179    7472.0262
 5153.7108    5153.7108       8.5000      72.9360       0.8778       1.2812       1.5867       1.7098       1.7348       1.7533       4.7579      -7.9266    7443.4196
 5153.5584    5153.5584       8.5000      76.3606       0.9156       1.3399       1.6625       1.7903       1.8153       1.8335       4.7649     -31.1883    7419.7451
 5153.4060    5153.4060       8.5000      77.2774       0.9421       1.3808       1.7156       1.8468       1.8712       1.8891       4.7714     -19.9271    7430.4718
 5153.2536    5153.2536       8.5000      76.9388       0.9592       1.4057       1.7477       1.8811       1.9045       1.9220       4.7723       5.3790    7455.6568
 5153.1012    5153.1012       8.5000      77.0364       0.9727       1.4242       1.7717       1.9069       1.9291       1.9462       4.7726      11.9402    7462.4376
 5152.9488    5152.9488       8.5000      76.9957       0.9804       1.4351       1.7866       1.9232       1.9441       1.9608       4.7716       0.8389    7451.4982
 5152.7964    5152.7964       8.5000      77.2050       0.9782       1.4338       1.7875       1.9243       1.9439       1.9600       4.7654      -8.9854    7441.6218
 5152.6440    5152.6440       8.5000      78.8677       0.9688       1.4245       1.7792       1.9154       1.9334       1.9488       4.7584      -7.0443    7443.4680
 5152.4916    5152.4916       8.5000      81.5050       0.9601       1.4182       1.7747       1.9103       1.9265       1.9413       4.7581       5.5871    7456.1845
 5152.3392    5152.3392       8.5000      84.8089       0.9576       1.4217       1.7813       1.9163       1.9308       1.9450       4.7647      19.9960    7470.9284
 5152.1868    5152.1868       8.5000      89.9356       0.9631       1.4360       1.7992       1.9333       1.9461       1.9597       4.7748      21.4394    7472.8170
 5152.0344    5152.0344       8.5000      95.2755       0.9771       1.4599       1.8257       1.9583       1.9692       1.9822       4.7833       6.4967    7458.1626
 5151.8820    5151.8820       8.5000      96.9992       0.9954       1.4853       1.8501       1.9794       1.9886       2.0010       4.7848      -8.5064    7443.1576
 5151.7296    5151.7296       8.5000      95.4509       1.0086       1.4973       1.8534       1.9767       1.9841       1.9960       4.7784     -14.5342    7436.9267
 5151.5772    5151.5771       8.5000      94.5297       1.0141       1.4925       1.8323       1.9469       1.9529       1.9640       4.7694      -8.8242    7442.4434
 5151.4248    5151.4248       8.5000      94.9284       1.0203       1.4844       1.8048       1.9101       1.9150       1.9256       4.7608      14.6759    7466.0635
 5151.2724    5151.2724       8.5000      93.5442       1.0347       1.4852       1.7874       1.8841       1.8884       1.8986       4.7547      42.6222    7494.6059
 5151.1200    5151.1200       8.5000      88.7853       1.0512       1.4869       1.7726       1.8618       1.8658       1.8759       4.7536      50.5743    7503.4053
 5150.9676    5150.9676       8.5000      82.5822       1.0591       1.4779       1.7488       1.8313       1.8352       1.8453       4.7592      38.1997    7491.7503
 5150.8152    5150.8152       8.5000      78.1404       1.0619       1.4664       1.7274       1.8050       1.8090       1.8192       4.7714      21.9877    7475.9929
 5150.6628    5150.6628       8.5000      77.0091       1.0681       1.4673       1.7259       1.8013       1.8053       1.8160       4.7792       9.6791    7463.9326
 5150.5104    5150.5104       8.5000      78.8648       1.0831       1.4888       1.7528       1.8287       1.8330       1.8443       4.7742      11.7400    7466.2069
 5150.3580    5150.3580       8.5000      82.9158       1.1157       1.5430       1.8210       1.9004       1.9047       1.9172       4.7604      34.4324    7489.3987
 5150.2056    5150.2056       8.5000      86.3030       1.1653       1.6265       1.9243       2.0095       2.0138       2.0277       4.7493      66.8997    7522.9147
 5150.0532    5150.0532       8.5000      85.5912       1.1967       1.6836       1.9940       2.0837       2.0877       2.1029       4.7461      88.2549    7545.7931
 5149.9008    5149.9008       8.5000      82.1675       1.1789       1.6620       1.9661       2.0556       2.0588       2.0745       4.7508      83.2099    7542.3726
 5149.7484    5149.7484       8.5000      80.2367       1.1366       1.5934       1.8786       1.9643       1.9666       1.9822       4.7571      49.5769    7509.9168
 5149.5960    5149.5960       8.5000      80.2958       1.1077       1.5346       1.8005       1.8822       1.8837       1.8991       4.7644      18.4023    7479.2258
 5149.4436    5149.4436       8.5000      79.9143       1.0987       1.4999       1.7514       1.8302       1.8311       1.8463       4.7704      26.7333    7487.8630
 5149.2912    5149.2912       8.5000      79.0161       1.1029       1.4857       1.7290       1.8064       1.8070       1.8222       4.7716      62.3168    7524.3291
 5149.1388    5149.1388       8.5000      78.9439       1.1146       1.4897       1.7324       1.8103       1.8108       1.8260       4.7700      85.0721    7548.6028
 5148.9864    5148.9864       8.5000      78.9479       1.1291       1.5096       1.7600       1.8403       1.8409       1.8563       4.7667      86.6067    7551.8481
 5148.8340    5148.8340       8.5000      77.9087       1.1413       1.5401       1.8058       1.8904       1.8911       1.9066       4.7612      77.3689    7544.2080
 5148.6816    5148.6816       8.5000      76.7345       1.1427       1.5678       1.8531       1.9428       1.9434       1.9588       4.7564      58.3774    7526.5332
 5148.5292    5148.5292       8.5000      77.6662       1.1254       1.5766       1.8810       1.9750       1.9750       1.9900       4.7571      34.4189    7503.4321
