~VERSION INFORMATION
VERS.           2.0   :CWLS Log ASCII Standard - VERSION 2.0
WRAP.           NO    :One Line per depth step
PROD.  Schlumberger   :LAS Producer
PROG.  DLIS to ASCII 2.3                               :LAS Program name and version
CREA.        2023/07/14 00:15                          :LAS Creation date {YYYY/MM/DD hh:mm}
DLIS_CREA.  2023-Jul-14 00:11                          :DLIS Creation date and time {YYYY-MMM-DD hh:mm}
SOURCE.     LIS_003.dlis                               :DLIS File Name
FILE-ID.     LIS   .003                                :File Identification Number
#--------------------------------------------------
~WELL INFORMATION
#MNEM.UNIT      DATA             DESCRIPTION
#---- ------ --------------   -----------------------------
STRT .M      5239.8168       :START DEPTH     
STOP .M      3827.6784       :STOP DEPTH     
STEP .M        -0.1524       :STEP     
NULL .          -999.25      :NULL VALUE
COMP .        PETROBRAS S.A.                           :COMPANY
WELL .        3-BRSA-293D-SPS                          :WELL
FLD  .        BS-400                                   :FIELD
LOC  .        BASE SAD 69:                             :LOCATION
CNTY .        SANTOS                                   :COUNTY
STAT .        BRASIL                                   :STATE
CTRY .        BRASIL                                   :COUNTRY
API  .                                                 :API NUMBER
UWI  .                                                 :UNIQUE WELL ID
DATE .        22/10/2004                               :LOG DATE
SRVC .        Schlumberger                             :SERVICE COMPANY
LATI .DEG                                              :LATITUDE
LONG .DEG                                              :LONGITUDE
GDAT .                                                 :GeoDetic Datum
#-----------------------------------------------------------------------------
~PARAMETER INFORMATION
#MNEM.UNIT    VALUE                      DESCRIPTION
#---- -----   --------------------       ------------------------
APD  .M               24                 :
BHT  .DEGF           260                 :
BLI  .M       5227.50000                 :
BS   .IN         8.50000                 :
CN   .        PETROBRAS S.A.             :
COUN .        SANTOS                     :
CS   .IN         9.62500                 :
DATE .        22/10/2004                 :
DFD  .LB/G      12.30000                 :
DFL  .C3               2                 :
DFPH .        N/A                        :
DFT  .        SINTETICO                  :
DFV  .S               87                 :
DMF  .        MESA ROTATIVA              :
EDF  .M               24                 :
EGL  .M             -500                 :
EKB  .        N/A                        :
ENGI .        HERNANDEZ/LOCK             :
FL1  .        X   7292392.00 M LAT 24 28 47.189 S :
FL2  .        Y    584087.00 M LON 44 10 12.698 W :
FL3  .        MC  45 GRAUS               :
FN   .        BS-400                     :
LMF  .        MESA ROTATIVA              :
LUL  .        MACAE                      :
MCSS .        PRENSA                     :
MCST .DEGF            80                 :
MFSS .        PRENSA                     :
MFST .DEGF            80                 :
MSS  .        LINHA DE FLUXO             :
MST  .DEGF            80                 :
PDAT .        NIVEL DO MAR               :
R1   .        01. APRESENTAÇÃO DE ACORDO COM REQUERIMENTO DO CLIENTE :
R2   .        02. TEMPERATURA MÁXIMA DO POÇO T1=T2= 260 DEGF @  5180 M :
R3   .        03. INICIO DA CIRCULAÇÃO  13 45 H 21/10/2004 :
R4   .        04. FINAL DA CIRCULAÇÃO   16 00 H 21/10/2004 :
R5   .        05. TEMPO TOTAL DE CIRCULAÇÃO  02 15 H :
R6   .        06. FLUIDO DE PERFURAÇÃO  SINTETICO (BR-MUL  BR-MI)  65% TEOR DO OLEO :
R7   .        07. SALINIDADE DA LAMA  266377 PPM NACL NA FASE DE AGUA :
R8   .        08. INCLINAÇÃO MÁXIMA DO POÇO  37.37 GRAUS @ 5100 M :
R9   .        09. PRIMEIRAS E ULTIMAS LEITURAS  :
RMB  .OHMM    > 10                       :
RMCS .OHMM    > 10                       :
RMFS .OHMM    > 10                       :
RMS  .OHMM    > 10                       :
RUN  .                 1                 :
STAT .        BRASIL                     :
TCS  .        16 00 H                    :
TDD  .M             5230                 :
TDL  .M             5231                 :
TLAB .        N/A                        :
TLI  .M             3850                 :
WITN .        ALCIDIO/VLADIMIR           :
WN   .        3-BRSA-293D-SPS            :
LUN  .              8808                 :
HIDE .        3-SPS-41D                  :
HID2 .        HIGH DEFINITION INDUCTION LOG :
HID3 .        X-MULTIPOLE ARRAY ACOUSTILOG :
HID4 .        GAMMA RAY LOG              :
HID5 .        TTRM SUB                   :
CLAB .        BACIA                      :
SLAB .        PAIS                       :
CMT1 .        ESC  1 1000                :
CMT2 .        PROF. MEDIDA               :
CMT4 .        SONDA  SS-43               :
HDAT .        SAD 69                     :
FL   .        BASE SAD 69                :
OS1  .        GR/CN/ZDL                  :
OS2  .        MREX/GR                    :
OS3  .        RCI/GR                     :
0S4  .        3DEX/GR                    :
OS5  .        SL/GR                      :
LNAM .        MREX/ZDL/CN/XMAC/HDIL/RCI/3DEX/SL/GR :
TOOL .        MREX/ZDL/CN/XMAC/HDIL/RCI/3DEX/SL/GR :
LSOU .        PETROBRAS                  :
LSRV .        OH WIRELINE                :
LTYP .        RAW                        :
EPD  .M                0                 :
LDAT .        22/10/2004                 :
TRIP .                 1                 :
SON  .            772317                 :
CBDR .M             4277                 :
CBLO .M             4277                 :
CBL1 .M             4277                 :
STEM .DEGF    N/A                        :
BSAL .            266377                 :
BARI .        OFF                        :
DLAB .        21/10/2004                 :
MRT  .DEGF           260                 :
TSTR .        HDIL/XMAC/GR/TTRM          :
TSTG .        N/A                        :
STUS .        FINAL                      :
LCNM .        BAKER ATLAS                :
LCC  .               150                 :
NATI .        BRASIL                     :
OPMD .        OH.WIRELINE                :
PANA .        HERNANDEZ/LOCK             :
PCON .        BAKER ATLAS                :
R11  .        SL     5196.0 M/4960.0 M   :
R12  .        GR     4960.0 M/4277.0 M   :
R13  .        XMAC   5202.0 M/3850.0 M   :
R14  .        HDIL   5227.5 M/4277.0 M   :
R15  .        3DEX   5217.0 M/4960.0 M   :
R17  .        10. PONTO FRACO UTILIZADO  10K :
R18  .        11. DECLINAÇÃO MAGNETICA  -20.9 GRAUS :
R19  .        12. COORDENADAS ARATU      :
R21  .        X   7292512.00 M           :
R22  .        Y    583936.00 M           :
R23  .        MC  45 GRAUS               :
R25  .        13. CADASTRO ANP  86316021017 :
PVER .           4.10000                 :
WDFN .        /space/expusr/3-SPS-41D/i77bf03_2spf.xtf :
OCT  .        i77bf                      :
#-----------------------------------------------------------------------------
~CURVE INFORMATION
#MNEM.UNIT   API CODE                                  DESCRIPTION
#---- -----  --------                                  -----------------------
DEPT .M                                                :DEPTH (BOREHOLE) {F10.4}
DEPT .M                                                : {F13.4}
DT   .US/F                                             : {F13.4}
SFN1 .US                                               : {F13.4}
SFN2 .US                                               : {F13.4}
SFN3 .US                                               : {F13.4}
SFN4 .US                                               : {F13.4}
TT   .MS                                               : {F13.4}
#-----------------------------------------------------------------------------
# 
#     DEPT        DEPT         DT           SFN1         SFN2         SFN3         SFN4         TT
#
~A  
# ...
 5119.4208    5119.4208      67.7149     687.9999     719.9998     756.8739     788.1258      20.5781
 5119.2684    5119.2684      68.6356     687.8751     719.7501     755.1236     789.3741      20.6124
 5119.1160    5119.1160      69.6091     688.0000     719.8752     753.7517     788.4993      20.6472
 5118.9636    5118.9636      70.1406     688.0000     720.0000     755.0042     787.9998      20.6823
 5118.8112    5118.8112      69.8535     688.0000     720.0011     757.3710     787.8782      20.7173
 5118.6588    5118.6588      68.9123     688.0000     720.4981     755.5073     789.3692      20.7515
 5118.5064    5118.5064      67.8477     688.0000     720.0018     756.7456     788.2540      20.7855
 5118.3540    5118.3540      67.0898     688.0000     719.8754     754.6318     790.4928      20.8190
 5118.2016    5118.2016      66.7506     688.0000     719.8750     754.6250     786.2619      20.8524
 5118.0492    5118.0492      66.6531     688.0000     719.8750     754.5003     786.1253      20.8857
 5117.8968    5117.8968      66.5770     688.0000     719.8750     754.6247     786.1250      20.9190
 5117.7444    5117.7444      66.5287     688.0000     719.7502     754.8746     786.1250      20.9523
 5117.5920    5117.5920      66.5389     688.0000     719.8748     754.5005     786.3747      20.9856
 5117.4396    5117.4396      66.5657     688.0000     719.8750     754.7498     786.2501      21.0189
 5117.2872    5117.2872      66.5868     688.0000     719.8750     754.7500     786.2500      21.0522
 5117.1348    5117.1348      66.5922     688.0000     719.8750     754.7500     786.3750      21.0855
 5116.9824    5116.9824      66.5846     688.0000     719.8750     754.7500     786.2500      21.1188
 5116.8300    5116.8300      66.5835     687.9997     719.9999     754.5001     786.0001      21.1521
 5116.6776    5116.6776      66.5924     687.5025     719.7494     754.7497     786.2501      21.1854
 5116.5252    5116.5252      66.5732     690.3720     719.1297     754.3730     786.3745      21.2187
 5116.3728    5116.3728      66.4763     688.0006     722.8703     752.3955     785.9968      21.2520
 5116.2204    5116.2204      66.2958     688.3748     720.0000     533.6654     783.3041      21.2851
 5116.0680    5116.0680      66.0975     688.2505     720.0000     365.4313     433.4170      21.3180
 5115.9156    5115.9156      65.9851     688.2500     720.0000     755.6803     787.9346      21.3510
 5115.7632    5115.7632      66.0324     688.3746     720.0000     757.3742     789.6238      21.3840
 5115.6108    5115.6108      66.2293     688.2504     720.0000     757.2504     789.6250      21.4171
 5115.4584    5115.4584      66.5148     688.2500     720.0000     757.3747     789.7497      21.4504
 5115.3060    5115.3060      66.8236     688.2500     720.0000     757.3750     789.8747      21.4838
 5115.1536    5115.1536      67.1013     688.3748     720.0000     757.3750     789.8750      21.5174
 5115.0012    5115.0012      67.3149     688.4998     720.1248     757.6246     789.7502      21.5511
 5114.8488    5114.8488      67.4507     688.3751     720.2499     757.6250     789.8749      21.5848
 5114.6964    5114.6964      67.5163     688.3750     720.1251     757.7499     789.7501      21.6186
 5114.5440    5114.5439      67.5441     688.5000     720.1250     757.7500     789.8750      21.6524
 5114.3916    5114.3916      67.5659     688.5000     720.2500     757.7500     790.0000      21.6862
 5114.2392    5114.2393      67.5949     688.5000     720.2500     757.8750     790.0000      21.7200
 5114.0868    5114.0868      67.6346     688.5001     720.2500     757.9999     790.2500      21.7538
 5113.9344    5113.9344      67.6618     688.6247     720.2501     757.8753     790.2499      21.7876
 5113.7820    5113.7820      67.6192     688.3731     720.3748     758.1246     790.1252      21.8215
 5113.6296    5113.6296      67.4530     687.1266     720.2495     757.8755     790.2500      21.8552
 5113.4772    5113.4772      67.1646     687.9997     719.9964     758.1167     790.2494      21.8888
 5113.3248    5113.3248      66.8692     687.8755     718.3812     754.3892     790.0009      21.9220
 5113.1724    5113.1724      66.6486     687.9996     719.1224     319.8775     787.2595      21.9554
 5113.0200    5113.0200      66.3960     688.0000     719.7481     751.9119     623.3808      21.9886
 5112.8676    5112.8676      65.9854     688.0000     719.6253     753.7486     711.7587      22.0216
 5112.7152    5112.7152      65.4716     688.0000     719.7497     753.3759     668.9758      22.0543
 5112.5628    5112.5628      65.1378     688.0000     719.2510     753.4998     784.8961      22.0869
 5112.4104    5112.4104      65.3280     688.0000     719.3748     753.1256     785.2498      22.1196
 5112.2580    5112.2580      66.0664     688.0000     719.3750     753.1250     788.8705      22.1526
 5112.1056    5112.1056      66.9587     688.0000     719.3750     753.1250     788.8750      22.1861
 5111.9532    5111.9532      67.5338     688.0000     719.3750     753.1250     788.9999      22.2199
 5111.8008    5111.8008      67.6058     688.0000     719.3750     753.1250     789.0000      22.2537
 5111.6484    5111.6484      67.2825     688.0000     719.3750     753.1250     789.1250      22.2874
 5111.4960    5111.4960      66.8278     688.0000     719.4999     753.1250     789.1251      22.3208
 5111.3436    5111.3436      66.5372     688.0000     719.3751     753.1251     789.2499      22.3541
 5111.1912    5111.1912      66.6690     688.0000     719.5000     753.2500     789.1252      22.3874
 5111.0388    5111.0388      67.3920     688.0000     719.5000     753.2498     789.2500      22.4211
 5110.8864    5110.8864      68.5711     688.0000     719.5000     753.1253     789.2503      22.4554
 5110.7340    5110.7340      69.6843     688.0000     719.5000     753.2495     789.3745      22.4901
 5110.5816    5110.5816      70.1546     688.0000     719.5000     753.2500     789.4996      22.5252
 5110.4292    5110.4292      69.7889     688.0000     719.5000     753.3746     789.3754      22.5601
 5110.2768    5110.2768      68.9788     688.0000     719.6246     753.3750     789.4996      22.5946
 5110.1244    5110.1244      68.2992     688.0000     719.6250     753.2503     789.6247      22.6287
 5109.9720    5109.9720      68.0308     255.1620     719.5003     753.2500     789.6250      22.6628
 5109.8196    5109.8196      68.0371     694.2360     719.9991     753.2500     789.7498      22.6968
 5109.6672    5109.6672      67.9904     693.7517     555.4747     318.0944     789.6252      22.7308
 5109.5148    5109.5148      67.7504     693.7500     726.8291     764.1802     349.8130      22.7647
 5109.3624    5109.3624      67.4612     693.8749     726.8751     761.2521     350.9990      22.7984
 5109.2100    5109.2100      67.2779     693.1250     727.0000     761.3750     795.2500      22.8321
 5109.0576    5109.0576      67.1949     693.2500     726.1250     761.1250     795.1250      22.8657
 5108.9052    5108.9052      67.1185     693.2501     725.2500     760.2503     795.4995      22.8993
 5108.7528    5108.7528      66.9470     693.3753     725.2501     760.8750     794.3722      22.9327
 5108.6004    5108.6004      66.6494     693.7494     725.3745     760.8752     791.1250      22.9661
 5108.4480    5108.4480      66.3320     693.2500     725.0006     761.0008     791.1248      22.9993
 5108.2956    5108.2956      66.2068     693.2524     725.3752     761.4988     791.0010      23.0324
 5108.1432    5108.1432      66.5102     694.4949     725.4995     760.8775     791.4980      23.0654
 5107.9908    5107.9908      67.3149     676.6914     720.5186     760.9995     790.7528      23.0991
 5107.8384    5107.8384      68.3596     676.0021     710.9072     751.1580     790.8746      23.1333
 5107.6860    5107.6860      69.1523     675.0030     707.0115     744.3951     353.8039      23.1679
 5107.5336    5107.5336      69.2986     675.2493     708.3714     744.0010     775.8941      23.2025
