~VERSION INFORMATION
VERS.           2.0   :CWLS Log ASCII Standard - VERSION 2.0
WRAP.           NO    :One Line per depth step
PROD.  Schlumberger   :LAS Producer
PROG.  DLIS to ASCII 2.3                               :LAS Program name and version
CREA.        2023/07/14 00:15                          :LAS Creation date {YYYY/MM/DD hh:mm}
DLIS_CREA.  2023-Jul-14 00:11                          :DLIS Creation date and time {YYYY-MMM-DD hh:mm}
SOURCE.     LIS_010.dlis                               :DLIS File Name
FILE-ID.     LIS   .003                                :File Identification Number
#--------------------------------------------------
~WELL INFORMATION
#MNEM.UNIT      DATA             DESCRIPTION
#---- ------ --------------   -----------------------------
STRT .M      5284.9272       :START DEPTH     
STOP .M      4939.1316       :STOP DEPTH     
STEP .M        -0.1524       :STEP     
NULL .          -999.25      :NULL VALUE
COMP .        PETROBRAS S.A.                           :COMPANY
WELL .        3-BRSA-293D-SPS                          :WELL
FLD  .        BS-400                                   :FIELD
LOC  .        BASE SAD 69:                             :LOCATION
CNTY .        SANTOS                                   :COUNTY
STAT .        BRASIL                                   :STATE
CTRY .        BRASIL                                   :COUNTRY
API  .                                                 :API NUMBER
UWI  .                                                 :UNIQUE WELL ID
DATE .        15/11/2004                               :LOG DATE
SRVC .        Schlumberger                             :SERVICE COMPANY
LATI .DEG                                              :LATITUDE
LONG .DEG                                              :LONGITUDE
GDAT .                                                 :GeoDetic Datum
#-----------------------------------------------------------------------------
~PARAMETER INFORMATION
#MNEM.UNIT    VALUE                      DESCRIPTION
#---- -----   --------------------       ------------------------
APD  .M               24                 :
BHT  .DEGF           260                 :
BLI  .M             5289                 :
BS   .IN         8.50000                 :
CN   .        PETROBRAS S.A.             :
COUN .        SANTOS                     :
CS   .IN         9.62500                 :
DATE .        15/11/2004                 :
DFD  .LB/G      12.30000                 :
DFL  .C3               2                 :
DFPH .        N/A                        :
DFT  .        SINTETICO                  :
DFV  .S               95                 :
DMF  .        MESA ROTATIVA              :
EDF  .M               24                 :
EGL  .M             -500                 :
EKB  .        N/A                        :
ENGI .        HERNANDEZ / LOCK           :
FL1  .        X   7292392.00 M LAT 24 28 47.189 S :
FL2  .        Y    584087.00 M LON 44 10 12.698 W :
FL3  .        MC  45 GRAUS               :
FN   .        BS-400                     :
LMF  .        MESA ROTATIVA              :
LUL  .        MACAE                      :
MCSS .        PRENSA                     :
MCST .DEGF            80                 :
MFSS .        PRENSA                     :
MFST .DEGF            80                 :
MSS  .        LINHA DE FLUXO             :
MST  .DEGF            80                 :
PDAT .        NIVEL DO MAR               :
R1   .        01. APRESENTAÇÃO DE ACORDO COM REQUERIMENTO DO CLIENTE :
R2   .        02. TEMPERATURA MÁXIMA DO POÇO T1=T2= 290 DEGF @  5275 M :
R3   .        03. INICIO DA CIRCULAÇÃO  12/11/2004 09 00 H :
R4   .        04. FINAL DA CIRCULAÇÃO   12/11/2004 18 00 H :
R5   .        05. TEMPO TOTAL DE CIRCULAÇÃO   09 00 H :
R6   .        06. FLUIDO DE PERFURAÇÃO  SINTETICO (BR-MUL  BR-MI)  60% TEOR DO OLEO :
R7   .        07. SALINIDADE DA LAMA  254762 PPM NACL NA FASE DE AGUA :
R8   .        08. INCLINAÇÃO MÁXIMA DO POÇO  37.37 GRAUS @ 5100 M :
R9   .        09. PRIMEIRAS E ULTIMAS LEITURAS  :
RMB  .OHMM    > 10                       :
RMCS .OHMM    > 10                       :
RMFS .OHMM    > 10                       :
RMS  .OHMM    >10                        :
RUN  .                 2                 :
STAT .        BRASIL                     :
TCS  .        18 00 H                    :
TDD  .M             5288                 :
TDL  .M             5293                 :
TLAB .        N/A                        :
TLI  .M             5000                 :
WITN .        ERNANI / ZE MARIA          :
WN   .        3-BRSA-293D-SPS            :
LUN  .              8808                 :
HIDE .        3-SPS-41D                  :
HID2 .        HIGH DEFINITION INDUCTION LOG :
HID3 .        X-MULTIPOLE ARRAY ACOUSTILOG :
HID4 .        GAMMA RAY LOG              :
HID5 .        TTRM SUB                   :
CLAB .        BACIA                      :
SLAB .        PAIS                       :
CMT1 .        ESC  1 200                 :
CMT2 .        PROF. MEDIDA               :
CMT4 .        SONDA  SS-43               :
HDAT .        SAD 69                     :
FL   .        BASE SAD 69                :
OS1  .        RCI/GR                     :
OS2  .        CHECK SHOT                 :
OS3  .        GR/CN/ZDL                  :
OS5  .        RCOR/GR                    :
LNAM .        ZDL/CN/XMAC/HDIL/EARTH IMAGER/RCI/RCOR/CHECK SHOT/GR :
TOOL .        ZDL/CN/XMAC/HDIL/EARTH IMAGER/RCI/RCOR/CHECK SHOT/GR :
LSOU .        PETROBRAS                  :
LSRV .        OH WIRELINE                :
LTYP .        RAW                        :
EPD  .M                0                 :
LDAT .        15/11/2004                 :
TRIP .                 3                 :
SON  .            786588                 :
CBDR .M             4277                 :
CBLO .        NR                         :
CBL1 .        NR                         :
STEM .DEGF    N/A                        :
BSAL .            254762                 :
BARI .        OFF                        :
DLAB .        12/11/2004                 :
MRT  .DEGF           290                 :
TSTR .        HDIL/XMAC/GR/TTRM          :
TSTG .        N/A                        :
STUS .        FINAL                      :
LCNM .        BAKER ATLAS                :
LCC  .               150                 :
NATI .        BRASIL                     :
OPMD .        OH.WIRELINE                :
PANA .        HERNANDEZ / LOCK           :
PCON .        BAKER ATLAS                :
R11  .        SL     5268.3 M / 5000.0 M :
R12  .        GR     5268.3 M / 5000.0 M :
R13  .        XMAC   5279.5 M / 5000.0 M :
R14  .        HDIL   5289.0 M / 5000.0 M :
R17  .        11. DECLINAÇÃO MAGNETICA  -20.9 GRAUS :
R18  .        12. COORDENADAS BASE       :
R21  .        Y    583936.00 M           :
R22  .        MC  45 GRAUS               :
PVER .           4.10000                 :
WDFN .        /space/expusr/3-SPS-41D_RUN2/i77bf02_2spf.xtf :
OCT  .        i77bf                      :
OS4  .        EARTH IMAGER               :
R16  .        10. PONTO FRACO UTILIZADO  10K :
R20  .        X   7292512.00 M           :
R24  .        13. CADASTRO ANP  86316021017 :
#-----------------------------------------------------------------------------
~CURVE INFORMATION
#MNEM.UNIT   API CODE                                  DESCRIPTION
#---- -----  --------                                  -----------------------
DEPT .M                                                :DEPTH (BOREHOLE) {F10.4}
DEPT .M                                                : {F13.4}
DT   .US/F                                             : {F13.4}
SFN1 .US                                               : {F13.4}
SFN2 .US                                               : {F13.4}
SFN3 .US                                               : {F13.4}
SFN4 .US                                               : {F13.4}
TT   .MS                                               : {F13.4}
#-----------------------------------------------------------------------------
# 
#     DEPT        DEPT         DT           SFN1         SFN2         SFN3         SFN4         TT
#
~A  
# ...
 5020.0560    5020.0560      66.1796     715.0094     745.8885     784.2671     824.0000      58.2208
 5019.9036    5019.9036      65.1209     712.0055     744.0034     780.7564     816.0147      58.2534
 5019.7512    5019.7512      65.1151     711.8752     741.5037     779.0026     811.7562      58.2860
 5019.5988    5019.5988      66.4418     709.8772     741.0005     776.5027     808.8782      58.3192
 5019.4464    5019.4464      68.9353     706.0028     737.6275     776.0004     810.1241      58.3537
 5019.2940    5019.2939      71.9971     761.0000     738.1250     779.3750     812.0000      58.3897
 5019.1416    5019.1416      74.7602     764.6250     795.5000     776.8750     835.8750      58.4271
 5018.9892    5018.9893      76.3823     764.8750     738.1250     786.7500     823.7500      58.4653
 5018.8368    5018.8368      76.3984     704.0000     750.6252     786.0012     822.0002      58.5035
 5018.6844    5018.6844      74.9316     704.0106     750.8774     787.6256     822.2503      58.5410
 5018.5320    5018.5320      72.5504     713.4978     752.9914     788.1261     822.4981      58.5773
 5018.3796    5018.3796      69.9841     711.9968     747.2412     788.8651     821.2449      58.6123
 5018.2272    5018.2272      67.8806     710.2573     742.5198     783.5223     818.5114      58.6460
 5018.0748    5018.0748      66.5309     707.1369     739.1379     776.0286     811.7758      58.6793
 5017.9224    5017.9224      65.8801     704.0108     736.0108     775.6263     808.0129      58.7123
 5017.7700    5017.7700      65.6223     701.5077     735.2523     772.5096     803.3892      58.7451
 5017.6176    5017.6176      65.4540     697.0122     728.0196     768.0122     800.6324      58.7778
 5017.4652    5017.4652      65.2680     696.0023     727.3765     764.6329     800.0015      58.8105
 5017.3128    5017.3128      65.1639     696.0000     725.1294     761.3814     793.6376      58.8431
 5017.1604    5017.1604      65.2542     696.0000     725.7490     760.1270     792.5018      58.8757
 5017.0080    5017.0080      65.5518     693.8776     724.8761     760.9989     791.5012      58.9085
 5016.8556    5016.8556      65.9901     690.7527     722.8767     760.1258     791.9996      58.9415
 5016.7032    5016.7032      66.4742     688.8759     720.1264     758.7507     791.7501      58.9748
 5016.5508    5016.5508      66.8846     688.0000     720.0000     756.2500     791.2500      59.0082
 5016.3984    5016.3984      67.1003     688.0000     719.8750     757.8750     789.8750      59.0418
 5016.2460    5016.2460      67.1146     687.1252     718.4993     756.7490     791.9990      59.0753
 5016.0936    5016.0936      67.0234     687.4973     717.3755     755.1260     790.3743      59.1089
 5015.9412    5015.9412      66.9512     684.7473     717.8706     756.1216     789.6243      59.1423
 5015.7888    5015.7888      66.9699     682.7594     714.6342     753.6327     789.1280      59.1758
 5015.6364    5015.6364      67.0408     688.2264     719.9769     758.1057     790.8675      59.2092
 5015.4840    5015.4840      67.1204     688.0010     720.7470     754.8878     791.7465      59.2427
 5015.3316    5015.3316      67.2588     688.0000     719.8781     758.6116     788.6362      59.2764
 5015.1792    5015.1792      67.5757     688.2492     719.9996     758.3758     791.1170      59.3102
 5015.0268    5015.0268      68.1153     688.0007     720.0000     758.8736     791.6236      59.3442
 5014.8744    5014.8744      68.7493     689.1222     720.0000     757.1293     791.9991      59.3786
 5014.7220    5014.7220      69.2467     690.2476     721.2474     758.3724     792.9979      59.4133
 5014.5696    5014.5696      69.4182     689.3765     721.4996     759.4980     791.1283      59.4480
 5014.4172    5014.4172      69.2879     691.6219     722.3738     759.9993     791.7491      59.4826
 5014.2648    5014.2648      69.0798     688.6280     720.0024     759.0010     789.2525      59.5172
 5014.1124    5014.1124      69.0091     688.9998     720.8745     759.9994     789.9995      59.5517
 5013.9600    5013.9600      69.0726     688.8750     720.0000     758.3750     790.7500      59.5863
 5013.8076    5013.8076      69.0694     689.6250     720.6250     758.7500     792.0000      59.6208
 5013.6552    5013.6552      68.8194     689.5013     721.6249     760.0000     790.3754      59.6552
 5013.5028    5013.5028      68.2018     692.2464     721.5016     760.0000     791.1257      59.6893
 5013.3504    5013.3504      67.1786     688.0000     723.3707     759.9924     791.9919      59.7229
 5013.1980    5013.1980      65.8681     688.0050     719.8762     753.7585     785.3780      59.7559
 5013.0456    5013.0456      64.5866     691.1308     720.6291     759.1189     787.2437      59.7882
 5012.8932    5012.8932      63.9140     694.1128     722.7414     756.0127     784.0132      59.8200
 5012.7408    5012.7408      64.3938     683.7885     717.6440     753.7584     781.3847      59.8522
 5012.5884    5012.5884      66.0121     687.9858     718.8708     752.0059     783.9912      59.8852
 5012.4360    5012.4360      68.0182     689.8694     719.9967     759.9762     788.8605      59.9192
 5012.2836    5012.2836      69.4521     695.3607     727.7298     760.7480     792.6152      59.9540
 5012.1312    5012.1312      69.8229     695.9986     727.9994     767.3602     799.9835      59.9889
 5011.9788    5011.9788      69.3797     695.2514     728.0000     767.9988     800.0000      60.0236
 5011.8264    5011.8264      68.8011     694.6259     727.7504     765.8782     800.0000      60.0580
 5011.6740    5011.6740      68.5411     690.7544     727.0008     761.8795     799.7503      60.0923
 5011.5216    5011.5216      68.5672     690.2504     726.5004     763.6237     799.5002      60.1266
 5011.3692    5011.3691      68.6313     693.3750     726.5000     763.8750     798.2500      60.1609
 5011.2168    5011.2168      68.5249     696.0000     727.8750     764.5000     798.5000      60.1952
 5011.0644    5011.0645      68.1659     689.2500     727.2500     763.0000     798.7500      60.2293
 5010.9120    5010.9120      67.6138     689.8779     725.1224     762.6231     796.1250      60.2631
 5010.7596    5010.7596      67.0302     693.8694     721.5042     760.0000     796.1205      60.2966
 5010.6072    5010.6072      66.6018     688.7493     725.3684     760.0000     791.9985      60.3299
 5010.4548    5010.4548      66.4648     688.2641     720.8734     759.9995     791.0018      60.3632
 5010.3024    5010.3024      66.6294     695.9675     720.0037     759.7510     791.9958      60.3963
 5010.1500    5010.1500      66.9944     696.7471     727.9692     757.2596     792.0000      60.4298
 5009.9976    5009.9976      67.4727     696.3763     728.0000     761.9835     791.3772      60.4636
 5009.8452    5009.8452      68.0699     696.0012     728.0000     765.8630     796.2348      60.4976
 5009.6928    5009.6928      68.8091     696.6233     728.1247     766.8723     799.8651      60.5320
 5009.5404    5009.5404      69.6004     696.0015     728.4991     766.0021     798.2539      60.5668
 5009.3880    5009.3880      70.2585     697.3722     729.3732     767.7465     799.9965      60.6020
 5009.2356    5009.2356      70.6572     699.6213     730.4982     767.9996     801.2480      60.6373
 5009.0832    5009.0832      70.8225     703.3703     734.6198     769.2484     801.8742      60.6727
 5008.9308    5008.9308      70.8584     703.6248     735.9988     770.7487     804.6225      60.7082
 5008.7784    5008.7784      70.7829     704.6245     736.0000     773.9983     806.7489      60.7436
 5008.6260    5008.6260      70.5399     709.6250     739.2500     774.7500     808.0000      60.7789
 5008.4736    5008.4736      70.1148     709.2500     742.0000     776.1250     808.0000      60.8139
 5008.3212    5008.3212      69.6018     709.1244     739.8752     776.6248     808.6262      60.8488
 5008.1688    5008.1688      69.1858     708.1285     740.2499     776.2501     810.7508      60.8834
