~VERSION INFORMATION
VERS.           2.0   :CWLS Log ASCII Standard - VERSION 2.0
WRAP.           NO    :One Line per depth step
PROD.  Schlumberger   :LAS Producer
PROG.  DLIS to ASCII 2.3                               :LAS Program name and version
CREA.        2023/07/14 00:15                          :LAS Creation date {YYYY/MM/DD hh:mm}
DLIS_CREA.  2023-Jul-14 00:11                          :DLIS Creation date and time {YYYY-MMM-DD hh:mm}
SOURCE.     LIS_011.dlis                               :DLIS File Name
FILE-ID.     LIS   .004                                :File Identification Number
#--------------------------------------------------
~WELL INFORMATION
#MNEM.UNIT      DATA             DESCRIPTION
#---- ------ --------------   -----------------------------
STRT .M      5300.3196       :START DEPTH     
STOP .M      4931.0544       :STOP DEPTH     
STEP .M        -0.1524       :STEP     
NULL .          -999.25      :NULL VALUE
COMP .        PETROBRAS S.A.                           :COMPANY
WELL .        3-BRSA-293D-SPS                          :WELL
FLD  .        BS-400                                   :FIELD
LOC  .        BASE SAD 69:                             :LOCATION
CNTY .        SANTOS                                   :COUNTY
STAT .        BRASIL                                   :STATE
CTRY .        BRASIL                                   :COUNTRY
API  .                                                 :API NUMBER
UWI  .                                                 :UNIQUE WELL ID
DATE .        15/11/2004                               :LOG DATE
SRVC .        Schlumberger                             :SERVICE COMPANY
LATI .DEG                                              :LATITUDE
LONG .DEG                                              :LONGITUDE
GDAT .                                                 :GeoDetic Datum
#-----------------------------------------------------------------------------
~PARAMETER INFORMATION
#MNEM.UNIT    VALUE                      DESCRIPTION
#---- -----   --------------------       ------------------------
APD  .M               24                 :
BHT  .DEGF           260                 :
BLI  .M             5289                 :
BS   .IN         8.50000                 :
CN   .        PETROBRAS S.A.             :
COUN .        SANTOS                     :
CS   .IN         9.62500                 :
DATE .        15/11/2004                 :
DFD  .LB/G      12.30000                 :
DFL  .C3               2                 :
DFPH .        N/A                        :
DFT  .        SINTETICO                  :
DFV  .S               95                 :
DMF  .        MESA ROTATIVA              :
EDF  .M               24                 :
EGL  .M             -500                 :
EKB  .        N/A                        :
ENGI .        HERNANDEZ / LOCK           :
FL1  .        X   7292392.00 M LAT 24 28 47.189 S :
FL2  .        Y    584087.00 M LON 44 10 12.698 W :
FL3  .        MC  45 GRAUS               :
FN   .        BS-400                     :
LMF  .        MESA ROTATIVA              :
LUL  .        MACAE                      :
MCSS .        PRENSA                     :
MCST .DEGF            80                 :
MFSS .        PRENSA                     :
MFST .DEGF            80                 :
MSS  .        LINHA DE FLUXO             :
MST  .DEGF            80                 :
PDAT .        NIVEL DO MAR               :
R1   .        01. APRESENTAÇÃO DE ACORDO COM REQUERIMENTO DO CLIENTE :
R2   .        02. TEMPERATURA MÁXIMA DO POÇO T1=T2= 290 DEGF @  5275 M :
R3   .        03. INICIO DA CIRCULAÇÃO  12/11/2004 09 00 H :
R4   .        04. FINAL DA CIRCULAÇÃO   12/11/2004 18 00 H :
R5   .        05. TEMPO TOTAL DE CIRCULAÇÃO   09 00 H :
R6   .        06. FLUIDO DE PERFURAÇÃO  SINTETICO (BR-MUL  BR-MI)  60% TEOR DO OLEO :
R7   .        07. SALINIDADE DA LAMA  254762 PPM NACL NA FASE DE AGUA :
R8   .        08. INCLINAÇÃO MÁXIMA DO POÇO  37.37 GRAUS @ 5100 M :
R9   .        09. PRIMEIRAS E ULTIMAS LEITURAS  :
RMB  .OHMM    > 10                       :
RMCS .OHMM    > 10                       :
RMFS .OHMM    > 10                       :
RMS  .OHMM    >10                        :
RUN  .                 2                 :
STAT .        BRASIL                     :
TCS  .        18 00 H                    :
TDD  .M             5288                 :
TDL  .M             5293                 :
TLAB .        N/A                        :
TLI  .M             5000                 :
WITN .        ERNANI / ZE MARIA          :
WN   .        3-BRSA-293D-SPS            :
LUN  .              8808                 :
HIDE .        3-SPS-41D                  :
HID2 .        HIGH DEFINITION INDUCTION LOG :
HID3 .        X-MULTIPOLE ARRAY ACOUSTILOG :
HID4 .        GAMMA RAY LOG              :
HID5 .        TTRM SUB                   :
CLAB .        BACIA                      :
SLAB .        PAIS                       :
CMT1 .        ESC  1 200                 :
CMT2 .        PROF. MEDIDA               :
CMT4 .        SONDA  SS-43               :
HDAT .        SAD 69                     :
FL   .        BASE SAD 69                :
OS1  .        RCI/GR                     :
OS2  .        CHECK SHOT                 :
OS3  .        GR/CN/ZDL                  :
OS5  .        RCOR/GR                    :
LNAM .        ZDL/CN/XMAC/HDIL/EARTH IMAGER/RCI/RCOR/CHECK SHOT/GR :
TOOL .        ZDL/CN/XMAC/HDIL/EARTH IMAGER/RCI/RCOR/CHECK SHOT/GR :
LSOU .        PETROBRAS                  :
LSRV .        OH WIRELINE                :
LTYP .        RAW                        :
EPD  .M                0                 :
LDAT .        15/11/2004                 :
TRIP .                 3                 :
SON  .            786588                 :
CBDR .M             4277                 :
CBLO .        NR                         :
CBL1 .        NR                         :
STEM .DEGF    N/A                        :
BSAL .            254762                 :
BARI .        OFF                        :
DLAB .        12/11/2004                 :
MRT  .DEGF           290                 :
TSTR .        HDIL/XMAC/GR/TTRM          :
TSTG .        N/A                        :
STUS .        FINAL                      :
LCNM .        BAKER ATLAS                :
LCC  .               150                 :
NATI .        BRASIL                     :
OPMD .        OH.WIRELINE                :
PANA .        HERNANDEZ / LOCK           :
PCON .        BAKER ATLAS                :
R11  .        SL     5268.3 M / 5000.0 M :
R12  .        GR     5268.3 M / 5000.0 M :
R13  .        XMAC   5279.5 M / 5000.0 M :
R14  .        HDIL   5289.0 M / 5000.0 M :
R17  .        11. DECLINAÇÃO MAGNETICA  -20.9 GRAUS :
R18  .        12. COORDENADAS BASE       :
R21  .        Y    583936.00 M           :
R22  .        MC  45 GRAUS               :
PVER .           4.10000                 :
WDFN .        /space/expusr/3-SPS-41D_RUN2/i77bf02_4spf.xtf :
OCT  .        i77bf                      :
OS4  .        EARTH IMAGER               :
R16  .        10. PONTO FRACO UTILIZADO  10K :
R20  .        X   7292512.00 M           :
R24  .        13. CADASTRO ANP  86316021017 :
#-----------------------------------------------------------------------------
~CURVE INFORMATION
#MNEM.UNIT   API CODE                                  DESCRIPTION
#---- -----  --------                                  -----------------------
DEPT .M                                                :DEPTH (BOREHOLE) {F10.4}
DEPT .M                                                : {F13.4}
BIT  .IN                                               : {F13.4}
GR   .GAPI                                             : {F13.4}
M2R1 .OHMM                                             : {F13.4}
M2R2 .OHMM                                             : {F13.4}
M2R3 .OHMM                                             : {F13.4}
M2R6 .OHMM                                             : {F13.4}
M2R9 .OHMM                                             : {F13.4}
M2RX .OHMM                                             : {F13.4}
SPD  .M/MN                                             : {F13.4}
TEN  .LBF                                              : {F13.4}
TTEN .LBF                                              : {F13.4}
#-----------------------------------------------------------------------------
# 
#     DEPT        DEPT         BIT          GR           M2R1         M2R2         M2R3         M2R6         M2R9         M2RX         SPD          TEN          TTEN
#
~A  
# ...
 5007.7116    5007.7116       8.5000      85.5804       4.3670       5.9742       7.1561       7.9367       8.1646       8.3570       4.8715      27.2597    7574.8917
 5007.5592    5007.5592       8.5000      83.5903       4.4068       6.0071       7.1879       7.9790       8.2095       8.4128       4.8583      14.5142    7562.6011
 5007.4068    5007.4068       8.5000      81.3601       4.4686       6.0750       7.2604       8.0619       8.2935       8.5085       4.8547      -8.6761    7539.4061
 5007.2544    5007.2544       8.5000      81.1469       4.5393       6.1617       7.3522       8.1617       8.3921       8.6183       4.8407     -25.3551    7522.2569
 5007.1020    5007.1020       8.5000      82.5182       4.6056       6.2437       7.4331       8.2450       8.4716       8.7074       4.8254     -19.9359    7527.1687
 5006.9496    5006.9496       8.5000      84.0985       4.6436       6.2855       7.4628       8.2688       8.4883       8.7303       4.8237      -0.9021    7546.0582
 5006.7972    5006.7972       8.5000      84.6291       4.6435       6.2803       7.4391       8.2325       8.4431       8.6873       4.8354      17.1183    7564.3529
 5006.6448    5006.6448       8.5000      82.9037       4.6394       6.2851       7.4359       8.2201       8.4231       8.6680       4.8559      29.7044    7577.5358
 5006.4924    5006.4924       8.5000      80.0446       4.6738       6.3609       7.5267       8.3139       8.5133       8.7602       4.8723      35.6597    7584.2369
 5006.3400    5006.3400       8.5000      79.3794       4.7467       6.4972       7.6953       8.4966       8.6964       8.9460       4.8779      29.0253    7578.2606
 5006.1876    5006.1876       8.5000      80.9308       4.8165       6.6164       7.8426       8.6586       8.8600       9.1100       4.8802       2.1442    7551.6413
 5006.0352    5006.0352       8.5000      81.9158       4.8439       6.6471       7.8779       8.6986       8.9003       9.1459       4.8797     -37.6608    7511.4199
 5005.8828    5005.8828       8.5000      80.9481       4.8540       6.6225       7.8393       8.6571       8.8580       9.0965       4.8682     -59.6101    7488.4844
 5005.7304    5005.7304       8.5000      79.1222       4.9215       6.6586       7.8674       8.6875       8.8897       9.1230       4.8506     -45.8977    7501.1942
 5005.5780    5005.5780       8.5000      77.4171       5.0760       6.8125       8.0331       8.8676       9.0746       9.3074       4.8433     -15.3064    7531.2238
 5005.4256    5005.4256       8.5000      75.5385       5.2650       7.0303       8.2754       9.1304       9.3441       9.5795       4.8559       6.6015    7553.0412
 5005.2732    5005.2732       8.5000      73.2891       5.4014       7.2081       8.4742       9.3447       9.5644       9.8026       4.8773      11.2760    7557.8968
 5005.1208    5005.1208       8.5000      72.2610       5.4161       7.2542       8.5236       9.3964       9.6187       9.8576       4.8849      -6.9069    7539.8178
 5004.9684    5004.9684       8.5000      73.8997       5.3058       7.1480       8.4002       9.2616       9.4828       9.7198       4.8725     -34.2479    7512.1540
 5004.8160    5004.8160       8.5000      77.0625       5.1370       6.9569       8.1820       9.0273       9.2459       9.4802       4.8575     -35.2197    7510.5728
 5004.6636    5004.6636       8.5000      79.7047       4.9771       6.7601       7.9612       8.7942       9.0109       9.2441       4.8482      -2.1786    7543.3037
 5004.5112    5004.5112       8.5000      80.4466       4.8780       6.6313       7.8229       8.6553       8.8727       9.1083       4.8427      29.6785    7575.4291
 5004.3588    5004.3588       8.5000      79.1258       4.8772       6.6311       7.8387       8.6883       8.9110       9.1544       4.8414      33.2950    7579.5775
 5004.2064    5004.2064       8.5000      77.5430       4.9547       6.7416       7.9861       8.8668       9.0985       9.3542       4.8439      20.6011    7567.2768
 5004.0540    5004.0540       8.5000      77.2380       5.0270       6.8532       8.1330       9.0426       9.2828       9.5505       4.8484      15.6861    7562.6121
 5003.9016    5003.9016       8.5000      77.3954       5.0213       6.8627       8.1536       9.0740       9.3182       9.5929       4.8591      18.9373    7566.1525
 5003.7492    5003.7492       8.5000      77.0656       4.9190       6.7343       8.0032       8.9105       9.1525       9.4268       4.8736      16.3157    7563.8740
 5003.5968    5003.5968       8.5000      76.6532       4.7594       6.5123       7.7360       8.6127       8.8480       9.1161       4.8849       4.0106    7551.8126
 5003.4444    5003.4444       8.5000      76.0102       4.6110       6.2934       7.4713       8.3152       8.5430       8.8032       4.8907      -8.0525    7539.7954
 5003.2920    5003.2920       8.5000      75.2439       4.5101       6.1418       7.2911       8.1113       8.3341       8.5879       4.8892     -13.7648    7533.9473
 5003.1396    5003.1396       8.5000      75.5003       4.4468       6.0610       7.2032       8.0114       8.2318       8.4812       4.8958     -20.3412    7527.0322
 5002.9872    5002.9872       8.5000      76.2324       4.3933       6.0226       7.1748       7.9796       8.1994       8.4457       4.9257     -28.6144    7518.2312
 5002.8348    5002.8348       8.5000      76.8535       4.3118       5.9698       7.1350       7.9371       8.1560       8.3983       4.9592     -28.4751    7517.8501
 5002.6824    5002.6824       8.5000      79.0083       4.1844       5.8628       7.0313       7.8244       8.0404       8.2761       4.9763     -26.0591    7519.8735
 5002.5300    5002.5300       8.5000      82.2513       4.0425       5.7293       6.8920       7.6715       7.8833       8.1114       4.9846     -40.0160    7505.4441
 5002.3776    5002.3776       8.5000      83.4297       3.9218       5.6084       6.7611       7.5267       7.7345       7.9552       4.9910     -66.8160    7477.8132
 5002.2252    5002.2252       8.5000      82.3784       3.8328       5.5064       6.6459       7.3978       7.6021       7.8161       4.9894     -83.2978    7460.1006
 5002.0728    5002.0728       8.5000      82.6309       3.7755       5.4219       6.5454       7.2844       7.4856       7.6939       4.9761     -69.0482    7473.0548
 5001.9204    5001.9204       8.5000      85.2329       3.7453       5.3548       6.4614       7.1894       7.3886       7.5919       4.9559     -23.9965    7517.3332
 5001.7680    5001.7680       8.5000      88.3609       3.7373       5.3101       6.4025       7.1237       7.3221       7.5217       4.9406      23.4493    7564.8612
 5001.6156    5001.6156       8.5000      90.4584       3.7520       5.3006       6.3859       7.1066       7.3060       7.5038       4.9376      41.9853    7584.0584
 5001.4632    5001.4632       8.5000      90.9439       3.7828       5.3226       6.4080       7.1337       7.3361       7.5337       4.9430      29.1571    7571.8889
 5001.3108    5001.3108       8.5000      90.5357       3.8155       5.3566       6.4444       7.1765       7.3828       7.5812       4.9535     -10.8315    7532.0155
 5001.1584    5001.1584       8.5000      89.6942       3.8378       5.3843       6.4711       7.2070       7.4173       7.6168       4.9657     -64.7195    7477.3566
 5001.0060    5001.0060       8.5000      88.5253       3.8466       5.3992       6.4797       7.2145       7.4285       7.6290       4.9729     -95.7804    7444.8511
 5000.8536    5000.8536       8.5000      87.5229       3.8476       5.4066       6.4779       7.2077       7.4250       7.6265       4.9699     -78.1877    7461.0722
 5000.7012    5000.7012       8.5000      87.9523       3.8447       5.4046       6.4659       7.1877       7.4079       7.6102       4.9641     -29.6247    7508.9492
 5000.5488    5000.5488       8.5000      89.3805       3.8316       5.3763       6.4260       7.1367       7.3589       7.5612       4.9613      10.5514    7549.1250
