~VERSION INFORMATION
VERS.           2.0   :CWLS Log ASCII Standard - VERSION 2.0
WRAP.           YES   :Multiple lines per depth step
PROD.  Schlumberger   :LAS Producer
PROG.  DLIS to ASCII 2.3                               :LAS Program name and version
CREA.        2023/07/14 00:15                          :LAS Creation date {YYYY/MM/DD hh:mm}
DLIS_CREA.  2023-Jul-14 00:11                          :DLIS Creation date and time {YYYY-MMM-DD hh:mm}
SOURCE.     LIS_013.dlis                               :DLIS File Name
FILE-ID.     LIS   .002                                :File Identification Number
#--------------------------------------------------
~WELL INFORMATION
#MNEM.UNIT      DATA             DESCRIPTION
#---- ------ --------------   -----------------------------
STRT .M      5299.5576       :START DEPTH     
STOP .M      4241.4444       :STOP DEPTH     
STEP .M        -0.1524       :STEP     
NULL .          -999.25      :NULL VALUE
COMP .        PETROBRAS S.A.                           :COMPANY
WELL .        3-BRSA-293D-SPS                          :WELL
FLD  .        BS-400                                   :FIELD
LOC  .        BASE SAD 69:                             :LOCATION
CNTY .        SANTOS                                   :COUNTY
STAT .        BRASIL                                   :STATE
CTRY .        BRASIL                                   :COUNTRY
API  .                                                 :API NUMBER
UWI  .                                                 :UNIQUE WELL ID
DATE .        15/11/2004                               :LOG DATE
SRVC .        Schlumberger                             :SERVICE COMPANY
LATI .DEG                                              :LATITUDE
LONG .DEG                                              :LONGITUDE
GDAT .                                                 :GeoDetic Datum
#-----------------------------------------------------------------------------
~PARAMETER INFORMATION
#MNEM.UNIT    VALUE                      DESCRIPTION
#---- -----   --------------------       ------------------------
APD  .M               24                 :
BHT  .DEGF           260                 :
BLI  .M             5289                 :
BS   .IN         8.50000                 :
CN   .        PETROBRAS S.A.             :
COUN .        SANTOS                     :
CS   .IN         9.62500                 :
DATE .        15/11/2004                 :
DFD  .LB/G      12.30000                 :
DFL  .C3               2                 :
DFPH .        N/A                        :
DFT  .        SINTETICO                  :
DFV  .S               95                 :
DMF  .        MESA ROTATIVA              :
EDF  .M               24                 :
EGL  .M             -500                 :
EKB  .        N/A                        :
ENGI .        HERNANDEZ / LOCK           :
FL1  .        X   7292392.00 M LAT 24 28 47.189 S :
FL2  .        Y    584087.00 M LON 44 10 12.698 W :
FL3  .        MC  45 GRAUS               :
FN   .        BS-400                     :
LMF  .        MESA ROTATIVA              :
LUL  .        MACAE                      :
MCSS .        PRENSA                     :
MCST .DEGF            80                 :
MFSS .        PRENSA                     :
MFST .DEGF            80                 :
MSS  .        LINHA DE FLUXO             :
MST  .DEGF            80                 :
PDAT .        NIVEL DO MAR               :
R1   .        01. APRESENTAÇÃO DE ACORDO COM REQUERIMENTO DO CLIENTE :
R2   .        02. TEMPERATURA MÁXIMA DO POÇO T1=T2= 292 DEGF @  5277 M :
R3   .        03. INICIO DA CIRCULAÇÃO  12/11/2004 09 00 H :
R4   .        04. FINAL DA CIRCULAÇÃO   12/11/2004 18 00 H :
R5   .        05. TEMPO TOTAL DE CIRCULAÇÃO   09 00 H :
R6   .        06. FLUIDO DE PERFURAÇÃO  SINTETICO (BR-MUL  BR-MI)  60% TEOR DO OLEO :
R7   .        07. SALINIDADE DA LAMA  254762 PPM NACL NA FASE DE AGUA :
R8   .        08. INCLINAÇÃO MÁXIMA DO POÇO  37.37 GRAUS @ 5100 M :
R9   .        09. PRIMEIRAS E ULTIMAS LEITURAS  :
RMB  .OHMM    > 10                       :
RMCS .OHMM    > 10                       :
RMFS .OHMM    > 10                       :
RMS  .OHMM    >10                        :
RUN  .                 2                 :
STAT .        BRASIL                     :
TCS  .        18 00 H                    :
TDD  .M             5288                 :
TDL  .M             5293                 :
TLAB .        N/A                        :
TLI  .M             4277                 :
WITN .        ERNANI / ZE MARIA          :
WN   .        3-BRSA-293D-SPS            :
LUN  .              8808                 :
HIDE .        3-SPS-41D                  :
HID2 .        COMPENSATED Z-DENSILOG     :
HID3 .        COMPENSATED NEUTRON LOG    :
HID4 .        GAMMA RAY LOG              :
HID5 .        TTRM SUB                   :
CLAB .        BACIA                      :
SLAB .        PAIS                       :
CMT1 .        ESC  1 1000                :
CMT2 .        PROF. MEDIDA               :
CMT4 .        SONDA  SS-43               :
HDAT .        SAD 69                     :
FL   .        BASE SAD 69                :
OS1  .        RCI/GR                     :
OS2  .        CHECK SHOT                 :
OS3  .        GR/XMAC/HDIL               :
OS5  .        RCOR/GR                    :
LNAM .        ZDL/CN/XMAC/HDIL/EARTH IMAGER/RCI/RCOR/CHECK SHOT/GR :
TOOL .        ZDL/CN/XMAC/HDIL/EARTH IMAGER/RCI/RCOR/CHECK SHOT/GR :
LSOU .        PETROBRAS                  :
LSRV .        OH WIRELINE                :
LTYP .        RAW                        :
EPD  .M                0                 :
LDAT .        15/11/2004                 :
TRIP .                 4                 :
SON  .            786588                 :
CBDR .M             4277                 :
CBLO .        NR                         :
CBL1 .        NR                         :
STEM .DEGF    N/A                        :
BSAL .            254762                 :
BARI .        OFF                        :
DLAB .        12/11/2004                 :
MRT  .DEGF           292                 :
TSTR .        ZDL/CN/GR/TTRM             :
TSTG .        N/A                        :
STUS .        FINAL                      :
LCNM .        BAKER ATLAS                :
LCC  .               150                 :
NATI .        BRASIL                     :
OPMD .        OH.WIRELINE                :
PANA .        HERNANDEZ / LOCK           :
PCON .        BAKER ATLAS                :
R11  .        GR     5268.3 M / 4277.0 M :
R12  .        CN     5286.5 M / 5128.0 M (FERRAMENTA PERDEU LEITURA ACIMA DE 5128M) :
R13  .        ZDL    5292.0 M / 4277.0 M :
R15  .        10. PONTO FRACO UTILIZADO  10K :
R17  .        12. COORDENADAS BASE       :
R19  .        X   7292512.00 M           :
R21  .        MC  45 GRAUS               :
R23  .        13. CADASTRO ANP  86316021017 :
PVER .           4.10000                 :
WDFN .        /space/expusr/3-SPS-41D_RUN2/i77bf04_8spf.xtf :
OCT  .        i77bf                      :
OS4  .        EARTH IMAGER               :
R16  .        11. DECLINAÇÃO MAGNETICA  -20.9 GRAUS :
R20  .        Y    583936.00 M           :
#-----------------------------------------------------------------------------
~CURVE INFORMATION
#MNEM.UNIT   API CODE                                  DESCRIPTION
#---- -----  --------                                  -----------------------
DEPT .M                                                :DEPTH (BOREHOLE) {F10.4}
DEPT .M                                                : {F13.4}
BIT  .IN                                               : {F13.4}
DEPM .M                                                : {F13.4}
GR   .GAPI                                             : {F13.4}
SPD  .M/MN                                             : {F13.4}
TTEN .LBF                                              : {F13.4}
CAL  .IN                                               : {F13.4}
CALX .IN                                               : {F13.4}
HRD1 .HZ                                               : {F13.4}
HRD2 .HZ                                               : {F13.4}
PE   .B/E                                              : {F13.4}
SFT2 .HZ                                               : {F13.4}
SOFT .HZ                                               : {F13.4}
SSD  .HZ                                               : {F13.4}
ZCOR .G/C3                                             : {F13.4}
ZDEN .G/C3                                             : {F13.4}
CNC  .PU                                               : {F13.4}
CN   .PU                                               : {F13.4}
LSN  .HZ                                               : {F13.4}
SSN  .HZ                                               : {F13.4}
CNCF .PU                                               : {F13.4}
MMRK .MN                                               : {F13.4}
#-----------------------------------------------------------------------------
# DEPT       
#     DEPT         BIT          DEPM         GR           SPD          TTEN         
#     CAL          CALX         HRD1         HRD2         PE           SFT2         
#     SOFT         SSD          ZCOR         ZDEN         CNC          CN           
#     LSN          SSN          CNCF         MMRK         
~A  
# ...
5094.7320
   5094.7320       8.5000    5094.3238      89.1871       4.1668    7419.8003
      8.9571       8.9571     593.8328     792.2358       5.6058     459.3801
    330.2110    6694.7699      -0.0217       2.5919       0.0000     240.3582
   1488.3633    8718.8590      94.5633       0.0000
5094.5796
   5094.5796       8.5000    5094.1724      88.5039       4.1560    7464.8957
      8.9615       8.9615     593.8132     779.6441       5.3505     459.4775
    334.8730    6671.1644      -0.0225       2.5949       0.0000     281.9613
   1474.1458    9123.8643     103.4565       0.0000
5094.4272
   5094.4272       8.5000    5094.0210      89.0447       4.1600    7513.5967
      8.9634       8.9634     589.1042     754.1783       5.0647     455.6532
    337.2492    6632.7596      -0.0218       2.6018       0.0000     318.9796
   1442.6025    9354.6177     111.5553       0.0000
5094.2748
   5094.2748       8.5000    5093.8705      90.8812       4.1871    7502.0898
      8.9640       8.9640     581.3303     741.6309       4.9542     452.6378
    337.9701    6613.9656      -0.0203       2.6060       0.0000     331.8239
   1424.4750    9383.2074     114.4106       0.0000
5094.1224
   5094.1224       8.5000    5093.7191      92.1724       4.2065    7390.0597
      8.9629       8.9629     578.1288     758.0899       5.1469     453.3327
    335.5659    6617.7788      -0.0225       2.6019       0.0000     342.3896
   1415.7028    9444.3763     116.7734       0.0000
5093.9700
   5093.9700       8.5000    5093.5686      91.6939       4.1911    7236.4679
      8.9600       8.9600     583.0485     782.0168       5.5403     452.1850
    328.4975    6602.7047      -0.0303       2.5935       0.0000     404.6054
   1386.2926    9934.4510     131.0521       0.0000
5093.8176
   5093.8176       8.5000    5093.4172      90.9048       4.1553    7144.9981
      8.9572       8.9572     593.8940     793.0020       5.8381     446.5039
    321.0148    6569.9963      -0.0392       2.5869       0.0000     514.2550
   1361.6782   10950.0846     157.6817       0.0000
5093.6652
   5093.6652       8.5000    5093.2668      90.9632       4.1308    7142.8750
      8.9548       8.9548     604.5311     789.2751       5.8898     443.4594
    317.6179    6565.8036      -0.0411       2.5846       0.0000     593.2834
   1402.6932   12164.2722     178.1364       0.0000
5093.5128
   5093.5128       8.5000    5093.1153      91.6189       4.1258    7181.1223
      8.9536       8.9536     608.3976     781.1108       5.8672     447.6497
    317.5047    6574.5475      -0.0391       2.5853       0.0000     615.9492
   1492.0589   13208.1512     184.2207       0.2088
5093.3604
   5093.3604       8.5000    5092.9648      92.4131       4.1310    7208.4023
      8.9550       8.9550     608.1278     778.9758       5.8906     453.2543
    318.3294    6574.3672      -0.0386       2.5859       0.0000     651.2404
   1529.6353   13970.2207     194.0021       0.0000
5093.2080
   5093.2080       8.5000    5092.8135      92.7271       4.1334    7212.0195
      8.9595       8.9595     610.1962     779.5160       5.9109     457.8366
    315.9815    6595.3896      -0.0362       2.5856       0.0000     730.5966
   1499.5884   14644.2070     217.0132       0.0000
5093.0556
   5093.0556       8.5000    5092.6620      92.1148       4.1245    7217.1874
      8.9651       8.9651     613.9705     772.5346       5.8891     461.3794
    309.0993    6637.2334      -0.0297       2.5866       0.0000     783.5210
   1496.3166   15243.9562     233.2675       0.0000
5092.9032
   5092.9032       8.5000    5092.5116      91.3816       4.1147    7250.0361
      8.9694       8.9694     612.5836     762.3030       5.8742     460.2718
    304.6258    6652.3468      -0.0254       2.5899       0.0000     735.0882
   1548.2426   15174.2751     218.7013       0.0000
5092.7508
   5092.7508       8.5000    5092.3602      91.5356       4.1199    7299.5222
      8.9732       8.9732     603.1521     756.9816       5.9170     455.5303
    304.9530    6639.5748      -0.0242       2.5942       0.0000     607.2385
   1572.8284   13814.0437     182.3530       0.0000
5092.5984
   5092.5984       8.5000    5092.2097      92.2550       4.1390    7329.7324
      8.9759       8.9759     597.6787     755.9111       5.9551     455.0676
    306.5809    6638.2249      -0.0231       2.5964       0.0000     458.4608
   1538.1292   11685.9037     144.0631       0.0000
5092.4460
   5092.4460       8.5000    5092.0602      92.5679       4.1570    7319.6134
      8.9751       8.9751     600.3889     762.2219       5.9557     460.8575
    311.2069    6666.7363      -0.0210       2.5947       0.0000     382.4573
   1462.6574   10225.0076     125.9883       0.0000
5092.2936
   5092.2936       8.5000    5091.9088      92.4408       4.1612    7287.8128
      8.9713       8.9713     604.2793     775.0244       5.9408     467.3176
    317.8402    6698.2560      -0.0199       2.5911       0.0000     420.9416
   1395.2595   10181.7181     134.9728       0.0000
5092.1412
   5092.1412       8.5000    5091.7584      92.5695       4.1574    7268.6136
      8.9699       8.9699     599.3902     782.8379       5.9334     467.5315
    318.9100    6695.8473      -0.0208       2.5907       0.0000     483.9215
   1392.7465   10862.8662     150.2240       0.0000
5091.9888
   5091.9888       8.5000    5091.6070      92.2528       4.1549    7282.5485
      8.9701       8.9701     587.2966     783.3873       5.9513     466.0459
    316.6090    6670.6773      -0.0220       2.5940       0.0000     486.8871
   1426.0815   11156.4875     150.9625       0.0000
5091.8364
   5091.8364       8.5000    5091.4555      90.2535       4.1527    7327.4925
      8.9684       8.9684     577.9512     785.7407       6.0050     467.4595
    315.8859    6659.0997      -0.0222       2.5965       0.0000     445.2713
   1446.9824   10840.0029     140.7554       0.0000
5091.6840
   5091.6840       8.5000    5091.3051      88.2209       4.1496    7368.7346
      8.9666       8.9666     578.8682     788.0954       6.1712     466.5704
    310.3629    6659.8718      -0.0228       2.5968       0.0000     387.8114
   1474.6192   10371.5326     127.1594       0.0000
5091.5316
   5091.5316       8.5000    5091.1537      88.0697       4.1531    7356.0198
      8.9676       8.9676     579.3123     785.9432       6.3246     461.5011
    299.8732    6651.6165      -0.0236       2.5978       0.0000     350.4937
   1493.1640   10057.8801     118.6263       0.0000
5091.3792
   5091.3792       8.5000    5091.0032      88.9321       4.1541    7289.3874
      8.9686       8.9686     574.6738     785.0898       6.2995     457.6566
    295.0182    6640.7152      -0.0240       2.5993       0.0000     365.9043
   1442.4879    9893.4822     122.1349       0.0000
5091.2268
   5091.2268       8.5000    5090.8518      89.7116       4.1461    7230.1730
      8.9690       8.9690     578.4382     787.8725       6.3148     456.5963
    297.8762    6634.4494      -0.0262       2.5978       0.0000     388.2289
   1355.6248    9539.0816     127.2745       0.0000
5091.0744
   5091.0744       8.5000    5090.7014      90.6518       4.1379    7225.1621
      8.9716       8.9716     588.4951     795.0471       6.3749     458.3281
    304.8147    6635.8915      -0.0294       2.5938       0.0000     332.7060
   1301.7648    8584.6939     114.6642       0.0000
5090.9220
   5090.9220       8.5000    5090.5499      91.9101       4.1370    7261.1874
      8.9762       8.9762     591.2021     802.9125       6.3921     461.8320
    311.8722    6642.4150      -0.0305       2.5909       0.0000     223.0779
   1279.0042    7316.7040      91.0032       0.0000
5090.7696
   5090.7696       8.5000    5090.3985      92.8919       4.1414    7289.5598
      8.9837       8.9837     590.9647     803.9694       6.3668     463.6993
    315.7226    6659.3736      -0.0283       2.5901       0.0000     152.5554
   1258.5184    6491.8728      76.5445       0.0000
5090.6172
   5090.6172       8.5000    5090.2480      92.9823       4.1412    7290.0859
      8.9937       8.9937     593.9781     800.1986       6.2737     465.3903
    316.9692    6685.9883      -0.0245       2.5899       0.0000     133.7495
   1234.7566    6184.0068      72.7846       0.0000
