~VERSION INFORMATION
VERS.           2.0   :CWLS Log ASCII Standard - VERSION 2.0
WRAP.           NO    :One Line per depth step
PROD.  Schlumberger   :LAS Producer
PROG.  DLIS to ASCII 2.3                               :LAS Program name and version
CREA.        2023/07/14 00:15                          :LAS Creation date {YYYY/MM/DD hh:mm}
DLIS_CREA.  2023-Jul-14 00:11                          :DLIS Creation date and time {YYYY-MMM-DD hh:mm}
SOURCE.     LIS_006.dlis                               :DLIS File Name
FILE-ID.     LIS   .002                                :File Identification Number
#--------------------------------------------------
~WELL INFORMATION
#MNEM.UNIT      DATA             DESCRIPTION
#---- ------ --------------   -----------------------------
STRT .M      5238.7500       :START DEPTH     
STOP .M      5087.2644       :STOP DEPTH     
STEP .M        -0.1524       :STEP     
NULL .          -999.25      :NULL VALUE
COMP .        Petrobras S.A.                           :COMPANY
WELL .        3-SPS-41D                                :WELL
FLD  .        MEXILHOES                                :FIELD
LOC  .                                                 :LOCATION
CNTY .                                                 :COUNTY
STAT .                                                 :STATE
CTRY .                                                 :COUNTRY
API  .                                                 :API NUMBER
UWI  .                                                 :UNIQUE WELL ID
DATE .                                                 :LOG DATE
SRVC .        Schlumberger                             :SERVICE COMPANY
LATI .DEG                                              :LATITUDE
LONG .DEG                                              :LONGITUDE
GDAT .                                                 :GeoDetic Datum
#-----------------------------------------------------------------------------
~PARAMETER INFORMATION
#MNEM.UNIT    VALUE                      DESCRIPTION
#---- -----   --------------------       ------------------------
CN   .        Petrobras S.A.             :
FN   .        MEXILHOES                  :
WN   .        3-SPS-41D                  :
LCC  .               150                 :
WDFN .        /space/expusr/3-SPS-41D/i77bf06_8spf.xtf :
OCT  .        i77bf                      :
RUN  .                                   :RUN NUMBER
PDAT .                                   :Permanent Datum
EPD  .                                   :Elevation of Permanent Datum above Mean Sea Level
LMF  .                                   :Logging Measured From (Name of Logging Elevation Reference)
APD  .                                   :Elevation of Depth Reference (LMF) above Permanent Datum
#-----------------------------------------------------------------------------
~CURVE INFORMATION
#MNEM.UNIT   API CODE                                  DESCRIPTION
#---- -----  --------                                  -----------------------
DEPT .M                                                :DEPTH (BOREHOLE) {F10.4}
DEPT .M                                                : {F13.4}
BIT  .IN                                               : {F13.4}
DEPM .M                                                : {F13.4}
SPD  .M/MN                                             : {F13.4}
CNC  .PU                                               : {F13.4}
CN   .PU                                               : {F13.4}
LSN  .HZ                                               : {F13.4}
SSN  .HZ                                               : {F13.4}
#-----------------------------------------------------------------------------
# 
#     DEPT        DEPT         BIT          DEPM         SPD          CNC          CN           LSN          SSN
#
~A  
# ...
 5142.7380    5142.7380       8.5000    5142.3435       5.3418      18.4072      18.5112    1314.3207    3219.5092
 5142.5856    5142.5856       8.5000    5142.1911       5.2510      16.9373      16.8521    1386.5316    3261.7303
 5142.4332    5142.4332       8.5000    5142.0387       5.2415      15.6776      15.9555    1467.6747    3311.1557
 5142.2808    5142.2808       8.5000    5141.8863       5.2755      15.9685      16.5060    1456.7071    3298.9862
 5142.1284    5142.1284       8.5000    5141.7339       5.2705      16.6555      17.2314    1398.9594    3228.2267
 5141.9760    5141.9760       8.5000    5141.5815       5.2491      17.6748      18.3506    1324.0053    3154.7493
 5141.8236    5141.8236       8.5000    5141.4291       5.2461      18.5480      18.7531    1273.5568    3131.4463
 5141.6712    5141.6712       8.5000    5141.2767       5.3297      17.3102      17.5166    1340.2484    3196.5066
 5141.5188    5141.5188       8.5000    5141.1243       5.3863      17.2867      17.6010    1374.4910    3264.6248
 5141.3664    5141.3664       8.5000    5140.9719       5.3838      16.6887      16.8953    1404.6075    3258.4921
 5141.2140    5141.2140       8.5000    5140.8195       5.3738      16.1374      16.2379    1426.6783    3274.5503
 5141.0616    5141.0616       8.5000    5140.6671       5.3569      15.1020      15.2093    1528.7432    3416.4196
 5140.9092    5140.9092       8.5000    5140.5147       5.3704      14.6981      15.2100    1616.9475    3539.9448
 5140.7568    5140.7568       8.5000    5140.3623       5.3925      15.7247      16.3304    1569.3660    3518.9938
 5140.6044    5140.6044       8.5000    5140.2099       5.4054      16.5721      17.0048    1493.0726    3444.0202
 5140.4520    5140.4520       8.5000    5140.0575       5.4261      16.5389      16.8812    1483.6206    3434.8431
 5140.2996    5140.2996       8.5000    5139.9051       5.4516      16.8603      17.4937    1474.0394    3445.9095
 5140.1472    5140.1472       8.5000    5139.7527       5.3618      17.7561      18.1332    1431.9290    3430.2727
 5139.9948    5139.9948       8.5000    5139.6003       5.3644      17.6748      18.0743    1419.7868    3389.3338
 5139.8424    5139.8424       8.5000    5139.4479       5.3666      17.4235      17.5030    1409.5225    3340.5935
 5139.6900    5139.6900       8.5000    5139.2955       5.3736      15.9865      15.9241    1474.3004    3368.7361
 5139.5376    5139.5376       8.5000    5139.1431       5.3708      14.3753      14.2605    1603.8094    3489.2030
 5139.3852    5139.3852       8.5000    5138.9907       5.3865      12.0636      11.5228    1843.5125    3700.2392
 5139.2328    5139.2328       8.5000    5138.8383       5.4315       9.0727       8.8538    2267.9724    4019.4499
 5139.0804    5139.0804       8.5000    5138.6859       5.4195       7.7344       7.7843    2662.0139    4419.0790
 5138.9280    5138.9280       8.5000    5138.5335       5.3461       7.6130       8.1201    2909.8461    4750.1647
 5138.7756    5138.7756       8.5000    5138.3811       5.3213       9.5056      10.5782    2704.4215    4737.8466
 5138.6232    5138.6232       8.5000    5138.2287       5.3575      13.1796      14.3179    2173.6871    4365.0860
 5138.4708    5138.4708       8.5000    5138.0763       5.3705      14.8962      15.1868    1841.3713    3941.8372
 5138.3184    5138.3184       8.5000    5137.9229       5.3824      14.5534      14.7551    1712.1864    3650.4155
 5138.1660    5138.1660       8.5000    5137.7715       5.3733      14.4981      15.0988    1633.9435    3506.8996
 5138.0136    5138.0136       8.5000    5137.6191       5.4082      15.7033      16.2147    1531.7719    3436.6406
 5137.8612    5137.8612       8.5000    5137.4667       5.4654      16.1728      16.6490    1500.2390    3448.2343
 5137.7088    5137.7088       8.5000    5137.3143       5.3668      15.9585      15.7439    1581.6873    3664.8066
 5137.5564    5137.5564       8.5000    5137.1619       5.3476      13.5813      13.5432    1858.4089    3941.1345
 5137.4040    5137.4040       8.5000    5137.0095       5.3980      13.1357      13.6616    1931.2435    3938.2810
 5137.2516    5137.2516       8.5000    5136.8571       5.3915      14.2957      14.9370    1737.2887    3643.6913
 5137.0992    5137.0992       8.5000    5136.7047       5.3492      15.3086      15.8684    1531.0034    3339.5269
 5136.9468    5136.9468       8.5000    5136.5523       5.3770      16.1285      16.6675    1408.8495    3197.3559
 5136.7944    5136.7944       8.5000    5136.3999       5.4312      16.6821      17.0663    1364.8945    3165.0758
 5136.6420    5136.6420       8.5000    5136.2475       5.4660      16.8711      17.2881    1346.6131    3134.3546
 5136.4896    5136.4896       8.5000    5136.0951       5.3762      17.1064      17.4419    1324.1196    3107.2640
 5136.3372    5136.3372       8.5000    5135.9427       5.3543      18.1145      18.9060    1275.9182    3079.0308
 5136.1848    5136.1848       8.5000    5135.7903       5.3755      18.8455      19.0307    1220.9425    2999.0514
 5136.0324    5136.0324       8.5000    5135.6379       5.3722      18.4338      19.0484    1190.7762    2902.6333
 5135.8800    5135.8800       8.5000    5135.4845       5.3733      19.5257      20.4729    1132.2684    2864.9025
 5135.7276    5135.7276       8.5000    5135.3324       5.3844      20.4625      20.7743    1099.5789    2850.5225
 5135.5752    5135.5752       8.5000    5135.1816       5.3889      18.7781      19.0010    1127.1264    2778.3547
 5135.4228    5135.4228       8.5000    5135.0292       5.4323      18.4731      19.0148    1118.5178    2763.3726
 5135.2704    5135.2704       8.5000    5134.8759       5.3592      18.4678      18.8741    1165.1398    2916.6143
 5135.1180    5135.1180       8.5000    5134.7235       5.3329      17.6801      17.9125    1285.8319    3146.6445
 5134.9656    5134.9656       8.5000    5134.5711       5.3681      16.8699      16.7073    1423.7481    3402.9263
 5134.8132    5134.8132       8.5000    5134.4187       5.3702      13.6534      13.3089    1711.1004    3646.6582
 5134.6608    5134.6608       8.5000    5134.2663       5.3871      11.9902      12.2862    1890.2499    3730.0049
 5134.5084    5134.5084       8.5000    5134.1139       5.3867      12.2942      12.7413    1873.2788    3758.5427
 5134.3560    5134.3560       8.5000    5133.9615       5.4019      11.5632      11.2230    2009.8901    3956.3957
 5134.2036    5134.2036       8.5000    5133.8091       5.4422       8.7619       8.4193    2428.0475    4202.3127
 5134.0512    5134.0512       8.5000    5133.6567       5.3683       7.0786       7.1814    2776.6000    4404.9024
 5133.8988    5133.8988       8.5000    5133.5043       5.3314       7.0569       7.2683    2950.7393    4692.3383
 5133.7464    5133.7464       8.5000    5133.3519       5.3493       6.9607       7.0856    3171.3852    4995.2541
 5133.5940    5133.5940       8.5000    5133.1995       5.3591       6.5367       6.5964    3365.2298    5118.3995
 5133.4416    5133.4416       8.5000    5133.0471       5.3336       6.6077       7.1289    3270.7560    4867.5560
 5133.2892    5133.2892       8.5000    5132.8947       5.3339       9.2732      10.8537    2479.9441    4104.8847
 5133.1368    5133.1368       8.5000    5132.7423       5.3598      15.9086      17.6918    1541.6617    3321.7894
 5132.9844    5132.9844       8.5000    5132.5902       5.4043      19.7810      20.5581    1202.7599    3014.5504
 5132.8320    5132.8320       8.5000    5132.4375       5.3627      21.1247      21.2271    1132.9598    2965.8996
 5132.6796    5132.6796       8.5000    5132.2851       5.3321      19.4407      19.4751    1161.4708    2898.7519
 5132.5272    5132.5272       8.5000    5132.1327       5.3411      19.7946      20.7002    1124.1570    2843.1718
 5132.3748    5132.3748       8.5000    5131.9803       5.3441      21.7490      21.8359    1064.5101    2842.9132
 5132.2224    5132.2224       8.5000    5131.8279       5.3335      19.5095      19.2815    1137.2207    2872.7194
