~VERSION INFORMATION
VERS.           2.0   :CWLS Log ASCII Standard - VERSION 2.0
WRAP.           YES   :Multiple lines per depth step
PROD.  Schlumberger   :LAS Producer
PROG.  DLIS to ASCII 2.3                               :LAS Program name and version
CREA.        2023/07/14 00:15                          :LAS Creation date {YYYY/MM/DD hh:mm}
DLIS_CREA.  2023-Jul-14 00:11                          :DLIS Creation date and time {YYYY-MMM-DD hh:mm}
SOURCE.     LIS_007.dlis                               :DLIS File Name
FILE-ID.     LIS   .003                                :File Identification Number
#--------------------------------------------------
~WELL INFORMATION
#MNEM.UNIT      DATA             DESCRIPTION
#---- ------ --------------   -----------------------------
STRT .M      5238.7500       :START DEPTH     
STOP .M      4241.4444       :STOP DEPTH     
STEP .M        -0.1524       :STEP     
NULL .          -999.25      :NULL VALUE
COMP .        PETROBRAS S.A.                           :COMPANY
WELL .        3-BRSA-293D-SPS                          :WELL
FLD  .        BS-400                                   :FIELD
LOC  .        BASE SAD 69:                             :LOCATION
CNTY .        SANTOS                                   :COUNTY
STAT .        BRASIL                                   :STATE
CTRY .        SANTOS                                   :COUNTRY
API  .                                                 :API NUMBER
UWI  .                                                 :UNIQUE WELL ID
DATE .        23/10/2004                               :LOG DATE
SRVC .        Schlumberger                             :SERVICE COMPANY
LATI .DEG                                              :LATITUDE
LONG .DEG                                              :LONGITUDE
GDAT .                                                 :GeoDetic Datum
#-----------------------------------------------------------------------------
~PARAMETER INFORMATION
#MNEM.UNIT    VALUE                      DESCRIPTION
#---- -----   --------------------       ------------------------
APD  .M               24                 :
BHT  .DEGF           280                 :
BLI  .M             5230                 :
BS   .IN         8.50000                 :
CN   .        PETROBRAS S.A.             :
COUN .        SANTOS                     :
CS   .IN         9.62500                 :
DATE .        23/10/2004                 :
DFD  .LB/G      12.30000                 :
DFL  .C3               2                 :
DFPH .        N/A                        :
DFT  .        SINTETICO                  :
DFV  .S               87                 :
DMF  .        MESA ROTATIVA              :
EDF  .M               24                 :
EGL  .M             -500                 :
EKB  .        N/A                        :
ENGI .        HERNANDEZ/LOCK             :
FL1  .        X   7292392.00 M LAT 24 28 47.189 S :
FL2  .        Y    584087.00 M LON 44 10 12.698 W :
FL3  .        MC  45 GRAUS               :
FN   .        BS-400                     :
LMF  .        MESA ROTATIVA              :
LUL  .        MACAE                      :
MCSS .        PRENSA                     :
MCST .DEGF            80                 :
MFSS .        PRENSA                     :
MFST .DEGF            80                 :
MSS  .        LINHA DE FLUXO             :
MST  .DEGF            80                 :
PDAT .        NIVEL DO MAR               :
R1   .        01. APRESENTAÇÃO DE ACORDO COM REQUERIMENTO DO CLIENTE :
R2   .        02. TEMPERATURA MÁXIMA DO POÇO T1=T2= 260 DEGF @  5180 M :
R3   .        03. INICIO DA CIRCULAÇÃO  13 45 H 21/10/2004 :
R4   .        04. FINAL DA CIRCULAÇÃO   16 00 H 21/10/2004 :
R5   .        05. TEMPO TOTAL DE CIRCULAÇÃO  02 15 H :
R6   .        06. FLUIDO DE PERFURAÇÃO  SINTETICO (BR-MUL  BR-MI)  65% TEOR DO OLEO :
R7   .        07. SALINIDADE DA LAMA  266377 PPM NACL NA FASE DE AGUA :
R8   .        08. INCLINAÇÃO MÁXIMA DO POÇO  37.37 GRAUS @ 5100 M :
R9   .        09. PRIMEIRAS E ULTIMAS LEITURAS  :
RMB  .OHMM    > 10                       :
RMCS .OHMM    > 10                       :
RMFS .OHMM    > 10                       :
RMS  .OHMM    > 10                       :
RUN  .                 1                 :
STAT .        BRASIL                     :
TCS  .        16 00 H                    :
TDD  .M             5230                 :
TDL  .M             5231                 :
TLAB .        N/A                        :
TLI  .M             4277                 :
WITN .        ALCIDIO/VLADIMIR           :
WN   .        3-BRSA-293D-SPS            :
LUN  .              8808                 :
HIDE .        3-SPS-41D                  :
HID2 .        COMPENSATED Z-DENSILOG     :
HID3 .        COMPENSATED NEUTRON LOG    :
HID4 .        GAMMA RAY LOG              :
HID5 .        TTRM SUB                   :
CLAB .        BACIA                      :
SLAB .        PAIS                       :
CMT1 .        ESC  1 1000                :
CMT2 .        PROF. MEDIDA               :
CMT4 .        SONDA  SS-43               :
HDAT .        SAD 69                     :
FL   .        BASE SAD 69                :
OS1  .        HDIL/XMAC/SL/GR            :
OS3  .        MREX/GR                    :
OS5  .        SL/GR                      :
LNAM .        MREX/ZDL/CN/XMAC/HDIL/3DEX/RCI/SL/GR :
TOOL .        MREX/ZDL/CN/XMAC/HDIL/3DEX/RCI/SL/GR :
LSOU .        PETROBRAS                  :
LSRV .        OH WIRELINE                :
LTYP .        RAW                        :
EPD  .M                0                 :
LDAT .        23/10/2004                 :
TRIP .                 1                 :
SON  .            772317                 :
CBDR .M             4277                 :
CBLO .M             4277                 :
CBL1 .M             4277                 :
STEM .DEGF    N/A                        :
BSAL .            266377                 :
BARI .        OFF                        :
DLAB .        21/10/2004                 :
MRT  .DEGF           280                 :
TSTR .        ZDL/CN/GR/TTRM             :
TSTG .        N/A                        :
STUS .        FINAL                      :
LCNM .        BAKER ATLAS                :
LCC  .               150                 :
NATI .        SANTOS                     :
OPMD .        OH.WIRELINE                :
PANA .        HERNANDEZ/LOCK             :
PCON .        BAKER ATLAS                :
R11  .        GR     5222.5 M/4277.0 M   :
R12  .        ZDL    5230.0 M/4277.0 M   :
R13  .        CN     5224.0 M/4277.0 M   :
R15  .        10. PONTO FRACO UTILIZADO  10K :
R17  .        12. DECLINAÇÃO MAGNETICA  -20.9 GRAUS :
R18  .        13. COORDENADAS BASE       :
R21  .        Y    583936.00 M           :
R22  .        MC  45 GRAUS               :
PVER .           4.10000                 :
WDFN .        /space/expusr/3-SPS-41D/i77bf07_4spf.xtf :
OCT  .        i77bf                      :
0S2  .        3DEX/GR                    :
OS4  .        RCI/GR                     :
R16  .        11. CNC CORREGIDO PELO CALIPER E SALINIDADE  PRESENTADO MATRIZ CARBONATO :
R20  .        X   7292512.00 M           :
R24  .        14. CADASTRO ANP  86316021017 :
#-----------------------------------------------------------------------------
~CURVE INFORMATION
#MNEM.UNIT   API CODE                                  DESCRIPTION
#---- -----  --------                                  -----------------------
DEPT .M                                                :DEPTH (BOREHOLE) {F10.4}
DEPT .M                                                : {F13.4}
BIT  .IN                                               : {F13.4}
DEPM .M                                                : {F13.4}
GR   .GAPI                                             : {F13.4}
SPD  .M/MN                                             : {F13.4}
TEN  .LBF                                              : {F13.4}
TTEN .LBF                                              : {F13.4}
CAL  .IN                                               : {F13.4}
CALX .IN                                               : {F13.4}
HRD1 .HZ                                               : {F13.4}
HRD2 .HZ                                               : {F13.4}
PE   .B/E                                              : {F13.4}
SFT2 .HZ                                               : {F13.4}
SOFT .HZ                                               : {F13.4}
SSD  .HZ                                               : {F13.4}
ZCOR .G/C3                                             : {F13.4}
ZDEN .G/C3                                             : {F13.4}
CNC  .PU                                               : {F13.4}
CN   .PU                                               : {F13.4}
LSN  .HZ                                               : {F13.4}
SSN  .HZ                                               : {F13.4}
CNCF .PU                                               : {F13.4}
#-----------------------------------------------------------------------------
# DEPT       
#     DEPT         BIT          DEPM         GR           SPD          TEN          
#     TTEN         CAL          CALX         HRD1         HRD2         PE           
#     SFT2         SOFT         SSD          ZCOR         ZDEN         CNC          
#     CN           LSN          SSN          CNCF         
~A  
5238.7500
   5238.7500       8.5000    5238.2158    -999.2500    -999.2500    -999.2500
   -999.2500    -999.2500    -999.2500    -999.2500    -999.2500       2.5002
   -999.2500    -999.2500    -999.2500    -999.2500       2.4999    -999.2500
   -999.2500    -999.2500    -999.2500    -999.2500
5238.5976
   5238.5977       8.5000    5238.0635    -999.2500    -999.2500    -999.2500
   -999.2500    -999.2500    -999.2500    -999.2500    -999.2500       2.5008
   -999.2500    -999.2500    -999.2500    -999.2500       2.4995    -999.2500
   -999.2500    -999.2500    -999.2500    -999.2500
5238.4452
   5238.4452       8.5000    5237.9110    -999.2500 -958764.4226     902.7482
   4875.6360    -999.2500    -999.2500    -999.2500    -999.2500       2.5002
   -999.2500    -999.2500    -999.2500    -999.2500       2.4981    -999.2500
   -999.2500    -999.2500    -999.2500    -999.2500
5238.2928
   5238.2928       8.5000    5237.7586    -999.2500       5.4090     952.2596
   4952.2646    -999.2500    -999.2500    -999.2500    -999.2500       2.5000
   -999.2500    -999.2500    -999.2500    -999.2500       2.4969    -999.2500
   -999.2500    -999.2500    -999.2500    -999.2500
5238.1404
   5238.1404       8.5000    5237.6072    -999.2500       5.4378     983.4399
   4998.8398    -999.2500    -999.2500    -999.2500    -999.2500       2.5000
   -999.2500    -999.2500    -999.2500    -999.2500       2.4959    -999.2500
   -999.2500    -999.2500    -999.2500    -999.2500
5237.9880
   5237.9880       8.5000    5237.4548    -999.2500       5.3374    1015.2447
   5047.2928    -999.2500    -999.2500    -999.2500    -999.2500       2.5000
   -999.2500    -999.2500    -999.2500    -999.2500       2.4949    -999.2500
   -999.2500    -999.2500    -999.2500    -999.2500
5237.8356
   5237.8356       8.5000    5237.3024    -999.2500       5.1913    1045.5699
   5095.5868    -999.2500    -999.2500    -999.2500    -999.2500       2.5000
   -999.2500    -999.2500    -999.2500    -999.2500       2.4936    -999.2500
   -999.2500    -999.2500    -999.2500    -999.2500
5237.6832
   5237.6832       8.5000    5237.1500    -999.2500       5.0764    1068.6420
   5137.3093    -999.2500    -999.2500    -999.2500    -999.2500       2.5000
   -999.2500    -999.2500    -999.2500    -999.2500       2.4921    -999.2500
   -999.2500    -999.2500    -999.2500    -999.2500
5237.5308
   5237.5308       8.5000    5236.9976    -999.2500       5.0319    1091.5369
   5178.7792    -999.2500    -999.2500    -999.2500    -999.2500       2.8408
   -999.2500    -999.2500    -999.2500    -999.2500       2.4905    -999.2500
   -999.2500    -999.2500    -999.2500    -999.2500
5237.3784
   5237.3784       8.5000    5236.8452    -999.2500       5.0301    1114.7019
   5220.7589    -999.2500       8.3040 -999999.9999 -999999.9999       4.8740
-999999.9999 -999999.9999    -999.2500    -999.2500       2.5285    -999.2500
   -999.2500    -999.2500    -999.2500    -999.2500
5237.2260
   5237.2260       8.5000    5236.6928    -999.2500       5.0368    1128.1925
   5253.8895    -999.2500       8.3346     595.2127     788.1220       5.8197
    434.2610     317.8162    6234.2154      -0.0237       2.6063    -999.2500
   -999.2500    -999.2500    -999.2500    -999.2500
5237.0736
   5237.0736       8.5000    5236.5404    -999.2500       5.0407    1130.4407
   5276.4579       8.3353       8.3353     597.1863     783.9744       5.7418
    433.5444     321.2283    6268.0444      -0.0184       2.6187    -999.2500
   -999.2500    -999.2500    -999.2500    -999.2500
5236.9212
   5236.9212       8.5000    5236.3880    -999.2500       5.0469    1127.7126
   5294.1673       8.3355       8.3355     598.4609     773.3162       5.7214
    440.9421     317.8254    6262.4569      -0.0174       2.6195    -999.2500
   -999.2500    -999.2500    -999.2500    -999.2500
5236.7688
   5236.7688       8.5000    5236.2356    -999.2500       5.0658    1120.7925
   5307.2353       8.3352       8.3352     598.7641     764.5316       5.7521
    451.7848     311.7321    6252.9900      -0.0171       2.6199    -999.2500
   -999.2500    -999.2500    -999.2500    -999.2500
5236.6164
   5236.6164       8.5000    5236.0822    -999.2500       5.0855    1115.5826
   5321.1911       8.3352       8.3352     599.8182     768.8575       5.7880
    460.9592     313.3354    6240.1179      -0.0200       2.6171    -999.2500
   -999.2500    -999.2500    -999.2500    -999.2500
5236.4640
   5236.4640       8.5000    5235.9308    -999.2500       5.0816    1114.9189
   5339.4270       8.3353       8.3353     594.4609     788.5162       5.8368
    461.4984     320.3778    6230.3259      -0.0242       2.6118    -999.2500
   -999.2500    -999.2500    -999.2500    -999.2500
5236.3116
   5236.3116       8.5000    5235.7784    -999.2500       5.0625    1109.6181
   5353.3879       8.3359       8.3359     586.5299     813.2711       5.9918
    453.4194     322.2128    6237.7939      -0.0264       2.6059    -999.2500
   -999.2500    -999.2500    -999.2500    -999.2500
5236.1592
   5236.1592       8.5000    5235.6260    -999.2500       5.0488    1092.3772
   5355.2041       8.3366       8.3366     585.0896     824.5631       6.1606
    448.1866     318.0827    6252.4033      -0.0262       2.6018    -999.2500
   -999.2500    -999.2500    -999.2500    -999.2500
5236.0068
   5236.0068       8.5000    5235.4727    -999.2500       5.0405    1072.4626
   5353.6377       8.3369       8.3369     586.9501     820.4271       6.2012
    449.4236     314.1087    6250.8447      -0.0260       2.6018    -999.2500
   -999.2500    -999.2500    -999.2500    -999.2500
5235.8544
   5235.8544       8.5000    5235.3202    -999.2500       5.0394    1058.1878
   5357.5629       8.3365       8.3365     582.7563     812.4915       6.1796
    454.9762     310.8905    6238.3287      -0.0254       2.6042    -999.2500
   -999.2500    -999.2500    -999.2500    -999.2500
5235.7020
   5235.7020       8.5000    5235.1678    -999.2500       5.0487    1053.7576
   5371.2871       8.3362       8.3362     574.0289     814.1805       6.1801
    461.5553     311.3965    6231.5690      -0.0250       2.6050    -999.2500
   -999.2500    -999.2500    -999.2500    -999.2500
5235.5496
   5235.5496       8.5000    5235.0154    -999.2500       5.0611    1067.0653
   5402.6395       8.3363       8.3363     573.6352     819.9939       6.2066
    464.4539     316.5985    6237.1413      -0.0253       2.6027    -999.2500
   -999.2500    -999.2500    -999.2500    -999.2500
5235.3972
   5235.3972       8.5000    5234.8640    -999.2500       5.0634    1098.6162
   5452.7411       8.3374       8.3374     580.8215     817.1111       6.2398
    461.0361     318.4321    6256.3901      -0.0233       2.6006    -999.2500
   -999.2500    -999.2500    -999.2500    -999.2500
5235.2448
   5235.2448       8.5000    5234.7116    -999.2500       5.0548    1131.8627
   5505.8283       8.3390       8.3390     586.0919     804.3048       6.2648
    454.9286     310.9496    6266.4819      -0.0204       2.6019    -999.2500
   -999.2500    -999.2500    -999.2500    -999.2500
5235.0924
   5235.0924       8.5000    5234.5592    -999.2500       5.0422    1156.0734
   5550.3318       8.3405       8.3405     586.9367     787.1389       6.2881
    451.7217     302.5493    6249.0957      -0.0198       2.6059    -999.2500
   -999.2500    -999.2500    -999.2500    -999.2500
5234.9400
   5234.9400       8.5000    5234.4068    -999.2500       5.0357    1178.1860
   5592.4885       8.3414       8.3414     589.6206     776.0242       6.3245
    453.6908     302.8667    6218.8991      -0.0225       2.6081    -999.2500
   -999.2500    -999.2500    -999.2500    -999.2500
5234.7876
   5234.7876       8.5000    5234.2544    -999.2500       5.0362    1201.7694
   5636.3226       8.3412       8.3412     591.8918     781.1454       6.3556
    457.7472     306.9439    6189.7307      -0.0281       2.6056    -999.2500
   -999.2500    -999.2500    -999.2500    -999.2500
5234.6352
   5234.6352       8.5000    5234.1020    -999.2500       5.0368    1224.1277
   5679.8790       8.3406       8.3406     589.6287     798.2066       6.4105
    458.5581     304.6298    6167.2537      -0.0343       2.6007    -999.2500
   -999.2500    -999.2500    -999.2500    -999.2500
