~VERSION INFORMATION
VERS.           2.0   :CWLS Log ASCII Standard - VERSION 2.0
WRAP.           NO    :One Line per depth step
PROD.  Schlumberger   :LAS Producer
PROG.  DLIS to ASCII 2.3                               :LAS Program name and version
CREA.        2023/07/14 00:15                          :LAS Creation date {YYYY/MM/DD hh:mm}
DLIS_CREA.  2023-Jul-14 00:11                          :DLIS Creation date and time {YYYY-MMM-DD hh:mm}
SOURCE.     LIS_006.dlis                               :DLIS File Name
FILE-ID.     LIS   .002                                :File Identification Number
#--------------------------------------------------
~WELL INFORMATION
#MNEM.UNIT      DATA             DESCRIPTION
#---- ------ --------------   -----------------------------
STRT .M      5238.7500       :START DEPTH     
STOP .M      5087.2644       :STOP DEPTH     
STEP .M        -0.1524       :STEP     
NULL .          -999.25      :NULL VALUE
COMP .        Petrobras S.A.                           :COMPANY
WELL .        3-SPS-41D                                :WELL
FLD  .        MEXILHOES                                :FIELD
LOC  .                                                 :LOCATION
CNTY .                                                 :COUNTY
STAT .                                                 :STATE
CTRY .                                                 :COUNTRY
API  .                                                 :API NUMBER
UWI  .                                                 :UNIQUE WELL ID
DATE .                                                 :LOG DATE
SRVC .        Schlumberger                             :SERVICE COMPANY
LATI .DEG                                              :LATITUDE
LONG .DEG                                              :LONGITUDE
GDAT .                                                 :GeoDetic Datum
#-----------------------------------------------------------------------------
~PARAMETER INFORMATION
#MNEM.UNIT    VALUE                      DESCRIPTION
#---- -----   --------------------       ------------------------
CN   .        Petrobras S.A.             :
FN   .        MEXILHOES                  :
WN   .        3-SPS-41D                  :
LCC  .               150                 :
WDFN .        /space/expusr/3-SPS-41D/i77bf06_8spf.xtf :
OCT  .        i77bf                      :
RUN  .                                   :RUN NUMBER
PDAT .                                   :Permanent Datum
EPD  .                                   :Elevation of Permanent Datum above Mean Sea Level
LMF  .                                   :Logging Measured From (Name of Logging Elevation Reference)
APD  .                                   :Elevation of Depth Reference (LMF) above Permanent Datum
#-----------------------------------------------------------------------------
~CURVE INFORMATION
#MNEM.UNIT   API CODE                                  DESCRIPTION
#---- -----  --------                                  -----------------------
DEPT .M                                                :DEPTH (BOREHOLE) {F10.4}
DEPT .M                                                : {F13.4}
BIT  .IN                                               : {F13.4}
DEPM .M                                                : {F13.4}
SPD  .M/MN                                             : {F13.4}
CNC  .PU                                               : {F13.4}
CN   .PU                                               : {F13.4}
LSN  .HZ                                               : {F13.4}
SSN  .HZ                                               : {F13.4}
#-----------------------------------------------------------------------------
# 
#     DEPT        DEPT         BIT          DEPM         SPD          CNC          CN           LSN          SSN
#
~A  
 5238.7500    5238.7256    -999.2500    -999.2500    -999.2500    -999.2500    -999.2500    -999.2500    -999.2500
 5238.5976    5238.5976       8.5000    5238.2021    -999.2500    -999.2500    -999.2500    -999.2500    -999.2500
 5238.4452    5238.4452       8.5000    5238.0497       3.8905    -999.2500    -999.2500    -999.2500    -999.2500
 5238.2928    5238.2928       8.5000    5237.8973       4.0955    -999.2500    -999.2500    -999.2500    -999.2500
 5238.1404    5238.1404       8.5000    5237.7449       4.6812    -999.2500    -999.2500    -999.2500    -999.2500
 5237.9880    5237.9880       8.5000    5237.5935       5.1726    -999.2500    -999.2500    -999.2500    -999.2500
 5237.8356    5237.8356       8.5000    5237.4411       5.2869    -999.2500    -999.2500    -999.2500    -999.2500
 5237.6832    5237.6832       8.5000    5237.2887       5.2987    -999.2500    -999.2500    -999.2500    -999.2500
 5237.5308    5237.5308       8.5000    5237.1363       5.2855    -999.2500    -999.2500    -999.2500    -999.2500
 5237.3784    5237.3784       8.5000    5236.9839       5.1100    -999.2500    -999.2500    -999.2500    -999.2500
 5237.2260    5237.2260       8.5000    5236.8315       4.8541    -999.2500    -999.2500    -999.2500    -999.2500
 5237.0736    5237.0736       8.5000    5236.6791       5.0043    -999.2500    -999.2500    -999.2500    -999.2500
 5236.9212    5236.9212       8.5000    5236.5267       5.1205    -999.2500    -999.2500    -999.2500    -999.2500
 5236.7688    5236.7688       8.5000    5236.3743       5.1084    -999.2500    -999.2500    -999.2500    -999.2500
 5236.6164    5236.6164       8.5000    5236.2219       5.1464    -999.2500    -999.2500    -999.2500    -999.2500
 5236.4640    5236.4640       8.5000    5236.0685       5.1824    -999.2500    -999.2500    -999.2500    -999.2500
 5236.3116    5236.3116       8.5000    5235.9171       5.1493    -999.2500    -999.2500    -999.2500    -999.2500
 5236.1592    5236.1592       8.5000    5235.7647       5.1075    -999.2500    -999.2500    -999.2500    -999.2500
 5236.0068    5236.0068       8.5000    5235.6123       5.1012    -999.2500    -999.2500    -999.2500    -999.2500
 5235.8544    5235.8544       8.5000    5235.4589       5.1273    -999.2500    -999.2500    -999.2500    -999.2500
 5235.7020    5235.7020       8.5000    5235.3065       5.1281    -999.2500    -999.2500    -999.2500    -999.2500
 5235.5496    5235.5496       8.5000    5235.1541       5.1057    -999.2500    -999.2500    -999.2500    -999.2500
 5235.3972    5235.3972       8.5000    5235.0027       5.1191    -999.2500    -999.2500    -999.2500    -999.2500
 5235.2448    5235.2448       8.5000    5234.8503       5.1488    -999.2500    -999.2500    -999.2500    -999.2500
 5235.0924    5235.0924       8.5000    5234.6979       5.1341    -999.2500    -999.2500    -999.2500    -999.2500
 5234.9400    5234.9400       8.5000    5234.5455       5.1434    -999.2500    -999.2500    -999.2500    -999.2500
 5234.7876    5234.7876       8.5000    5234.3931       5.1348    -999.2500    -999.2500    -999.2500    -999.2500
 5234.6352    5234.6352       8.5000    5234.2407       5.1152    -999.2500    -999.2500    -999.2500    -999.2500
 5234.4828    5234.4828       8.5000    5234.0883       5.1310    -999.2500    -999.2500    -999.2500    -999.2500
 5234.3304    5234.3304       8.5000    5233.9359       5.1233    -999.2500    -999.2500    -999.2500    -999.2500
 5234.1780    5234.1780       8.5000    5233.7835       5.1731    -999.2500    -999.2500    -999.2500    -999.2500
 5234.0256    5234.0256       8.5000    5233.6311       5.1621    -999.2500    -999.2500    -999.2500    -999.2500
 5233.8732    5233.8732       8.5000    5233.4787       5.1115    -999.2500    -999.2500    -999.2500    -999.2500
 5233.7208    5233.7208       8.5000    5233.3263       5.1229    -999.2500    -999.2500    -999.2500    -999.2500
 5233.5684    5233.5684       8.5000    5233.1739       5.1437    -999.2500    -999.2500    -999.2500    -999.2500
 5233.4160    5233.4160       8.5000    5233.0205       5.1215    -999.2500    -999.2500    -999.2500    -999.2500
 5233.2636    5233.2636       8.5000    5232.8681       5.1274    -999.2500    -999.2500    -999.2500    -999.2500
 5233.1112    5233.1112       8.5000    5232.7157       5.1028    -999.2500    -999.2500    -999.2500    -999.2500
 5232.9588    5232.9588       8.5000    5232.5633       5.1175    -999.2500    -999.2500    -999.2500    -999.2500
 5232.8064    5232.8064       8.5000    5232.4112       5.1489    -999.2500    -999.2500    -999.2500    -999.2500
 5232.6540    5232.6540       8.5000    5232.2595       5.1227    -999.2500    -999.2500    -999.2500    -999.2500
 5232.5016    5232.5016       8.5000    5232.1071       5.1012    -999.2500    -999.2500    -999.2500    -999.2500
 5232.3492    5232.3492       8.5000    5231.9547       5.0883    -999.2500    -999.2500    -999.2500    -999.2500
 5232.1968    5232.1968       8.5000    5231.8023       5.0946    -999.2500    -999.2500    -999.2500    -999.2500
 5232.0444    5232.0444       8.5000    5231.6499       5.1037    -999.2500 -971556.2658 -999999.9999 -999999.9999
 5231.8920    5231.8920       8.5000    5231.4975       5.1033      17.2821      17.3939    1341.8977    3165.3619
 5231.7396    5231.7396       8.5000    5231.3451       5.1009      17.0035      17.3539    1363.6636    3194.2166
 5231.5872    5231.5872       8.5000    5231.1927       5.0876      17.8174      18.1520    1341.0052    3211.4273
 5231.4348    5231.4348       8.5000    5231.0403       5.0381      17.6756      17.5990    1346.6945    3209.2889
 5231.2824    5231.2824       8.5000    5230.8879       5.0484      17.0443      17.3868    1368.8182    3197.3978
 5231.1300    5231.1300       8.5000    5230.7355       5.0592      16.8435      16.5943    1367.5527    3171.4732
 5230.9776    5230.9776       8.5000    5230.5821       5.0306      15.7515      16.1252    1406.1242    3157.6035
 5230.8252    5230.8252       8.5000    5230.4297       5.0017      16.6421      16.9714    1371.4551    3171.9750
 5230.6728    5230.6728       8.5000    5230.2773       5.0072      16.6119      16.6090    1376.8429    3180.7409
 5230.5204    5230.5204       8.5000    5230.1249       5.0012      16.0093      16.3622    1408.3207    3192.1942
 5230.3680    5230.3680       8.5000    5229.9725       4.9749      16.5950      16.6795    1381.4938    3183.7864
 5230.2156    5230.2156       8.5000    5229.8201       4.9484      16.1129      16.5081    1398.0456    3179.0406
 5230.0632    5230.0632       8.5000    5229.6687       4.8887      16.9918      17.2805    1365.3743    3194.4807
 5229.9108    5229.9108       8.5000    5229.5163       4.8826      16.8978      16.9571    1373.4966    3197.1559
 5229.7584    5229.7584       8.5000    5229.3639       5.0095      16.2527      16.5187    1393.1961    3174.8724
 5229.6060    5229.6060       8.5000    5229.2115       5.1132      17.0350      17.4161    1355.0287    3172.7561
 5229.4536    5229.4536       8.5000    5229.0591       5.1200      17.1988      17.4634    1355.2487    3193.2782
 5229.3012    5229.3012       8.5000    5228.9067       5.1394      17.3378      17.4263    1362.0334    3221.0492
 5229.1488    5229.1488       8.5000    5228.7543       5.0981      16.5674      16.7042    1398.7453    3226.1137
 5228.9964    5228.9964       8.5000    5228.6019       5.0580      16.8672      17.2393    1386.6836    3225.0836
 5228.8440    5228.8440       8.5000    5228.4495       5.0484      16.8436      17.0016    1378.7086    3200.7296
 5228.6916    5228.6916       8.5000    5228.2971       5.0470      17.4036      17.9442    1345.8263    3180.5573
 5228.5392    5228.5392       8.5000    5228.1437       5.0804      17.9686      18.0464    1319.8975    3177.9885
 5228.3868    5228.3868       8.5000    5227.9923       5.1143      17.2268      17.3616    1351.2811    3178.1282
 5228.2344    5228.2344       8.5000    5227.8399       5.1026      17.1283      17.3258    1349.7401    3162.5863
