~VERSION INFORMATION
VERS.           2.0   :CWLS Log ASCII Standard - VERSION 2.0
WRAP.           NO    :One Line per depth step
PROD.  Schlumberger   :LAS Producer
PROG.  DLIS to ASCII 2.3                               :LAS Program name and version
CREA.        2023/07/14 00:15                          :LAS Creation date {YYYY/MM/DD hh:mm}
DLIS_CREA.  2023-Jul-14 00:11                          :DLIS Creation date and time {YYYY-MMM-DD hh:mm}
SOURCE.     LIS_006.dlis                               :DLIS File Name
FILE-ID.     LIS   .002                                :File Identification Number
#--------------------------------------------------
~WELL INFORMATION
#MNEM.UNIT      DATA             DESCRIPTION
#---- ------ --------------   -----------------------------
STRT .M      5238.7500       :START DEPTH     
STOP .M      5087.2644       :STOP DEPTH     
STEP .M        -0.1524       :STEP     
NULL .          -999.25      :NULL VALUE
COMP .        Petrobras S.A.                           :COMPANY
WELL .        3-SPS-41D                                :WELL
FLD  .        MEXILHOES                                :FIELD
LOC  .                                                 :LOCATION
CNTY .                                                 :COUNTY
STAT .                                                 :STATE
CTRY .                                                 :COUNTRY
API  .                                                 :API NUMBER
UWI  .                                                 :UNIQUE WELL ID
DATE .                                                 :LOG DATE
SRVC .        Schlumberger                             :SERVICE COMPANY
LATI .DEG                                              :LATITUDE
LONG .DEG                                              :LONGITUDE
GDAT .                                                 :GeoDetic Datum
#-----------------------------------------------------------------------------
~PARAMETER INFORMATION
#MNEM.UNIT    VALUE                      DESCRIPTION
#---- -----   --------------------       ------------------------
CN   .        Petrobras S.A.             :
FN   .        MEXILHOES                  :
WN   .        3-SPS-41D                  :
LCC  .               150                 :
WDFN .        /space/expusr/3-SPS-41D/i77bf06_8spf.xtf :
OCT  .        i77bf                      :
RUN  .                                   :RUN NUMBER
PDAT .                                   :Permanent Datum
EPD  .                                   :Elevation of Permanent Datum above Mean Sea Level
LMF  .                                   :Logging Measured From (Name of Logging Elevation Reference)
APD  .                                   :Elevation of Depth Reference (LMF) above Permanent Datum
#-----------------------------------------------------------------------------
~CURVE INFORMATION
#MNEM.UNIT   API CODE                                  DESCRIPTION
#---- -----  --------                                  -----------------------
DEPT .M                                                :DEPTH (BOREHOLE) {F10.4}
DEPT .M                                                : {F13.4}
BIT  .IN                                               : {F13.4}
DEPM .M                                                : {F13.4}
SPD  .M/MN                                             : {F13.4}
CNC  .PU                                               : {F13.4}
CN   .PU                                               : {F13.4}
LSN  .HZ                                               : {F13.4}
SSN  .HZ                                               : {F13.4}
#-----------------------------------------------------------------------------
# 
#     DEPT        DEPT         BIT          DEPM         SPD          CNC          CN           LSN          SSN
#
~A  
# ...
 5153.4060    5153.4060       8.5000    5153.0115       5.1687      17.3390      17.1269    1371.6095    3265.2590
 5153.2536    5153.2536       8.5000    5152.8591       5.1401      16.3712      17.0484    1436.1087    3316.6762
 5153.1012    5153.1012       8.5000    5152.7067       5.1916      17.7802      18.2609    1388.0880    3333.3891
 5152.9488    5152.9488       8.5000    5152.5543       5.2577      17.3826      17.4451    1394.2183    3297.8353
 5152.7964    5152.7964       8.5000    5152.4019       5.2802      16.5032      16.7146    1415.1436    3270.9537
 5152.6440    5152.6440       8.5000    5152.2495       5.2703      15.7492      15.9872    1468.1793    3331.8387
 5152.4916    5152.4916       8.5000    5152.0971       5.2809      16.1336      16.7942    1479.8044    3384.9516
 5152.3392    5152.3392       8.5000    5151.9447       5.3122      16.7802      17.0475    1444.9448    3355.5202
 5152.1868    5152.1868       8.5000    5151.7923       5.2761      16.6282      17.1574    1432.0459    3316.7257
 5152.0344    5152.0344       8.5000    5151.6399       5.2705      17.3249      17.6821    1397.2621    3310.7617
 5151.8820    5151.8820       8.5000    5151.4875       5.2855      16.9911      17.3205    1412.4228    3317.3405
 5151.7296    5151.7296       8.5000    5151.3341       5.2640      17.2230      17.6605    1406.2670    3319.6238
 5151.5772    5151.5772       8.5000    5151.1817       5.2576      17.3217      17.6728    1389.5302    3279.9275
 5151.4248    5151.4248       8.5000    5151.0303       5.2813      17.1916      17.4691    1372.0216    3228.3338
 5151.2724    5151.2724       8.5000    5150.8788       5.3147      16.7243      16.9376    1377.1706    3197.9328
 5151.1200    5151.1200       8.5000    5150.7255       5.3073      16.0989      16.2146    1397.2764    3187.7278
 5150.9676    5150.9676       8.5000    5150.5731       5.2475      15.2245      15.5799    1442.3857    3204.5293
 5150.8152    5150.8152       8.5000    5150.4207       5.2468      15.9369      16.4140    1427.1968    3247.7764
 5150.6628    5150.6628       8.5000    5150.2683       5.2533      15.5407      15.6934    1456.9821    3267.0711
 5150.5104    5150.5104       8.5000    5150.1159       5.2618      15.4678      16.0370    1462.4765    3265.5628
 5150.3580    5150.3580       8.5000    5149.9635       5.2556      16.7904      17.5581    1400.7207    3268.1715
 5150.2056    5150.2056       8.5000    5149.8111       5.2649      17.1259      16.9645    1385.9175    3256.6201
 5150.0532    5150.0532       8.5000    5149.6587       5.2816      15.2797      15.4579    1447.4960    3201.8875
 5149.9008    5149.9008       8.5000    5149.5063       5.2917      14.7196      14.9170    1471.8924    3230.0402
 5149.7484    5149.7484       8.5000    5149.3539       5.2632      14.6987      15.2215    1543.4910    3412.4145
 5149.5960    5149.5960       8.5000    5149.2015       5.2748      15.6592      16.2781    1569.2115    3544.1039
 5149.4436    5149.4436       8.5000    5149.0491       5.2746      16.2666      16.5217    1531.3208    3481.4061
 5149.2912    5149.2912       8.5000    5148.8967       5.2633      16.0748      16.5403    1480.4014    3343.8136
 5149.1388    5149.1388       8.5000    5148.7443       5.2744      16.7695      17.3990    1410.4098    3277.4345
 5148.9864    5148.9864       8.5000    5148.5919       5.2876      17.7763      18.1140    1359.9736    3266.9267
 5148.8340    5148.8340       8.5000    5148.4395       5.3098      17.1440      17.4281    1388.2957    3276.2858
 5148.6816    5148.6816       8.5000    5148.2871       5.2830      17.0349      17.3515    1401.7729    3299.6428
 5148.5292    5148.5292       8.5000    5148.1347       5.2616      16.9873      17.3633    1412.7016    3316.8452
 5148.3768    5148.3768       8.5000    5147.9823       5.2517      16.6998      16.9397    1427.0326    3316.6984
 5148.2244    5148.2244       8.5000    5147.8299       5.2625      16.4817      16.8735    1438.9296    3329.3274
 5148.0720    5148.0720       8.5000    5147.6775       5.2707      17.1847      17.8795    1419.5768    3354.2681
 5147.9196    5147.9196       8.5000    5147.5251       5.2640      18.0474      18.4501    1382.9323    3338.8101
 5147.7672    5147.7672       8.5000    5147.3727       5.2668      18.0943      18.2636    1357.4895    3277.2628
 5147.6148    5147.6148       8.5000    5147.2203       5.3250      16.7026      16.7961    1401.8230    3260.4849
 5147.4624    5147.4624       8.5000    5147.0679       5.3166      16.8406      17.4584    1399.6454    3272.1094
 5147.3100    5147.3100       8.5000    5146.9155       5.2671      17.0496      17.2336    1393.3567    3270.3199
 5147.1576    5147.1576       8.5000    5146.7631       5.2694      16.7878      17.2244    1392.6221    3237.3873
 5147.0052    5147.0052       8.5000    5146.6107       5.2647      17.3667      18.0015    1353.0197    3207.4525
 5146.8528    5146.8528       8.5000    5146.4583       5.2832      17.9613      18.2166    1332.7142    3224.9726
 5146.7004    5146.7004       8.5000    5146.3059       5.2789      17.6773      18.1648    1348.5553    3225.1398
 5146.5480    5146.5480       8.5000    5146.1535       5.2594      18.3718      18.8635    1304.0745    3170.8303
 5146.3956    5146.3956       8.5000    5146.0011       5.3052      18.2177      18.4271    1284.6667    3114.0210
 5146.2432    5146.2432       8.5000    5145.8477       5.2791      17.9006      18.2776    1278.3071    3072.2104
 5146.0908    5146.0908       8.5000    5145.6963       5.2683      17.7169      17.8751    1270.6474    3039.3645
 5145.9384    5145.9384       8.5000    5145.5439       5.2688      17.2583      17.8621    1280.8866    3032.3272
 5145.7860    5145.7860       8.5000    5145.3915       5.2721      18.2548      18.4932    1257.7421    3078.9986
 5145.6336    5145.6336       8.5000    5145.2391       5.2614      17.0286      17.0648    1330.7048    3135.8551
 5145.4812    5145.4812       8.5000    5145.0867       5.2653      16.4602      16.8699    1366.2692    3156.3357
 5145.3288    5145.3288       8.5000    5144.9343       5.2780      16.3119      16.5236    1378.6755    3168.1282
 5145.1764    5145.1764       8.5000    5144.7819       5.3418      15.8479      16.1715    1395.4833    3148.8858
 5145.0240    5145.0240       8.5000    5144.6295       5.3068      16.2042      16.6751    1359.7793    3102.1017
 5144.8716    5144.8716       8.5000    5144.4771       5.2729      16.0548      16.3219    1354.4037    3087.2379
 5144.7192    5144.7192       8.5000    5144.3247       5.2250      16.1627      16.6549    1358.3079    3113.8227
 5144.5668    5144.5668       8.5000    5144.1723       5.2453      17.0381      17.6808    1338.2059    3155.3883
 5144.4144    5144.4144       8.5000    5144.0199       5.2857      17.7286      18.0954    1327.6104    3196.4410
 5144.2620    5144.2620       8.5000    5143.8675       5.2745      17.2160      17.2926    1375.6562    3275.5412
 5144.1096    5144.1096       8.5000    5143.7151       5.3116      16.1015      16.3099    1479.3678    3409.9468
 5143.9572    5143.9572       8.5000    5143.5627       5.3193      16.3141      16.8822    1507.3975    3455.7310
 5143.8048    5143.8048       8.5000    5143.4093       5.2729      16.3107      16.4917    1471.4665    3346.7824
 5143.6524    5143.6524       8.5000    5143.2569       5.2844      16.5415      17.2962    1408.5874    3239.1678
 5143.5000    5143.5000       8.5000    5143.1058       5.2713      17.8042      18.2169    1332.7358    3196.2262
 5143.3476    5143.3476       8.5000    5142.9540       5.2633      17.4106      17.7627    1334.1488    3165.6325
 5143.1952    5143.1952       8.5000    5142.8007       5.2650      18.4751      19.3307    1295.3939    3184.0628
 5143.0428    5143.0428       8.5000    5142.6483       5.2727      19.2847      19.5835    1277.9434    3209.7133
 5142.8904    5142.8904       8.5000    5142.4959       5.3145      19.1417      19.4134    1287.4054    3215.4278
