~VERSION INFORMATION
VERS.           2.0   :CWLS Log ASCII Standard - VERSION 2.0
WRAP.           NO    :One Line per depth step
PROD.  Schlumberger   :LAS Producer
PROG.  DLIS to ASCII 2.3                               :LAS Program name and version
CREA.        2023/07/14 00:15                          :LAS Creation date {YYYY/MM/DD hh:mm}
DLIS_CREA.  2023-Jul-14 00:11                          :DLIS Creation date and time {YYYY-MMM-DD hh:mm}
SOURCE.     LIS_006.dlis                               :DLIS File Name
FILE-ID.     LIS   .002                                :File Identification Number
#--------------------------------------------------
~WELL INFORMATION
#MNEM.UNIT      DATA             DESCRIPTION
#---- ------ --------------   -----------------------------
STRT .M      5238.7500       :START DEPTH     
STOP .M      5087.2644       :STOP DEPTH     
STEP .M        -0.1524       :STEP     
NULL .          -999.25      :NULL VALUE
COMP .        Petrobras S.A.                           :COMPANY
WELL .        3-SPS-41D                                :WELL
FLD  .        MEXILHOES                                :FIELD
LOC  .                                                 :LOCATION
CNTY .                                                 :COUNTY
STAT .                                                 :STATE
CTRY .                                                 :COUNTRY
API  .                                                 :API NUMBER
UWI  .                                                 :UNIQUE WELL ID
DATE .                                                 :LOG DATE
SRVC .        Schlumberger                             :SERVICE COMPANY
LATI .DEG                                              :LATITUDE
LONG .DEG                                              :LONGITUDE
GDAT .                                                 :GeoDetic Datum
#-----------------------------------------------------------------------------
~PARAMETER INFORMATION
#MNEM.UNIT    VALUE                      DESCRIPTION
#---- -----   --------------------       ------------------------
CN   .        Petrobras S.A.             :
FN   .        MEXILHOES                  :
WN   .        3-SPS-41D                  :
LCC  .               150                 :
WDFN .        /space/expusr/3-SPS-41D/i77bf06_8spf.xtf :
OCT  .        i77bf                      :
RUN  .                                   :RUN NUMBER
PDAT .                                   :Permanent Datum
EPD  .                                   :Elevation of Permanent Datum above Mean Sea Level
LMF  .                                   :Logging Measured From (Name of Logging Elevation Reference)
APD  .                                   :Elevation of Depth Reference (LMF) above Permanent Datum
#-----------------------------------------------------------------------------
~CURVE INFORMATION
#MNEM.UNIT   API CODE                                  DESCRIPTION
#---- -----  --------                                  -----------------------
DEPT .M                                                :DEPTH (BOREHOLE) {F10.4}
DEPT .M                                                : {F13.4}
BIT  .IN                                               : {F13.4}
DEPM .M                                                : {F13.4}
SPD  .M/MN                                             : {F13.4}
CNC  .PU                                               : {F13.4}
CN   .PU                                               : {F13.4}
LSN  .HZ                                               : {F13.4}
SSN  .HZ                                               : {F13.4}
#-----------------------------------------------------------------------------
# 
#     DEPT        DEPT         BIT          DEPM         SPD          CNC          CN           LSN          SSN
#
~A  
# ...
 5206.7460    5206.7460       8.5000    5206.3508       5.2443      10.9632      11.1194    2052.0962    3870.0284
 5206.5936    5206.5936       8.5000    5206.1981       5.2602      10.7329      10.8624    2076.7034    3875.6713
 5206.4412    5206.4412       8.5000    5206.0467       5.3000      10.4780      10.7536    2126.0679    3946.2515
 5206.2888    5206.2888       8.5000    5205.8943       5.2637      10.8572      11.1613    2156.3654    4071.5524
 5206.1364    5206.1364       8.5000    5205.7419       5.2259      10.7758      10.8583    2202.8047    4116.1689
 5205.9840    5205.9840       8.5000    5205.5895       5.2343      10.2323      10.4324    2249.6384    4097.7580
 5205.8316    5205.8316       8.5000    5205.4371       5.2553      10.5337      10.9222    2209.5674    4086.3534
 5205.6792    5205.6792       8.5000    5205.2847       5.2648      10.9374      11.1831    2173.4079    4085.0050
 5205.5268    5205.5268       8.5000    5205.1323       5.2524      10.6917      10.7428    2178.4795    4041.4511
 5205.3744    5205.3744       8.5000    5204.9799       5.2481       9.8944       9.9362    2220.6473    3975.7480
 5205.2220    5205.2220       8.5000    5204.8275       5.2960       9.5377       9.8540    2235.2611    3953.5213
 5205.0696    5205.0696       8.5000    5204.6751       5.2685       9.8931      10.1581    2210.9982    3982.4591
 5204.9172    5204.9172       8.5000    5204.5227       5.2307      10.1362      10.3721    2207.5581    4017.9792
 5204.7648    5204.7648       8.5000    5204.3703       5.2406       9.7374       9.8780    2263.4989    4053.7783
 5204.6124    5204.6124       8.5000    5204.2179       5.2466      10.0182      10.2775    2304.3783    4223.1915
 5204.4600    5204.4600       8.5000    5204.0655       5.2443       9.3009       9.1568    2529.6493    4474.3943
 5204.3076    5204.3076       8.5000    5203.9131       5.2554       8.4374       8.7039    2688.5374    4476.9735
 5204.1552    5204.1552       8.5000    5203.7597       5.2549       9.2340       9.7260    2467.4595    4236.3758
 5204.0028    5204.0028       8.5000    5203.6073       5.2723       9.9980      10.3137    2273.3838    4084.5224
 5203.8504    5203.8504       8.5000    5203.4559       5.2449      10.4687      10.8210    2207.6777    4066.9790
 5203.6980    5203.6980       8.5000    5203.3035       5.2307      10.6692      10.8875    2173.9614    4031.6223
 5203.5456    5203.5456       8.5000    5203.1511       5.2486      10.8360      11.1214    2136.8086    3994.3576
 5203.3932    5203.3932       8.5000    5202.9987       5.2506      10.7743      10.9497    2129.8948    3976.7236
 5203.2408    5203.2408       8.5000    5202.8463       5.2466      10.5706      10.7579    2139.8562    3954.3581
 5203.0884    5203.0884       8.5000    5202.6939       5.2449      10.4946      10.7569    2130.5528    3927.0078
 5202.9360    5202.9360       8.5000    5202.5415       5.2602      10.6720      10.9444    2101.1292    3901.5018
 5202.7836    5202.7836       8.5000    5202.3891       5.2762      10.7897      11.0647    2081.0911    3892.0758
 5202.6312    5202.6312       8.5000    5202.2367       5.2593      10.7867      10.9432    2088.6416    3908.4407
 5202.4788    5202.4788       8.5000    5202.0843       5.2497      10.6167      10.8387    2114.5111    3926.2420
 5202.3264    5202.3264       8.5000    5201.9319       5.2509      10.5946      10.8802    2115.3055    3918.5652
 5202.1740    5202.1740       8.5000    5201.7795       5.2587      10.7924      11.0647    2099.1129    3926.6218
 5202.0216    5202.0216       8.5000    5201.6271       5.2586      11.2712      11.6809    2058.6372    3927.4553
 5201.8692    5201.8692       8.5000    5201.4747       5.2680      11.5607      11.7892    2032.3952    3921.6396
 5201.7168    5201.7168       8.5000    5201.3213       5.2752      11.4521      11.6418    2045.7860    3947.6033
 5201.5644    5201.5644       8.5000    5201.1689       5.2737      11.1738      11.1668    2120.2762    4061.1186
 5201.4120    5201.4120       8.5000    5201.0165       5.2552       9.4902       9.1486    2359.7050    4194.7650
 5201.2596    5201.2596       8.5000    5200.8651       5.2458       7.8000       7.8380    2629.8356    4290.1618
 5201.1072    5201.1072       8.5000    5200.7127       5.2555       7.7707       8.0885    2684.5789    4383.0327
 5200.9548    5200.9548       8.5000    5200.5603       5.2525       8.0283       8.1783    2719.4636    4494.8925
 5200.8024    5200.8024       8.5000    5200.4079       5.2445       7.7548       7.8650    2796.4963    4521.5379
 5200.6500    5200.6500       8.5000    5200.2555       5.2562       7.5850       7.9368    2741.7333    4351.4337
 5200.4976    5200.4976       8.5000    5200.1031       5.3058       8.5743       8.9672    2482.4678    4147.9956
 5200.3452    5200.3452       8.5000    5199.9507       5.2909       8.5032       8.5012    2411.2451    4047.0553
 5200.1928    5200.1928       8.5000    5199.7983       5.2528       7.9301       8.1863    2470.1760    4051.0526
 5200.0404    5200.0404       8.5000    5199.6459       5.2407       8.4621       8.8012    2460.1861    4183.3239
 5199.8880    5199.8880       8.5000    5199.4935       5.2378       8.1986       8.1404    2619.9519    4394.9386
 5199.7356    5199.7356       8.5000    5199.3411       5.2612       7.4074       7.5641    2817.8537    4498.8642
 5199.5832    5199.5832       8.5000    5199.1887       5.2577       7.5585       7.9350    2789.8180    4465.9762
 5199.4308    5199.4308       8.5000    5199.0363       5.2604       8.1067       8.3994    2678.8944    4408.3141
 5199.2784    5199.2784       8.5000    5198.8829       5.2598       8.6538       9.0899    2571.3029    4350.8844
 5199.1260    5199.1260       8.5000    5198.7305       5.2695       9.1381       9.3463    2484.3484    4301.3206
 5198.9736    5198.9736       8.5000    5198.5781       5.2656       8.9636       9.1170    2480.6746    4268.7281
 5198.8212    5198.8212       8.5000    5198.4267       5.2722       8.5953       8.7584    2528.9048    4290.8394
 5198.6688    5198.6688       8.5000    5198.2736       5.2587       8.6658       8.9739    2552.9242    4340.1689
 5198.5164    5198.5164       8.5000    5198.1219       5.2631       8.9650       9.3017    2504.3238    4293.6796
 5198.3640    5198.3640       8.5000    5197.9695       5.2598       9.5334       9.9990    2376.7218    4169.9640
 5198.2116    5198.2116       8.5000    5197.8171       5.2679      10.6206      11.1498    2195.2086    4053.0207
 5198.0592    5198.0592       8.5000    5197.6647       5.3143      11.4475      11.7706    2082.6276    3998.8228
 5197.9068    5197.9068       8.5000    5197.5123       5.2841      11.4224      11.7360    2069.6368    3958.4817
 5197.7544    5197.7544       8.5000    5197.3599       5.2582      12.2593      13.0347    1924.7799    3749.8714
 5197.6020    5197.6020       8.5000    5197.2075       5.2582      14.8692      15.7445    1584.6163    3368.3457
 5197.4496    5197.4496       8.5000    5197.0551       5.2647      15.0055      14.7593    1429.8176    3108.8460
 5197.2972    5197.2972       8.5000    5196.9027       5.2724      13.2670      13.1912    1533.6677    3233.4709
 5197.1448    5197.1448       8.5000    5196.7503       5.2556      10.9141      10.2899    1858.0110    3583.1913
 5196.9924    5196.9924       8.5000    5196.5979       5.2302       7.9289       7.7188    2328.5162    3862.7216
 5196.8400    5196.8400       8.5000    5196.4455       5.2573       7.1010       7.3596    2541.0787    4028.0980
 5196.6876    5196.6876       8.5000    5196.2931       5.2323       7.5166       7.8241    2632.0062    4281.2076
 5196.5352    5196.5352       8.5000    5196.1407       5.2019       8.1121       8.7583    2645.2870    4340.2385
 5196.3828    5196.3828       8.5000    5195.9883       5.2174      10.9310      12.1472    2157.7743    3924.5695
 5196.2304    5196.2304       8.5000    5195.8349       5.2313      14.0318      14.8285    1681.7296    3497.6061
