~VERSION INFORMATION
VERS.           2.0   :CWLS Log ASCII Standard - VERSION 2.0
WRAP.           NO    :One Line per depth step
PROD.  Schlumberger   :LAS Producer
PROG.  DLIS to ASCII 2.3                               :LAS Program name and version
CREA.        2023/07/14 00:15                          :LAS Creation date {YYYY/MM/DD hh:mm}
DLIS_CREA.  2023-Jul-14 00:11                          :DLIS Creation date and time {YYYY-MMM-DD hh:mm}
SOURCE.     LIS_011.dlis                               :DLIS File Name
FILE-ID.     LIS   .004                                :File Identification Number
#--------------------------------------------------
~WELL INFORMATION
#MNEM.UNIT      DATA             DESCRIPTION
#---- ------ --------------   -----------------------------
STRT .M      5300.3196       :START DEPTH     
STOP .M      4931.0544       :STOP DEPTH     
STEP .M        -0.1524       :STEP     
NULL .          -999.25      :NULL VALUE
COMP .        PETROBRAS S.A.                           :COMPANY
WELL .        3-BRSA-293D-SPS                          :WELL
FLD  .        BS-400                                   :FIELD
LOC  .        BASE SAD 69:                             :LOCATION
CNTY .        SANTOS                                   :COUNTY
STAT .        BRASIL                                   :STATE
CTRY .        BRASIL                                   :COUNTRY
API  .                                                 :API NUMBER
UWI  .                                                 :UNIQUE WELL ID
DATE .        15/11/2004                               :LOG DATE
SRVC .        Schlumberger                             :SERVICE COMPANY
LATI .DEG                                              :LATITUDE
LONG .DEG                                              :LONGITUDE
GDAT .                                                 :GeoDetic Datum
#-----------------------------------------------------------------------------
~PARAMETER INFORMATION
#MNEM.UNIT    VALUE                      DESCRIPTION
#---- -----   --------------------       ------------------------
APD  .M               24                 :
BHT  .DEGF           260                 :
BLI  .M             5289                 :
BS   .IN         8.50000                 :
CN   .        PETROBRAS S.A.             :
COUN .        SANTOS                     :
CS   .IN         9.62500                 :
DATE .        15/11/2004                 :
DFD  .LB/G      12.30000                 :
DFL  .C3               2                 :
DFPH .        N/A                        :
DFT  .        SINTETICO                  :
DFV  .S               95                 :
DMF  .        MESA ROTATIVA              :
EDF  .M               24                 :
EGL  .M             -500                 :
EKB  .        N/A                        :
ENGI .        HERNANDEZ / LOCK           :
FL1  .        X   7292392.00 M LAT 24 28 47.189 S :
FL2  .        Y    584087.00 M LON 44 10 12.698 W :
FL3  .        MC  45 GRAUS               :
FN   .        BS-400                     :
LMF  .        MESA ROTATIVA              :
LUL  .        MACAE                      :
MCSS .        PRENSA                     :
MCST .DEGF            80                 :
MFSS .        PRENSA                     :
MFST .DEGF            80                 :
MSS  .        LINHA DE FLUXO             :
MST  .DEGF            80                 :
PDAT .        NIVEL DO MAR               :
R1   .        01. APRESENTAÇÃO DE ACORDO COM REQUERIMENTO DO CLIENTE :
R2   .        02. TEMPERATURA MÁXIMA DO POÇO T1=T2= 290 DEGF @  5275 M :
R3   .        03. INICIO DA CIRCULAÇÃO  12/11/2004 09 00 H :
R4   .        04. FINAL DA CIRCULAÇÃO   12/11/2004 18 00 H :
R5   .        05. TEMPO TOTAL DE CIRCULAÇÃO   09 00 H :
R6   .        06. FLUIDO DE PERFURAÇÃO  SINTETICO (BR-MUL  BR-MI)  60% TEOR DO OLEO :
R7   .        07. SALINIDADE DA LAMA  254762 PPM NACL NA FASE DE AGUA :
R8   .        08. INCLINAÇÃO MÁXIMA DO POÇO  37.37 GRAUS @ 5100 M :
R9   .        09. PRIMEIRAS E ULTIMAS LEITURAS  :
RMB  .OHMM    > 10                       :
RMCS .OHMM    > 10                       :
RMFS .OHMM    > 10                       :
RMS  .OHMM    >10                        :
RUN  .                 2                 :
STAT .        BRASIL                     :
TCS  .        18 00 H                    :
TDD  .M             5288                 :
TDL  .M             5293                 :
TLAB .        N/A                        :
TLI  .M             5000                 :
WITN .        ERNANI / ZE MARIA          :
WN   .        3-BRSA-293D-SPS            :
LUN  .              8808                 :
HIDE .        3-SPS-41D                  :
HID2 .        HIGH DEFINITION INDUCTION LOG :
HID3 .        X-MULTIPOLE ARRAY ACOUSTILOG :
HID4 .        GAMMA RAY LOG              :
HID5 .        TTRM SUB                   :
CLAB .        BACIA                      :
SLAB .        PAIS                       :
CMT1 .        ESC  1 200                 :
CMT2 .        PROF. MEDIDA               :
CMT4 .        SONDA  SS-43               :
HDAT .        SAD 69                     :
FL   .        BASE SAD 69                :
OS1  .        RCI/GR                     :
OS2  .        CHECK SHOT                 :
OS3  .        GR/CN/ZDL                  :
OS5  .        RCOR/GR                    :
LNAM .        ZDL/CN/XMAC/HDIL/EARTH IMAGER/RCI/RCOR/CHECK SHOT/GR :
TOOL .        ZDL/CN/XMAC/HDIL/EARTH IMAGER/RCI/RCOR/CHECK SHOT/GR :
LSOU .        PETROBRAS                  :
LSRV .        OH WIRELINE                :
LTYP .        RAW                        :
EPD  .M                0                 :
LDAT .        15/11/2004                 :
TRIP .                 3                 :
SON  .            786588                 :
CBDR .M             4277                 :
CBLO .        NR                         :
CBL1 .        NR                         :
STEM .DEGF    N/A                        :
BSAL .            254762                 :
BARI .        OFF                        :
DLAB .        12/11/2004                 :
MRT  .DEGF           290                 :
TSTR .        HDIL/XMAC/GR/TTRM          :
TSTG .        N/A                        :
STUS .        FINAL                      :
LCNM .        BAKER ATLAS                :
LCC  .               150                 :
NATI .        BRASIL                     :
OPMD .        OH.WIRELINE                :
PANA .        HERNANDEZ / LOCK           :
PCON .        BAKER ATLAS                :
R11  .        SL     5268.3 M / 5000.0 M :
R12  .        GR     5268.3 M / 5000.0 M :
R13  .        XMAC   5279.5 M / 5000.0 M :
R14  .        HDIL   5289.0 M / 5000.0 M :
R17  .        11. DECLINAÇÃO MAGNETICA  -20.9 GRAUS :
R18  .        12. COORDENADAS BASE       :
R21  .        Y    583936.00 M           :
R22  .        MC  45 GRAUS               :
PVER .           4.10000                 :
WDFN .        /space/expusr/3-SPS-41D_RUN2/i77bf02_4spf.xtf :
OCT  .        i77bf                      :
OS4  .        EARTH IMAGER               :
R16  .        10. PONTO FRACO UTILIZADO  10K :
R20  .        X   7292512.00 M           :
R24  .        13. CADASTRO ANP  86316021017 :
#-----------------------------------------------------------------------------
~CURVE INFORMATION
#MNEM.UNIT   API CODE                                  DESCRIPTION
#---- -----  --------                                  -----------------------
DEPT .M                                                :DEPTH (BOREHOLE) {F10.4}
DEPT .M                                                : {F13.4}
BIT  .IN                                               : {F13.4}
GR   .GAPI                                             : {F13.4}
M2R1 .OHMM                                             : {F13.4}
M2R2 .OHMM                                             : {F13.4}
M2R3 .OHMM                                             : {F13.4}
M2R6 .OHMM                                             : {F13.4}
M2R9 .OHMM                                             : {F13.4}
M2RX .OHMM                                             : {F13.4}
SPD  .M/MN                                             : {F13.4}
TEN  .LBF                                              : {F13.4}
TTEN .LBF                                              : {F13.4}
#-----------------------------------------------------------------------------
# 
#     DEPT        DEPT         BIT          GR           M2R1         M2R2         M2R3         M2R6         M2R9         M2RX         SPD          TEN          TTEN
#
~A  
# ...
 5183.2764    5183.2764       8.5000      63.2478       1.3185       1.6621       1.8196       1.8418       1.8366       1.8295       4.9664     -14.5213    7532.3428
 5183.1240    5183.1240       8.5000      63.1919       1.3432       1.6979       1.8623       1.8863       1.8832       1.8778       4.9707     -52.9185    7493.1123
 5182.9716    5182.9716       8.5000      62.9417       1.3746       1.7508       1.9244       1.9506       1.9493       1.9457       4.9631     -80.0964    7464.5596
 5182.8192    5182.8192       8.5000      63.6007       1.3845       1.7774       1.9566       1.9842       1.9845       1.9827       4.9525     -94.5339    7448.4649
 5182.6668    5182.6668       8.5000      64.7917       1.3583       1.7502       1.9268       1.9541       1.9556       1.9559       4.9448     -90.7612    7450.5607
 5182.5144    5182.5144       8.5000      64.9051       1.3175       1.6945       1.8620       1.8879       1.8905       1.8930       4.9438     -78.0243    7461.7850
 5182.3620    5182.3620       8.5000      63.8159       1.3029       1.6663       1.8250       1.8496       1.8531       1.8580       4.9470     -82.0677    7456.2845
 5182.2096    5182.2096       8.5000      62.9147       1.3424       1.7041       1.8594       1.8837       1.8886       1.8963       4.9459    -105.0270    7431.5715
 5182.0572    5182.0572       8.5000      63.5977       1.4380       1.8108       1.9693       1.9951       2.0021       2.0137       4.9466    -115.5340    7419.0708
 5181.9048    5181.9048       8.5000      65.9591       1.5522       1.9369       2.1025       2.1322       2.1420       2.1590       4.9592    -107.7248    7425.0152
 5181.7524    5181.7524       8.5000      68.7462       1.6301       2.0117       2.1834       2.2188       2.2322       2.2555       4.9746    -103.3537    7427.6478
 5181.6000    5181.6000       8.5000      70.0088       1.6755       2.0424       2.2216       2.2653       2.2826       2.3131       4.9797    -103.2239    7425.9821
 5181.4476    5181.4476       8.5000      69.1876       1.7586       2.1209       2.3190       2.3755       2.3973       2.4370       4.9729     -88.2204    7439.2969
 5181.2952    5181.2952       8.5000      67.4784       1.9077       2.2917       2.5274       2.6032       2.6306       2.6826       4.9630     -66.5029    7459.6882
 5181.1428    5181.1428       8.5000      66.6522       2.0506       2.4818       2.7691       2.8685       2.9008       2.9669       4.9624     -59.7268    7465.3765
 5180.9904    5180.9904       8.5000      66.9196       2.0947       2.5847       2.9226       3.0441       3.0778       3.1557       4.9678     -62.5858    7461.4034
 5180.8380    5180.8380       8.5000      67.7639       2.0614       2.6094       2.9886       3.1272       3.1575       3.2427       4.9739     -57.3787    7465.5076
 5180.6856    5180.6855       8.5000      67.7102       2.0327       2.6281       3.0406       3.1920       3.2139       3.3021       4.9819     -47.0279    7474.9346
 5180.5332    5180.5332       8.5000      66.0652       2.0222       2.6364       3.0715       3.2311       3.2402       3.3258       4.9874     -50.4031    7470.7061
 5180.3808    5180.3809       8.5000      64.8022       2.0052       2.6048       3.0500       3.2120       3.2044       3.2816       4.9861     -69.3334    7450.6758
 5180.2284    5180.2284       8.5000      66.6889       2.0126       2.6041       3.0652       3.2300       3.2045       3.2698       4.9984     -88.1542    7430.4314
 5180.0760    5180.0760       8.5000      72.0876       2.1036       2.7515       3.2612       3.4386       3.3945       3.4465       5.0394     -87.7453    7429.3556
 5179.9236    5179.9236       8.5000      77.0635       2.2086       2.9800       3.5597       3.7548       3.6924       3.7250       5.0565     -67.1515    7448.7432
 5179.7712    5179.7712       8.5000      76.4942       2.0996       2.9502       3.5488       3.7436       3.6739       3.6799       5.0188     -57.2734    7457.6695
 5179.6188    5179.6188       8.5000      70.7900       1.7753       2.5727       3.1054       3.2738       3.2123       3.1937       4.9736     -75.3456    7438.5080
 5179.4664    5179.4664       8.5000      66.3553       1.4817       2.1694       2.6130       2.7491       2.7012       2.6666       4.9658     -99.2229    7413.1220
 5179.3140    5179.3140       8.5000      66.3193       1.3513       1.9726       2.3592       2.4738       2.4368       2.3902       4.9745    -101.5129    7409.0737
 5179.1616    5179.1616       8.5000      68.5606       1.3712       1.9895       2.3561       2.4595       2.4299       2.3703       4.9827     -80.7129    7428.3250
 5179.0092    5179.0092       8.5000      70.6470       1.4610       2.1147       2.4783       2.5743       2.5509       2.4773       4.9873     -51.0451    7456.9490
 5178.8568    5178.8568       8.5000      72.0470       1.4721       2.1311       2.4750       2.5591       2.5425       2.4620       4.9877     -35.7345    7471.6271
 5178.7044    5178.7044       8.5000      71.8569       1.3809       1.9945       2.2981       2.3671       2.3568       2.2786       4.9834     -45.4618    7461.2227
 5178.5520    5178.5520       8.5000      70.1731       1.3411       1.9205       2.1995       2.2620       2.2572       2.1816       4.9752     -62.6298    7443.0252
 5178.3996    5178.3996       8.5000      69.9702       1.4525       2.0388       2.3221       2.3896       2.3904       2.3126       4.9672     -67.5749    7436.8188
 5178.2472    5178.2472       8.5000      72.9737       1.7153       2.3275       2.6384       2.7244       2.7342       2.6537       4.9620     -58.4060    7444.7958
 5178.0948    5178.0948       8.5000      76.4119       2.0507       2.6659       3.0145       3.1343       3.1602       3.0871       4.9632     -42.4876    7459.7802
 5177.9424    5177.9424       8.5000      76.8044       2.3980       2.9935       3.3880       3.5587       3.6103       3.5621       4.9732     -25.7986    7475.8975
 5177.7900    5177.7900       8.5000      73.9156       2.7590       3.3462       3.8065       4.0507       4.1424       4.1455       4.9819     -20.1916    7481.2402
 5177.6376    5177.6376       8.5000      71.1935       3.0847       3.6714       4.2092       4.5501       4.6980       4.7840       4.9819     -29.5238    7471.6354
 5177.4852    5177.4852       8.5000      71.6530       3.3110       3.8759       4.4812       4.9266       5.1417       5.3382       4.9773     -44.6283    7455.9351
 5177.3328    5177.3328       8.5000      73.1904       3.5617       4.0898       4.7568       5.3142       5.6059       5.9386       4.9702     -49.9980    7449.6926
 5177.1804    5177.1804       8.5000      72.0679       4.0658       4.5713       5.3275       6.0347       6.4277       6.9440       4.9614     -36.6111    7462.2836
 5177.0280    5177.0280       8.5000      68.8788       4.8830       5.3726       6.2443       7.1441       7.6625       8.4235       4.9576      -8.8157    7489.6916
 5176.8756    5176.8756       8.5000      67.2358       5.5818       6.0253       6.9643       8.0177       8.6306       9.6198       4.9596      10.8450    7509.3885
 5176.7232    5176.7232       8.5000      70.4121       5.6100       5.9995       6.8988       7.9715       8.5823       9.6576       4.9666      10.5283    7509.2673
 5176.5708    5176.5708       8.5000      78.3962       5.2360       5.6267       6.4573       7.4768       8.0250       9.0696       4.9753      -1.1257    7497.6957
 5176.4184    5176.4184       8.5000      87.0821       5.0201       5.5037       6.3371       7.3463       7.8391       8.8513       4.9789      -7.1729    7491.5772
 5176.2660    5176.2660       8.5000      91.3269       5.0700       5.7489       6.6807       7.7558       8.2196       9.2314       4.9785      -5.4995    7493.1560
 5176.1136    5176.1136       8.5000      89.5089       5.2320       6.2179       7.3217       8.5080       8.9520       9.9649       4.9760     -13.2214    7485.2883
