~VERSION INFORMATION
VERS.           2.0   :CWLS Log ASCII Standard - VERSION 2.0
WRAP.           NO    :One Line per depth step
PROD.  Schlumberger   :LAS Producer
PROG.  DLIS to ASCII 2.3                               :LAS Program name and version
CREA.        2023/07/14 00:15                          :LAS Creation date {YYYY/MM/DD hh:mm}
DLIS_CREA.  2023-Jul-14 00:11                          :DLIS Creation date and time {YYYY-MMM-DD hh:mm}
SOURCE.     LIS_001.dlis                               :DLIS File Name
FILE-ID.     LIS   .001                                :File Identification Number
#--------------------------------------------------
~WELL INFORMATION
#MNEM.UNIT      DATA             DESCRIPTION
#---- ------ --------------   -----------------------------
STRT .M      5244.5412       :START DEPTH     
STOP .M      5059.0704       :STOP DEPTH     
STEP .M        -0.1524       :STEP     
NULL .          -999.25      :NULL VALUE
COMP .        PETROBRAS S.A.                           :COMPANY
WELL .        3-BRSA-293D-SPS                          :WELL
FLD  .        BS-400                                   :FIELD
LOC  .        BASE SAD 69:                             :LOCATION
CNTY .        SANTOS                                   :COUNTY
STAT .        BRASIL                                   :STATE
CTRY .        BRASIL                                   :COUNTRY
API  .                                                 :API NUMBER
UWI  .                                                 :UNIQUE WELL ID
DATE .        22/10/2004                               :LOG DATE
SRVC .        Schlumberger                             :SERVICE COMPANY
LATI .DEG                                              :LATITUDE
LONG .DEG                                              :LONGITUDE
GDAT .                                                 :GeoDetic Datum
#-----------------------------------------------------------------------------
~PARAMETER INFORMATION
#MNEM.UNIT    VALUE                      DESCRIPTION
#---- -----   --------------------       ------------------------
APD  .M               24                 :
BHT  .DEGF           260                 :
BLI  .M       5227.50000                 :
BS   .IN         8.50000                 :
CN   .        PETROBRAS S.A.             :
COUN .        SANTOS                     :
CS   .IN         9.62500                 :
DATE .        22/10/2004                 :
DFD  .LB/G      12.30000                 :
DFL  .C3               2                 :
DFPH .        N/A                        :
DFT  .        SINTETICO                  :
DFV  .S               87                 :
DMF  .        MESA ROTATIVA              :
EDF  .M               24                 :
EGL  .M             -500                 :
EKB  .        N/A                        :
ENGI .        HERNANDEZ/LOCK             :
FL1  .        X   7292392.00 M LAT 24 28 47.189 S :
FL2  .        Y    584087.00 M LON 44 10 12.698 W :
FL3  .        MC  45 GRAUS               :
FN   .        BS-400                     :
LMF  .        MESA ROTATIVA              :
LUL  .        MACAE                      :
MCSS .        PRENSA                     :
MCST .DEGF            80                 :
MFSS .        PRENSA                     :
MFST .DEGF            80                 :
MSS  .        LINHA DE FLUXO             :
MST  .DEGF            80                 :
PDAT .        NIVEL DO MAR               :
R1   .        01. APRESENTAÇÃO DE ACORDO COM REQUERIMENTO DO CLIENTE :
R2   .        02. TEMPERATURA MÁXIMA DO POÇO T1=T2= 260 DEGF @  5180 M :
R3   .        03. INICIO DA CIRCULAÇÃO  13 45 H 21/10/2004 :
R4   .        04. FINAL DA CIRCULAÇÃO   16 00 H 21/10/2004 :
R5   .        05. TEMPO TOTAL DE CIRCULAÇÃO  02 15 H :
R6   .        06. FLUIDO DE PERFURAÇÃO  SINTETICO (BR-MUL  BR-MI)  65% TEOR DO OLEO :
R7   .        07. SALINIDADE DA LAMA  266377 PPM NACL NA FASE DE AGUA :
R8   .        08. INCLINAÇÃO MÁXIMA DO POÇO  37.37 GRAUS @ 5100 M :
R9   .        09. PRIMEIRAS E ULTIMAS LEITURAS  :
RMB  .OHMM    > 10                       :
RMCS .OHMM    > 10                       :
RMFS .OHMM    > 10                       :
RMS  .OHMM    > 10                       :
RUN  .                 1                 :
STAT .        BRASIL                     :
TCS  .        16 00 H                    :
TDD  .M             5230                 :
TDL  .M             5231                 :
TLAB .        N/A                        :
TLI  .M             3850                 :
WITN .        ALCIDIO/VLADIMIR           :
WN   .        3-BRSA-293D-SPS            :
LUN  .              8808                 :
HIDE .        3-SPS-41D                  :
HID2 .        HIGH DEFINITION INDUCTION LOG :
HID3 .        X-MULTIPOLE ARRAY ACOUSTILOG :
HID4 .        GAMMA RAY LOG              :
HID5 .        TTRM SUB                   :
CLAB .        BACIA                      :
SLAB .        PAIS                       :
CMT1 .        ESC  1 1000                :
CMT2 .        PROF. MEDIDA               :
CMT4 .        SONDA  SS-43               :
HDAT .        SAD 69                     :
FL   .        BASE SAD 69                :
OS1  .        GR/CN/ZDL                  :
OS2  .        MREX/GR                    :
OS3  .        RCI/GR                     :
0S4  .        3DEX/GR                    :
OS5  .        SL/GR                      :
LNAM .        MREX/ZDL/CN/XMAC/HDIL/RCI/3DEX/SL/GR :
TOOL .        MREX/ZDL/CN/XMAC/HDIL/RCI/3DEX/SL/GR :
LSOU .        PETROBRAS                  :
LSRV .        OH WIRELINE                :
LTYP .        RAW                        :
EPD  .M                0                 :
LDAT .        22/10/2004                 :
TRIP .                 1                 :
SON  .            772317                 :
CBDR .M             4277                 :
CBLO .M             4277                 :
CBL1 .M             4277                 :
STEM .DEGF    N/A                        :
BSAL .            266377                 :
BARI .        OFF                        :
DLAB .        21/10/2004                 :
MRT  .DEGF           260                 :
TSTR .        HDIL/XMAC/GR/TTRM          :
TSTG .        N/A                        :
STUS .        FINAL                      :
LCNM .        BAKER ATLAS                :
LCC  .               150                 :
NATI .        BRASIL                     :
OPMD .        OH.WIRELINE                :
PANA .        HERNANDEZ/LOCK             :
PCON .        BAKER ATLAS                :
R11  .        SL     5196.0 M/4960.0 M   :
R12  .        GR     4960.0 M/4277.0 M   :
R13  .        XMAC   5202.0 M/3850.0 M   :
R14  .        HDIL   5227.5 M/4277.0 M   :
R15  .        3DEX   5217.0 M/4960.0 M   :
R17  .        10. PONTO FRACO UTILIZADO  10K :
R18  .        11. DECLINAÇÃO MAGNETICA  -20.9 GRAUS :
R19  .        12. COORDENADAS ARATU      :
R21  .        X   7292512.00 M           :
R22  .        Y    583936.00 M           :
R23  .        MC  45 GRAUS               :
R25  .        13. CADASTRO ANP  86316021017 :
PVER .           4.10000                 :
WDFN .        /space/expusr/3-SPS-41D/i77bf02_2spf.xtf :
OCT  .        i77bf                      :
#-----------------------------------------------------------------------------
~CURVE INFORMATION
#MNEM.UNIT   API CODE                                  DESCRIPTION
#---- -----  --------                                  -----------------------
DEPT .M                                                :DEPTH (BOREHOLE) {F10.4}
DEPT .M                                                : {F13.4}
DT   .US/F                                             : {F13.4}
SFN1 .US                                               : {F13.4}
SFN2 .US                                               : {F13.4}
SFN3 .US                                               : {F13.4}
SFN4 .US                                               : {F13.4}
TT   .MS                                               : {F13.4}
#-----------------------------------------------------------------------------
# 
#     DEPT        DEPT         DT           SFN1         SFN2         SFN3         SFN4         TT
#
~A  
# ...
 5136.1848    5136.1848      68.3257     718.8835     755.0075     447.1342     832.6804      17.6752
 5136.0324    5136.0324      68.3686     718.5004     752.8774     587.0903     831.2516      17.7094
 5135.8800    5135.8800      67.8853     718.2502     751.3762     319.2063     825.7542      17.7434
 5135.7276    5135.7276      66.7912     717.7502     751.9997     615.8812     824.0007      17.7768
 5135.5752    5135.5752      65.5423     712.6250     744.0000     666.1250     813.1250      17.8096
 5135.4228    5135.4229      64.8470     712.0000     738.8750     666.6250     811.0000      17.8420
 5135.2704    5135.2704      65.0817     715.4973     742.5027     659.7870     808.7475      17.8746
 5135.1180    5135.1180      66.0439     711.7452     746.3724     711.5769     805.2532      17.9076
 5134.9656    5134.9656      67.1371     707.2471     743.9953     319.7938     808.2587      17.9412
 5134.8132    5134.8132      67.7289     705.2407     740.7396     781.6148     814.2434      17.9750
 5134.6608    5134.6608      67.5574     700.1182     734.9948     775.9902     810.6111      18.0088
 5134.5084    5134.5084      66.8756     697.0026     731.4850     771.4911     804.2391      18.0423
 5134.3560    5134.3560      66.1913     697.9766     287.5343     767.9722     799.9766      18.0754
 5134.2036    5134.2036      66.0416     689.9992     725.6054     758.5020     791.7587      18.1084
 5134.0512    5134.0512      66.7380     689.7507     719.6414     759.1233     718.4514      18.1416
 5133.8988    5133.8988      68.1465     688.0042     719.9991     755.8827     348.3822      18.1757
 5133.7464    5133.7464      69.7749     686.1288     720.3742     754.0038     460.2728      18.2106
 5133.5940    5133.5940      71.0975     687.7473     724.9924     760.4893     676.0207      18.2461
 5133.4416    5133.4416      71.7721     689.2481     725.7490     761.1242     795.7230      18.2820
 5133.2892    5133.2892      71.8266     691.9975     724.7509     762.1241     797.8732      18.3180
 5133.1368    5133.1368      71.5051     689.3764     727.7484     762.7497     798.9994      18.3537
 5132.9844    5132.9844      70.9055     690.5000     724.6250     765.5000     797.6250      18.3892
 5132.8320    5132.8320      70.0565     689.7500     722.1250     760.2500     800.0000      18.4242
 5132.6796    5132.6796      69.0771     689.7500     723.0000     760.5004     793.3758      18.4588
 5132.5272    5132.5272      68.2996     689.7501     723.0000     761.2501     794.7508      18.4930
 5132.3748    5132.3748      68.2472     689.8748     723.0002     761.3748     795.6247      18.5271
 5132.2224    5132.2224      69.2145     689.7500     723.1252     761.2502     795.3752      18.5617
 5132.0700    5132.0700      70.9490     689.7500     723.2500     761.3753     795.5003      18.5972
 5131.9176    5131.9176      72.8132     689.7503     723.2503     761.5000     795.6247      18.6336
 5131.7652    5131.7652      74.2341     689.8747     723.3747     761.4997     795.5007      18.6708
 5131.6128    5131.6128      74.9931     689.7500     723.2504     761.3754     795.7496      18.7083
 5131.4604    5131.4604      75.2588     689.7504     723.3750     761.5000     795.6254      18.7459
 5131.3080    5131.3080      75.3304     689.8747     723.3750     761.5000     795.7497      18.7833
 5131.1556    5131.1556      75.3647     689.6255     723.3750     761.3753     795.6253      18.8210
 5131.0032    5131.0032      75.4015     689.7498     723.3750     761.3750     795.7498      18.8588
 5130.8508    5130.8508      75.4351     689.7500     723.4998     761.4998     795.6252      18.8965
 5130.6984    5130.6984      75.4566     689.8749     723.5000     761.5000     795.7499      18.9342
 5130.5460    5130.5460      75.4651     689.8750     723.5000     761.5000     795.7500      18.9720
 5130.3936    5130.3936      75.4553     689.7500     723.6250     761.5000     795.7500      19.0097
 5130.2412    5130.2412      75.5325     689.7500     723.5000     761.6250     795.7500      19.0475
 5130.0888    5130.0888      75.7249     689.7501     723.5001     761.6249     795.7500      19.0854
 5129.9364    5129.9364      75.6913     689.8807     723.6250     761.3751     795.7500      19.1232
 5129.7840    5129.7840      74.9389     696.8856     723.6421     761.5000     795.7501      19.1607
 5129.6316    5129.6316      73.3016     705.8721     738.1271     761.5250     795.8750      19.1974
 5129.4792    5129.4792      71.4729     704.0000     739.4933     777.6113     796.4933      19.2331
 5129.3268    5129.3268      70.6115     704.0000     736.0011     770.5109    1116.4929      19.2684
 5129.1744    5129.1744      71.3575     704.0000     736.5007     775.2493     351.2591      19.3041
 5129.0220    5129.0220      73.4214     704.0000     736.7500     775.0019     824.0000      19.3409
 5128.8696    5128.8696      75.8382     704.0000     736.7496     775.6254     824.0000      19.3788
 5128.7172    5128.7172      77.7747     704.0000     736.6253     775.7497     824.0000      19.4175
 5128.5648    5128.5648      78.8905     704.0000     736.8744     775.7500     824.0000      19.4569
 5128.4124    5128.4124      79.0795     704.0000     736.8750     775.8748     824.1248      19.4965
 5128.2600    5128.2600      78.3332     704.0000     736.8750     775.8750     824.2498      19.5356
 5128.1076    5128.1076      76.8892     704.0000     736.9999     775.8750     824.3749      19.5741
 5127.9552    5127.9552      75.3495     704.0000     736.8751     775.9999     824.3750      19.6118
 5127.8028    5127.8028      74.2513     704.0000     736.9999     775.8751     824.3750      19.6489
 5127.6504    5127.6504      73.8070     704.0000     737.0000     776.0000     824.5000      19.6859
 5127.4980    5127.4980      73.7939     704.0000     737.0000     776.0000     824.5000      19.7228
 5127.3456    5127.3456      73.8434     704.0000     737.0000     776.0000     824.5000      19.7597
 5127.1932    5127.1932      73.8515     704.0000     737.0000     776.0000     824.5001      19.7966
 5127.0408    5127.0408      73.8259     703.9982     737.0004     776.0000     824.6250      19.8336
 5126.8884    5126.8884      73.6727     702.8145     737.2511     776.0000     824.6250      19.8704
 5126.7360    5126.7360      73.2173     738.8535     737.9372     776.0000     824.6253      19.9070
 5126.5836    5126.5836      72.3031     728.8930     766.7339     776.0744     824.7541      19.9432
 5126.4312    5126.4312      70.9331     735.9537     760.3963     805.4761     826.8154      19.9787
 5126.2788    5126.2788      69.3601     720.0041     767.6957     797.2686     978.1470      20.0134
 5126.1264    5126.1264      68.0005     721.2465     751.0463     802.9841     831.5324      20.0472
 5125.9740    5125.9740      67.1664     721.0006     752.8705     784.0458     834.9907      20.0808
 5125.8216    5125.8216      66.9083     704.0347     752.6255     788.3661     816.7872      20.1142
 5125.6692    5125.6692      67.0091     697.1365     736.0278     788.2502     821.9912      20.1477
 5125.5168    5125.5168      67.1865     697.1250     730.1327     771.8963     821.6255      20.1814
 5125.3644    5125.3644      67.2708     697.0001     730.0001     767.1294     803.6418      20.2150
 5125.2120    5125.2120      67.2548     696.8751     730.0000     767.2499     798.1281      20.2486
 5125.0596    5125.0596      67.1997     696.8750     730.1250     767.1250     798.0000      20.2823
 5124.9072    5124.9072      67.1821     696.8750     730.0000     767.2500     797.7500      20.3158
 5124.7548    5124.7548      67.2777     697.1249     729.8752     766.6251     797.9999      20.3495
 5124.6024    5124.6024      67.5313     696.9997     730.2491     766.8753     797.8750      20.3833
 5124.4500    5124.4500      67.9307     696.6252     729.2500     767.2495     797.8742      20.4173
 5124.2976    5124.2976      68.3926     696.7500     729.2508     766.8744     797.2506      20.4515
