~VERSION INFORMATION
VERS.           2.0   :CWLS Log ASCII Standard - VERSION 2.0
WRAP.           NO    :One Line per depth step
PROD.  Schlumberger   :LAS Producer
PROG.  DLIS to ASCII 2.3                               :LAS Program name and version
CREA.        2023/07/14 00:15                          :LAS Creation date {YYYY/MM/DD hh:mm}
DLIS_CREA.  2023-Jul-14 00:11                          :DLIS Creation date and time {YYYY-MMM-DD hh:mm}
SOURCE.     LIS_006.dlis                               :DLIS File Name
FILE-ID.     LIS   .002                                :File Identification Number
#--------------------------------------------------
~WELL INFORMATION
#MNEM.UNIT      DATA             DESCRIPTION
#---- ------ --------------   -----------------------------
STRT .M      5238.7500       :START DEPTH     
STOP .M      5087.2644       :STOP DEPTH     
STEP .M        -0.1524       :STEP     
NULL .          -999.25      :NULL VALUE
COMP .        Petrobras S.A.                           :COMPANY
WELL .        3-SPS-41D                                :WELL
FLD  .        MEXILHOES                                :FIELD
LOC  .                                                 :LOCATION
CNTY .                                                 :COUNTY
STAT .                                                 :STATE
CTRY .                                                 :COUNTRY
API  .                                                 :API NUMBER
UWI  .                                                 :UNIQUE WELL ID
DATE .                                                 :LOG DATE
SRVC .        Schlumberger                             :SERVICE COMPANY
LATI .DEG                                              :LATITUDE
LONG .DEG                                              :LONGITUDE
GDAT .                                                 :GeoDetic Datum
#-----------------------------------------------------------------------------
~PARAMETER INFORMATION
#MNEM.UNIT    VALUE                      DESCRIPTION
#---- -----   --------------------       ------------------------
CN   .        Petrobras S.A.             :
FN   .        MEXILHOES                  :
WN   .        3-SPS-41D                  :
LCC  .               150                 :
WDFN .        /space/expusr/3-SPS-41D/i77bf06_8spf.xtf :
OCT  .        i77bf                      :
RUN  .                                   :RUN NUMBER
PDAT .                                   :Permanent Datum
EPD  .                                   :Elevation of Permanent Datum above Mean Sea Level
LMF  .                                   :Logging Measured From (Name of Logging Elevation Reference)
APD  .                                   :Elevation of Depth Reference (LMF) above Permanent Datum
#-----------------------------------------------------------------------------
~CURVE INFORMATION
#MNEM.UNIT   API CODE                                  DESCRIPTION
#---- -----  --------                                  -----------------------
DEPT .M                                                :DEPTH (BOREHOLE) {F10.4}
DEPT .M                                                : {F13.4}
BIT  .IN                                               : {F13.4}
DEPM .M                                                : {F13.4}
SPD  .M/MN                                             : {F13.4}
CNC  .PU                                               : {F13.4}
CN   .PU                                               : {F13.4}
LSN  .HZ                                               : {F13.4}
SSN  .HZ                                               : {F13.4}
#-----------------------------------------------------------------------------
# 
#     DEPT        DEPT         BIT          DEPM         SPD          CNC          CN           LSN          SSN
#
~A  
# ...
 5174.7420    5174.7420       8.5000    5174.3475       5.3424      18.6988      18.8677    1177.9430    2919.0745
 5174.5896    5174.5896       8.5000    5174.1951       5.3762      18.3926      19.0557    1216.3002    3017.9844
 5174.4372    5174.4372       8.5000    5174.0427       5.3628      18.1067      17.7694    1315.1845    3275.6055
 5174.2848    5174.2848       8.5000    5173.8903       5.3726      14.3230      13.6339    1658.6930    3679.5275
 5174.1324    5174.1324       8.5000    5173.7379       5.3992      10.4068       9.9559    2184.0054    4144.5045
 5173.9800    5173.9800       8.5000    5173.5855       5.4262       8.1129       8.1023    2699.9498    4570.5333
 5173.8276    5173.8276       8.5000    5173.4331       5.3969       7.4503       7.6630    3007.9603    4879.2919
 5173.6752    5173.6752       8.5000    5173.2807       5.3640       7.5254       7.9285    3106.1901    4997.7824
 5173.5228    5173.5228       8.5000    5173.1283       5.3750       8.0946       8.5035    2948.6332    4795.3844
 5173.3704    5173.3704       8.5000    5172.9759       5.3836       9.0551       9.8307    2566.6717    4324.5769
 5173.2180    5173.2180       8.5000    5172.8235       5.3006      11.2369      12.0429    2088.7937    3904.7571
 5173.0656    5173.0656       8.5000    5172.6711       5.2640      12.6761      13.1370    1845.7362    3706.0358
 5172.9132    5172.9132       8.5000    5172.5187       5.2718      12.6817      12.9029    1805.9498    3647.0835
 5172.7608    5172.7608       8.5000    5172.3663       5.3073      12.5705      12.9855    1807.6961    3649.2777
 5172.6084    5172.6084       8.5000    5172.2139       5.3069      12.9452      13.3427    1797.9315    3690.7749
 5172.4560    5172.4560       8.5000    5172.0605       5.2676      12.8142      13.0014    1843.6915    3770.6702
 5172.3036    5172.3036       8.5000    5171.9091       5.2496      12.5991      12.8774    1889.1673    3815.6277
 5172.1512    5172.1512       8.5000    5171.7567       5.2598      12.1312      12.3792    1926.1556    3811.6740
 5171.9988    5171.9988       8.5000    5171.6043       5.2695      12.1695      12.4091    1919.7688    3809.5812
 5171.8464    5171.8464       8.5000    5171.4519       5.2735      12.0292      12.4866    1944.6669    3841.5811
 5171.6940    5171.6940       8.5000    5171.2995       5.2848      12.9490      13.4585    1877.0153    3821.8252
 5171.5416    5171.5416       8.5000    5171.1471       5.2984      13.6796      14.2095    1785.8654    3719.3705
 5171.3892    5171.3892       8.5000    5170.9947       5.2714      13.8968      13.8238    1730.4875    3665.4926
 5171.2368    5171.2368       8.5000    5170.8423       5.2777      11.5155      11.0531    1950.2418    3827.6944
 5171.0844    5171.0844       8.5000    5170.6899       5.2960       8.7411       8.4239    2406.4275    4215.3484
 5170.9320    5170.9320       8.5000    5170.5375       5.2764       6.8607       6.6873    2955.4278    4692.6644
 5170.7796    5170.7796       8.5000    5170.3851       5.2753       5.5575       5.5617    3479.0870    5081.2409
 5170.6272    5170.6272       8.5000    5170.2327       5.2808       4.9538       4.9653    3798.6566    5304.7087
 5170.4748    5170.4748       8.5000    5170.0803       5.2918       4.1915       4.2164    4096.4134    5430.7754
 5170.3224    5170.3224       8.5000    5169.9279       5.3229       3.8990       4.0904    4256.7733    5528.4270
 5170.1700    5170.1700       8.5000    5169.7755       5.2962       4.1357       4.4057    4242.3491    5579.6569
 5170.0176    5170.0176       8.5000    5169.6221       5.2658       4.6758       5.1047    4076.0634    5518.0071
 5169.8652    5169.8652       8.5000    5169.4697       5.2667       5.8298       6.2182    3678.5678    5309.8438
 5169.7128    5169.7128       8.5000    5169.3183       5.2803       6.2133       6.4936    3434.8519    5079.4938
 5169.5604    5169.5604       8.5000    5169.1659       5.2912       6.5819       6.8593    3277.6489    4991.8280
 5169.4080    5169.4080       8.5000    5169.0135       5.2788       6.8807       7.1924    3221.9432    4992.1005
 5169.2556    5169.2556       8.5000    5168.8611       5.2734       6.9552       7.0248    3199.3309    4972.2452
 5169.1032    5169.1032       8.5000    5168.7087       5.3022       6.3473       6.5100    3305.1841    4983.0242
 5168.9508    5168.9508       8.5000    5168.5563       5.2689       6.5757       6.9227    3291.2119    5020.0295
 5168.7984    5168.7984       8.5000    5168.4039       5.2710       6.8361       6.9834    3239.2828    4999.6692
 5168.6460    5168.6460       8.5000    5168.2515       5.2755       6.5602       6.6630    3263.0517    4947.4227
 5168.4936    5168.4936       8.5000    5168.0991       5.2623       5.5558       5.4621    3347.9432    4747.3844
 5168.3412    5168.3412       8.5000    5167.9467       5.2762       6.1482       7.2129    3062.8673    4496.6325
 5168.1888    5168.1888       8.5000    5167.7943       5.2688       9.1994       9.8493    2507.4972    4340.6514
 5168.0364    5168.0364       8.5000    5167.6419       5.2918      10.5229      10.9900    2293.9209    4212.7532
 5167.8840    5167.8840       8.5000    5167.4895       5.3115      11.1979      11.8415    2164.6422    4103.5461
 5167.7316    5167.7316       8.5000    5167.3371       5.2778      13.0987      13.9282    1968.5234    4013.8515
 5167.5792    5167.5792       8.5000    5167.1837       5.2482      14.4314      14.7178    1792.4095    3808.9857
 5167.4268    5167.4268       8.5000    5167.0313       5.2572      13.8369      13.9881    1730.7519    3616.6449
 5167.2744    5167.2744       8.5000    5166.8792       5.2697      13.4972      13.9520    1705.2841    3553.1007
 5167.1220    5167.1220       8.5000    5166.7278       5.2921      14.6512      15.4316    1638.2362    3561.4823
 5166.9696    5166.9696       8.5000    5166.5751       5.2662      16.1640      16.5883    1553.5361    3541.7976
 5166.8172    5166.8172       8.5000    5166.4227       5.2713      15.7849      15.9407    1548.6970    3480.7508
 5166.6648    5166.6648       8.5000    5166.2703       5.3233      15.0603      15.2301    1569.4025    3461.4048
 5166.5124    5166.5124       8.5000    5166.1179       5.2941      14.6001      14.8471    1605.2278    3491.5943
 5166.3600    5166.3600       8.5000    5165.9655       5.2753      14.6026      15.0569    1617.1443    3512.4783
 5166.2076    5166.2076       8.5000    5165.8131       5.2751      14.5934      14.7933    1628.8516    3546.0612
 5166.0552    5166.0552       8.5000    5165.6607       5.2805      14.6802      15.1959    1648.3327    3595.8906
 5165.9028    5165.9028       8.5000    5165.5083       5.2752      14.3534      14.1942    1668.8226    3573.5979
 5165.7504    5165.7504       8.5000    5165.3559       5.2715      13.2914      13.8543    1692.7008    3480.0583
 5165.5980    5165.5980       8.5000    5165.2035       5.3074      14.3603      14.8508    1592.5032    3417.2120
 5165.4456    5165.4456       8.5000    5165.0511       5.3160      14.8656      15.2704    1558.3085    3414.0636
 5165.2932    5165.2932       8.5000    5164.8987       5.2523      15.0515      15.4115    1549.8413    3412.1543
 5165.1408    5165.1408       8.5000    5164.7463       5.2579      15.4137      16.0450    1519.5280    3374.6230
 5164.9884    5164.9884       8.5000    5164.5939       5.2859      16.3757      16.7295    1437.1589    3279.7386
 5164.8360    5164.8360       8.5000    5164.4415       5.2705      16.4226      16.8769    1389.3238    3182.8913
 5164.6836    5164.6836       8.5000    5164.2891       5.2517      16.7587      17.1091    1357.3529    3164.2124
 5164.5312    5164.5312       8.5000    5164.1357       5.2704      17.0157      17.5931    1351.0182    3169.8440
 5164.3788    5164.3788       8.5000    5163.9843       5.2965      17.4527      17.5192    1324.7932    3143.6017
 5164.2264    5164.2264       8.5000    5163.8319       5.2746      15.9987      16.0047    1377.0006    3135.8854
