~VERSION INFORMATION
VERS.           2.0   :CWLS Log ASCII Standard - VERSION 2.0
WRAP.           NO    :One Line per depth step
PROD.  Schlumberger   :LAS Producer
PROG.  DLIS to ASCII 2.3                               :LAS Program name and version
CREA.        2023/07/14 00:15                          :LAS Creation date {YYYY/MM/DD hh:mm}
DLIS_CREA.  2023-Jul-14 00:11                          :DLIS Creation date and time {YYYY-MMM-DD hh:mm}
SOURCE.     LIS_008.dlis                               :DLIS File Name
FILE-ID.     LIS   .001                                :File Identification Number
#--------------------------------------------------
~WELL INFORMATION
#MNEM.UNIT      DATA             DESCRIPTION
#---- ------ --------------   -----------------------------
STRT .M      5286.4512       :START DEPTH     
STOP .M      5066.6904       :STOP DEPTH     
STEP .M        -0.1524       :STEP     
NULL .          -999.25      :NULL VALUE
COMP .        PETROBRAS S.A.                           :COMPANY
WELL .        3-BRSA-293D-SPS                          :WELL
FLD  .        BS-400                                   :FIELD
LOC  .        BASE SAD 69:                             :LOCATION
CNTY .        SANTOS                                   :COUNTY
STAT .        BRASIL                                   :STATE
CTRY .        BRASIL                                   :COUNTRY
API  .                                                 :API NUMBER
UWI  .                                                 :UNIQUE WELL ID
DATE .        15/11/2004                               :LOG DATE
SRVC .        Schlumberger                             :SERVICE COMPANY
LATI .DEG                                              :LATITUDE
LONG .DEG                                              :LONGITUDE
GDAT .                                                 :GeoDetic Datum
#-----------------------------------------------------------------------------
~PARAMETER INFORMATION
#MNEM.UNIT    VALUE                      DESCRIPTION
#---- -----   --------------------       ------------------------
APD  .M               24                 :
BHT  .DEGF           260                 :
BLI  .M             5289                 :
BS   .IN         8.50000                 :
CN   .        PETROBRAS S.A.             :
COUN .        SANTOS                     :
CS   .IN         9.62500                 :
DATE .        15/11/2004                 :
DFD  .LB/G      12.30000                 :
DFL  .C3               2                 :
DFPH .        N/A                        :
DFT  .        SINTETICO                  :
DFV  .S               95                 :
DMF  .        MESA ROTATIVA              :
EDF  .M               24                 :
EGL  .M             -500                 :
EKB  .        N/A                        :
ENGI .        HERNANDEZ / LOCK           :
FL1  .        X   7292392.00 M LAT 24 28 47.189 S :
FL2  .        Y    584087.00 M LON 44 10 12.698 W :
FL3  .        MC  45 GRAUS               :
FN   .        BS-400                     :
LMF  .        MESA ROTATIVA              :
LUL  .        MACAE                      :
MCSS .        PRENSA                     :
MCST .DEGF            80                 :
MFSS .        PRENSA                     :
MFST .DEGF            80                 :
MSS  .        LINHA DE FLUXO             :
MST  .DEGF            80                 :
PDAT .        NIVEL DO MAR               :
R1   .        01. APRESENTAÇÃO DE ACORDO COM REQUERIMENTO DO CLIENTE :
R2   .        02. TEMPERATURA MÁXIMA DO POÇO T1=T2= 290 DEGF @  5275 M :
R3   .        03. INICIO DA CIRCULAÇÃO  12/11/2004 09 00 H :
R4   .        04. FINAL DA CIRCULAÇÃO   12/11/2004 18 00 H :
R5   .        05. TEMPO TOTAL DE CIRCULAÇÃO   09 00 H :
R6   .        06. FLUIDO DE PERFURAÇÃO  SINTETICO (BR-MUL  BR-MI)  60% TEOR DO OLEO :
R7   .        07. SALINIDADE DA LAMA  254762 PPM NACL NA FASE DE AGUA :
R8   .        08. INCLINAÇÃO MÁXIMA DO POÇO  37.37 GRAUS @ 5100 M :
R9   .        09. PRIMEIRAS E ULTIMAS LEITURAS  :
RMB  .OHMM    > 10                       :
RMCS .OHMM    > 10                       :
RMFS .OHMM    > 10                       :
RMS  .OHMM    >10                        :
RUN  .                 2                 :
STAT .        BRASIL                     :
TCS  .        18 00 H                    :
TDD  .M             5288                 :
TDL  .M             5293                 :
TLAB .        N/A                        :
TLI  .M             5000                 :
WITN .        ERNANI / ZE MARIA          :
WN   .        3-BRSA-293D-SPS            :
LUN  .              8808                 :
HIDE .        3-SPS-41D                  :
HID2 .        HIGH DEFINITION INDUCTION LOG :
HID3 .        X-MULTIPOLE ARRAY ACOUSTILOG :
HID4 .        GAMMA RAY LOG              :
HID5 .        TTRM SUB                   :
CLAB .        BACIA                      :
SLAB .        PAIS                       :
CMT1 .        ESC  1 200                 :
CMT2 .        PROF. MEDIDA               :
CMT4 .        SONDA  SS-43               :
HDAT .        SAD 69                     :
FL   .        BASE SAD 69                :
OS1  .        RCI/GR                     :
OS2  .        CHECK SHOT                 :
OS3  .        GR/CN/ZDL                  :
OS5  .        RCOR/GR                    :
LNAM .        ZDL/CN/XMAC/HDIL/EARTH IMAGER/RCI/RCOR/CHECK SHOT/GR :
TOOL .        ZDL/CN/XMAC/HDIL/EARTH IMAGER/RCI/RCOR/CHECK SHOT/GR :
LSOU .        PETROBRAS                  :
LSRV .        OH WIRELINE                :
LTYP .        RAW                        :
EPD  .M                0                 :
LDAT .        15/11/2004                 :
TRIP .                 3                 :
SON  .            786588                 :
CBDR .M             4277                 :
CBLO .        NR                         :
CBL1 .        NR                         :
STEM .DEGF    N/A                        :
BSAL .            254762                 :
BARI .        OFF                        :
DLAB .        12/11/2004                 :
MRT  .DEGF           290                 :
TSTR .        HDIL/XMAC/GR/TTRM          :
TSTG .        N/A                        :
STUS .        FINAL                      :
LCNM .        BAKER ATLAS                :
LCC  .               150                 :
NATI .        BRASIL                     :
OPMD .        OH.WIRELINE                :
PANA .        HERNANDEZ / LOCK           :
PCON .        BAKER ATLAS                :
R11  .        SL     5268.3 M / 5000.0 M :
R12  .        GR     5268.3 M / 5000.0 M :
R13  .        XMAC   5279.5 M / 5000.0 M :
R14  .        HDIL   5289.0 M / 5000.0 M :
R17  .        11. DECLINAÇÃO MAGNETICA  -20.9 GRAUS :
R18  .        12. COORDENADAS BASE       :
R21  .        Y    583936.00 M           :
R22  .        MC  45 GRAUS               :
PVER .           4.10000                 :
WDFN .        /space/expusr/3-SPS-41D_RUN2/i77bf01_2spf.xtf :
OCT  .        i77bf                      :
OS4  .        EARTH IMAGER               :
R16  .        10. PONTO FRACO UTILIZADO  10K :
R20  .        X   7292512.00 M           :
R24  .        13. CADASTRO ANP  86316021017 :
#-----------------------------------------------------------------------------
~CURVE INFORMATION
#MNEM.UNIT   API CODE                                  DESCRIPTION
#---- -----  --------                                  -----------------------
DEPT .M                                                :DEPTH (BOREHOLE) {F10.4}
DEPT .M                                                : {F13.4}
DT   .US/F                                             : {F13.4}
SFN1 .US                                               : {F13.4}
SFN2 .US                                               : {F13.4}
SFN3 .US                                               : {F13.4}
SFN4 .US                                               : {F13.4}
TT   .MS                                               : {F13.4}
#-----------------------------------------------------------------------------
# 
#     DEPT        DEPT         DT           SFN1         SFN2         SFN3         SFN4         TT
#
~A  
# ...
 5154.0156    5154.0156      73.2009     739.0000     774.1250     816.0000     850.2500      28.0668
 5153.8632    5153.8632      72.6518     743.8751     776.0000     815.9999     852.6236      28.1032
 5153.7108    5153.7108      71.9364     743.9992     776.0030     815.8751     849.9994      28.1392
 5153.5584    5153.5584      71.3563     743.1154     779.3638     815.9942     849.3707      28.1749
 5153.4060    5153.4060      71.3006     735.5361     770.5421     811.3969     846.0160      28.2103
 5153.2536    5153.2536      71.7587     737.1178     775.2291     813.1173     848.6134      28.2462
 5153.1012    5153.1012      72.3359     739.6149     774.2540     813.6230     851.1149      28.2824
 5152.9488    5152.9488      72.5706     742.6140     775.2463     814.6213     851.6232      28.3187
 5152.7964    5152.7964      72.3308     744.3692     778.8631     815.9955     848.1365      28.3548
 5152.6440    5152.6440      71.8742     732.0362     776.0084     813.5073     843.3889      28.3908
 5152.4916    5152.4916      71.5557     739.6055     771.6362     815.9936     847.9882      28.4266
 5152.3392    5152.3392      71.4750     740.4981     775.6163     811.3851     852.4902      28.4623
 5152.1868    5152.1868      71.4165     742.3716     775.9993     815.2430     847.1348      28.4981
 5152.0344    5152.0344      71.2613     740.8772     775.2511     814.2514     847.9987      28.5337
 5151.8820    5151.8820      71.0538     742.8728     775.9992     815.1241     849.1238      28.5692
 5151.7296    5151.7296      70.8148     737.6287     774.8758     814.2506     848.2506      28.6047
 5151.5772    5151.5771      70.4853     735.2500     769.8750     810.5000     846.6250      28.6399
 5151.4248    5151.4248      69.9828     734.3750     768.0000     808.0000     845.1250      28.6749
 5151.2724    5151.2724      69.4398     731.7491     767.2488     805.7489     841.4987      28.7097
 5151.1200    5151.1200      69.2623     729.4931     764.1220     802.8728     838.1210      28.7443
 5150.9676    5150.9676      69.8044     720.5123     760.2473     799.9965     832.8740      28.7792
 5150.8152    5150.8152      70.9773     731.3220     757.8866     796.8902     832.0043      28.8145
 5150.6628    5150.6628      72.2767     729.6329     764.9677     799.9858     839.9637      28.8506
 5150.5104    5150.5104      73.0024     734.1063     767.9875     806.9709     836.8880      28.8872
 5150.3580    5150.3580      72.6112     734.3741     768.0000     807.1245     841.8560      28.9235
 5150.2056    5150.2056      71.1621     729.7658     767.7509     805.6301     840.2556      28.9591
 5150.0532    5150.0532      69.3350     729.6254     764.0115     804.2542     839.3777      28.9937
 5149.9008    5149.9008      68.0422     728.8770     764.1247     801.1334     837.2557      29.0278
 5149.7484    5149.7484      67.9470     720.0206     752.0281     800.0026     832.0122      29.0618
 5149.5960    5149.5960      69.0046     727.9844     759.9844     800.0000     824.5146      29.0963
 5149.4436    5149.4436      70.5353     730.6209     762.9953     800.8736     833.6106      29.1316
 5149.2912    5149.2912      71.7947     729.2517     764.1236     800.9998     835.7474      29.1675
 5149.1388    5149.1388      72.4777     730.7487     764.8744     803.7477     837.4985      29.2037
 5148.9864    5148.9864      72.6566     729.6255     765.2498     802.1258     838.9993      29.2401
 5148.8340    5148.8340      72.5085     733.2500     766.8750     804.8750     840.0000      29.2763
 5148.6816    5148.6816      72.1436     730.1250     766.6250     803.1250     839.7500      29.3124
 5148.5292    5148.5292      71.6279     735.8744     766.2511     804.4985     839.9999      29.3483
 5148.3768    5148.3768      71.1942     734.9985     768.0000     802.1294     839.8734      29.3839
 5148.2244    5148.2244      71.1072     733.5005     767.9995     806.5002     838.2524      29.4194
 5148.0720    5148.0720      71.3695     733.8733     767.6267     806.6244     839.9919      29.4549
 5147.9196    5147.9196      71.6998     734.9952     767.9984     807.4962     840.6223      29.4908
 5147.7672    5147.7672      71.7722     732.0118     768.0000     807.8735     841.2475      29.5267
 5147.6148    5147.6148      71.5232     731.3772     767.3772     807.8750     841.0009      29.5624
 5147.4624    5147.4624      71.2022     734.7392     768.3718     807.5012     843.6166      29.5980
 5147.3100    5147.3100      71.1102     735.9965     766.6299     803.0127     840.0102      29.6336
 5147.1576    5147.1576      71.3356     742.3594     767.8719     804.7457     839.7506      29.6693
 5147.0052    5147.0052      71.7020     740.3792     775.9831     806.1221     839.5005      29.7052
 5146.8528    5146.8528      72.0061     742.1220     776.0000     814.9848     839.7496      29.7412
 5146.7004    5146.7004      72.2540     742.1250     776.2497     815.9987     850.9849      29.7773
 5146.5480    5146.5480      72.5203     743.2489     776.0002     816.0000     850.7502      29.8136
 5146.3956    5146.3956      72.7690     743.9995     776.6246     816.0000     851.8743      29.8500
 5146.2432    5146.2432      72.8498     744.0000     778.7500     816.2500     851.3750      29.8864
 5146.0908    5146.0908      72.6154     744.1250     779.1250     817.7500     852.6250      29.9227
 5145.9384    5145.9384      72.0724     745.8747     778.6247     818.2492     854.8747      29.9588
 5145.7860    5145.7860      71.4019     745.3776     778.1287     816.7507     854.3739      29.9945
 5145.6336    5145.6336      70.8183     748.3761     782.3764     817.5009     853.1248      30.0299
 5145.4812    5145.4812      70.4758     749.2458     783.4946     818.2464     853.0006      30.0650
 5145.3288    5145.3288      70.4908     744.0233     779.2688     817.5033     852.8756      30.1002
 5145.1764    5145.1764      70.8167     745.2449     778.6275     818.8694     853.9954      30.1356
 5145.0240    5145.0240      71.1235     744.0046     778.6250     817.0069     853.7509      30.1712
 5144.8716    5144.8716      71.2267     747.1146     778.3758     818.4950     852.7533      30.2068
 5144.7192    5144.7192      71.3230     745.8787     778.9982     816.0074     852.6254      30.2425
 5144.5668    5144.5668      71.6709     746.1244     779.4987     817.2468     849.7574      30.2784
 5144.4144    5144.4144      72.3547     744.0047     778.7517     816.2522     850.6231      30.3146
 5144.2620    5144.2620      73.0653     744.0000     776.6289     817.3729     854.2433      30.3511
 5144.1096    5144.1096      73.3957     764.5945     787.2343     835.0988     869.6023      30.3878
 5143.9572    5143.9572      73.4089     736.4063     772.6412     810.1527     848.0240      30.4245
 5143.8048    5143.8048      73.4942     739.7475     774.9982     815.1213     849.6238      30.4613
 5143.6524    5143.6523      73.8185     737.2500     774.3750     814.7500     848.3750      30.4982
 5143.5000    5143.5000      74.1130     739.1250     775.5000     816.0000     850.3750      30.5353
 5143.3476    5143.3477      74.0168     742.0000     772.7500     812.3750     848.0000      30.5723
 5143.1952    5143.1952      73.3805     743.2485     776.0000     811.1280     847.6253      30.6090
 5143.0428    5143.0428      72.4439     741.2530     775.9993     815.1249     848.0001      30.6452
 5142.8904    5142.8904      71.6045     743.9865     775.3781     815.0006     848.1244      30.6808
 5142.7380    5142.7380      71.0229     744.0000     775.9971     813.7557     848.0006      30.7164
 5142.5856    5142.5856      70.8498     744.0000     776.3734     815.8661     847.5021      30.7518
 5142.4332    5142.4332      71.2307     740.0153     776.0014     814.6298     847.6245      30.7874
 5142.2808    5142.2808      72.0940     741.6194     775.8754     815.9952     848.7461      30.8235
 5142.1284    5142.1284      73.0992     741.7496     775.9996     814.6292     848.8746      30.8600
