~VERSION INFORMATION
VERS.           2.0   :CWLS Log ASCII Standard - VERSION 2.0
WRAP.           YES   :Multiple lines per depth step
PROD.  Schlumberger   :LAS Producer
PROG.  DLIS to ASCII 2.3                               :LAS Program name and version
CREA.        2023/07/14 00:15                          :LAS Creation date {YYYY/MM/DD hh:mm}
DLIS_CREA.  2023-Jul-14 00:11                          :DLIS Creation date and time {YYYY-MMM-DD hh:mm}
SOURCE.     LIS_013.dlis                               :DLIS File Name
FILE-ID.     LIS   .002                                :File Identification Number
#--------------------------------------------------
~WELL INFORMATION
#MNEM.UNIT      DATA             DESCRIPTION
#---- ------ --------------   -----------------------------
STRT .M      5299.5576       :START DEPTH     
STOP .M      4241.4444       :STOP DEPTH     
STEP .M        -0.1524       :STEP     
NULL .          -999.25      :NULL VALUE
COMP .        PETROBRAS S.A.                           :COMPANY
WELL .        3-BRSA-293D-SPS                          :WELL
FLD  .        BS-400                                   :FIELD
LOC  .        BASE SAD 69:                             :LOCATION
CNTY .        SANTOS                                   :COUNTY
STAT .        BRASIL                                   :STATE
CTRY .        BRASIL                                   :COUNTRY
API  .                                                 :API NUMBER
UWI  .                                                 :UNIQUE WELL ID
DATE .        15/11/2004                               :LOG DATE
SRVC .        Schlumberger                             :SERVICE COMPANY
LATI .DEG                                              :LATITUDE
LONG .DEG                                              :LONGITUDE
GDAT .                                                 :GeoDetic Datum
#-----------------------------------------------------------------------------
~PARAMETER INFORMATION
#MNEM.UNIT    VALUE                      DESCRIPTION
#---- -----   --------------------       ------------------------
APD  .M               24                 :
BHT  .DEGF           260                 :
BLI  .M             5289                 :
BS   .IN         8.50000                 :
CN   .        PETROBRAS S.A.             :
COUN .        SANTOS                     :
CS   .IN         9.62500                 :
DATE .        15/11/2004                 :
DFD  .LB/G      12.30000                 :
DFL  .C3               2                 :
DFPH .        N/A                        :
DFT  .        SINTETICO                  :
DFV  .S               95                 :
DMF  .        MESA ROTATIVA              :
EDF  .M               24                 :
EGL  .M             -500                 :
EKB  .        N/A                        :
ENGI .        HERNANDEZ / LOCK           :
FL1  .        X   7292392.00 M LAT 24 28 47.189 S :
FL2  .        Y    584087.00 M LON 44 10 12.698 W :
FL3  .        MC  45 GRAUS               :
FN   .        BS-400                     :
LMF  .        MESA ROTATIVA              :
LUL  .        MACAE                      :
MCSS .        PRENSA                     :
MCST .DEGF            80                 :
MFSS .        PRENSA                     :
MFST .DEGF            80                 :
MSS  .        LINHA DE FLUXO             :
MST  .DEGF            80                 :
PDAT .        NIVEL DO MAR               :
R1   .        01. APRESENTAÇÃO DE ACORDO COM REQUERIMENTO DO CLIENTE :
R2   .        02. TEMPERATURA MÁXIMA DO POÇO T1=T2= 292 DEGF @  5277 M :
R3   .        03. INICIO DA CIRCULAÇÃO  12/11/2004 09 00 H :
R4   .        04. FINAL DA CIRCULAÇÃO   12/11/2004 18 00 H :
R5   .        05. TEMPO TOTAL DE CIRCULAÇÃO   09 00 H :
R6   .        06. FLUIDO DE PERFURAÇÃO  SINTETICO (BR-MUL  BR-MI)  60% TEOR DO OLEO :
R7   .        07. SALINIDADE DA LAMA  254762 PPM NACL NA FASE DE AGUA :
R8   .        08. INCLINAÇÃO MÁXIMA DO POÇO  37.37 GRAUS @ 5100 M :
R9   .        09. PRIMEIRAS E ULTIMAS LEITURAS  :
RMB  .OHMM    > 10                       :
RMCS .OHMM    > 10                       :
RMFS .OHMM    > 10                       :
RMS  .OHMM    >10                        :
RUN  .                 2                 :
STAT .        BRASIL                     :
TCS  .        18 00 H                    :
TDD  .M             5288                 :
TDL  .M             5293                 :
TLAB .        N/A                        :
TLI  .M             4277                 :
WITN .        ERNANI / ZE MARIA          :
WN   .        3-BRSA-293D-SPS            :
LUN  .              8808                 :
HIDE .        3-SPS-41D                  :
HID2 .        COMPENSATED Z-DENSILOG     :
HID3 .        COMPENSATED NEUTRON LOG    :
HID4 .        GAMMA RAY LOG              :
HID5 .        TTRM SUB                   :
CLAB .        BACIA                      :
SLAB .        PAIS                       :
CMT1 .        ESC  1 1000                :
CMT2 .        PROF. MEDIDA               :
CMT4 .        SONDA  SS-43               :
HDAT .        SAD 69                     :
FL   .        BASE SAD 69                :
OS1  .        RCI/GR                     :
OS2  .        CHECK SHOT                 :
OS3  .        GR/XMAC/HDIL               :
OS5  .        RCOR/GR                    :
LNAM .        ZDL/CN/XMAC/HDIL/EARTH IMAGER/RCI/RCOR/CHECK SHOT/GR :
TOOL .        ZDL/CN/XMAC/HDIL/EARTH IMAGER/RCI/RCOR/CHECK SHOT/GR :
LSOU .        PETROBRAS                  :
LSRV .        OH WIRELINE                :
LTYP .        RAW                        :
EPD  .M                0                 :
LDAT .        15/11/2004                 :
TRIP .                 4                 :
SON  .            786588                 :
CBDR .M             4277                 :
CBLO .        NR                         :
CBL1 .        NR                         :
STEM .DEGF    N/A                        :
BSAL .            254762                 :
BARI .        OFF                        :
DLAB .        12/11/2004                 :
MRT  .DEGF           292                 :
TSTR .        ZDL/CN/GR/TTRM             :
TSTG .        N/A                        :
STUS .        FINAL                      :
LCNM .        BAKER ATLAS                :
LCC  .               150                 :
NATI .        BRASIL                     :
OPMD .        OH.WIRELINE                :
PANA .        HERNANDEZ / LOCK           :
PCON .        BAKER ATLAS                :
R11  .        GR     5268.3 M / 4277.0 M :
R12  .        CN     5286.5 M / 5128.0 M (FERRAMENTA PERDEU LEITURA ACIMA DE 5128M) :
R13  .        ZDL    5292.0 M / 4277.0 M :
R15  .        10. PONTO FRACO UTILIZADO  10K :
R17  .        12. COORDENADAS BASE       :
R19  .        X   7292512.00 M           :
R21  .        MC  45 GRAUS               :
R23  .        13. CADASTRO ANP  86316021017 :
PVER .           4.10000                 :
WDFN .        /space/expusr/3-SPS-41D_RUN2/i77bf04_8spf.xtf :
OCT  .        i77bf                      :
OS4  .        EARTH IMAGER               :
R16  .        11. DECLINAÇÃO MAGNETICA  -20.9 GRAUS :
R20  .        Y    583936.00 M           :
#-----------------------------------------------------------------------------
~CURVE INFORMATION
#MNEM.UNIT   API CODE                                  DESCRIPTION
#---- -----  --------                                  -----------------------
DEPT .M                                                :DEPTH (BOREHOLE) {F10.4}
DEPT .M                                                : {F13.4}
BIT  .IN                                               : {F13.4}
DEPM .M                                                : {F13.4}
GR   .GAPI                                             : {F13.4}
SPD  .M/MN                                             : {F13.4}
TTEN .LBF                                              : {F13.4}
CAL  .IN                                               : {F13.4}
CALX .IN                                               : {F13.4}
HRD1 .HZ                                               : {F13.4}
HRD2 .HZ                                               : {F13.4}
PE   .B/E                                              : {F13.4}
SFT2 .HZ                                               : {F13.4}
SOFT .HZ                                               : {F13.4}
SSD  .HZ                                               : {F13.4}
ZCOR .G/C3                                             : {F13.4}
ZDEN .G/C3                                             : {F13.4}
CNC  .PU                                               : {F13.4}
CN   .PU                                               : {F13.4}
LSN  .HZ                                               : {F13.4}
SSN  .HZ                                               : {F13.4}
CNCF .PU                                               : {F13.4}
MMRK .MN                                               : {F13.4}
#-----------------------------------------------------------------------------
# DEPT       
#     DEPT         BIT          DEPM         GR           SPD          TTEN         
#     CAL          CALX         HRD1         HRD2         PE           SFT2         
#     SOFT         SSD          ZCOR         ZDEN         CNC          CN           
#     LSN          SSN          CNCF         MMRK         
~A  
# ...
4889.9064
   4889.9064       8.5000    4889.5089      79.4738       7.3678    7157.1949
      8.9887       8.9887     589.5344     804.5786       4.3050     500.1353
    396.8044    6678.5753      -0.0255       2.5914       0.0000      17.0393
   1456.8686    3399.7910      16.5259       0.0000
4889.7540
   4889.7540       8.5000    4889.3546      77.9690       7.3475    7172.5770
      8.9850       8.9850     601.9955     795.9620       4.3156     498.1907
    393.5387    6659.1735      -0.0289       2.5897       0.0000      16.9150
   1482.2783    3445.8360      16.4063       0.0000
4889.6016
   4889.6016       8.5000    4889.2002      77.8357       7.3550    7184.3184
      8.9822       8.9822     621.5259     788.2847       4.3343     506.7092
    387.2712    6667.1836      -0.0301       2.5866       0.0000      17.0526
   1491.8503    3482.8867      16.5434       0.0000
4889.4492
   4889.4492       8.5000    4889.0469      78.5914       7.3973    7152.3525
      8.9805       8.9805     633.2638     781.1057       4.3583     516.2167
    381.4349    6707.4727      -0.0254       2.5855       0.0000      17.1101
   1498.9412    3505.6343      16.6009       0.0000
4889.2968
   4889.2968       8.5000    4888.8935      79.5830       7.4247    7083.0092
      8.9793       8.9793     627.3545     775.9984       4.4141     511.7458
    375.7224    6758.4715      -0.0163       2.5874       0.0000      17.1744
   1506.2467    3529.6857      16.6649       0.0000
4889.1444
   4889.1444       8.5000    4888.7391      80.1360       7.4016    7037.4831
      8.9773       8.9773     617.5837     774.4342       4.4559     496.7416
    372.5293    6781.7514      -0.0110       2.5887       0.0000      17.2553
   1518.8326    3567.9922      16.7458       0.0000
4888.9920
   4888.9920       8.5000    4888.5857      79.6114       7.3623    7044.5481
      8.9740       8.9740     617.2354     781.9931       4.4906     488.5891
    375.2245    6752.3530      -0.0164       2.5857       0.0000      17.0772
   1545.0348    3609.7314      16.5730       0.0000
4888.8396
   4888.8396       8.5000    4888.4314      77.5847       7.3471    7072.6940
      8.9705       8.9705     619.9821     798.7043       4.5927     490.4613
    377.6485    6701.1872      -0.0271       2.5800       0.0000      16.7301
   1572.0709    3633.5265      16.2344       0.0000
4888.6872
   4888.6872       8.5000    4888.2790      75.4155       7.3514    7094.0134
      8.9681       8.9681     620.0719     815.7958       4.7601     494.3314
    373.5426    6684.6201      -0.0326       2.5755       0.0000      16.4599
   1584.2563    3630.6326      15.9705       0.0000
4888.5348
   4888.5348       8.5000    4888.1247      74.8956       7.3603    7109.1081
      8.9660       8.9660     625.0799     818.5257       4.8118     496.1629
    371.2345    6727.4001      -0.0282       2.5743       0.0000      16.2589
   1587.9012    3615.7183      15.7745       0.0000
4888.3824
   4888.3824       8.5000    4887.9703      75.8236       7.3814    7122.8875
      8.9657       8.9657     633.9754     801.9931       4.5714     495.7853
    379.2407    6771.7187      -0.0207       2.5771       0.0000      16.1633
   1589.0203    3607.1667      15.6808       0.0000
4888.2300
   4888.2300       8.5000    4887.8169      76.7201       7.4292    7138.0674
      8.9693       8.9693     638.1908     785.3589       4.3272     500.5007
    386.7261    6754.6522      -0.0207       2.5813       0.0000      16.3467
   1577.0585    3601.1082      15.8585       0.5787
4888.0776
   4888.0776       8.5000    4887.6635      77.1723       7.4918    7158.5558
      8.9757       8.9757     633.0785     783.8728       4.4379     511.1506
    379.7437    6694.3815      -0.0277       2.5838       0.0000      16.6540
   1553.3714    3581.7244      16.1561       0.0000
4887.9252
   4887.9252       8.5000    4887.5102      78.4078       7.5375    7175.1213
      8.9797       8.9797     621.4285     798.1882       4.8708     510.9957
    363.4245    6661.4340      -0.0328       2.5829       0.0000      16.9261
   1526.0622    3548.8040      16.4207       0.0000
4887.7728
   4887.7728       8.5000    4887.3558      80.2106       7.5502    7176.2855
      8.9808       8.9808     612.5852     814.2918       5.3103     497.8673
    349.4242    6682.6515      -0.0312       2.5801       0.0000      17.1935
   1497.5966    3511.4155      16.6827       0.0000
4887.6204
   4887.6204       8.5000    4887.2015      81.3609       7.5309    7178.5119
      8.9839       8.9839     610.2375     817.9021       5.4343     492.4107
    345.6650    6737.2278      -0.0239       2.5788       0.0000      17.6177
   1459.1386    3465.4481      17.0975       0.0000
4887.4680
   4887.4680       8.5000    4887.0481      83.2253       7.4974    7205.8883
      8.9898       8.9898     608.6506     804.9692       5.2221     494.9312
    350.8905    6791.0111      -0.0139       2.5820       0.0000      18.0491
   1412.9649    3399.0381      17.5174       0.0000
4887.3156
   4887.3156       8.5000    4886.8937      89.2414       7.4781    7240.9411
      8.9939       8.9939     602.7564     788.2557       4.9148     492.8679
    357.3102    6798.3673      -0.0085       2.5884       0.0000      18.2714
   1371.7463    3321.4346      17.7330       0.0000
4887.1632
   4887.1632       8.5000    4886.7394      98.1410       7.4869    7246.1016
      8.9931       8.9931     597.3995     773.1400       4.6669     493.7108
    362.1525    6763.4278      -0.0093       2.5943       0.0000      18.2941
   1349.6263    3270.0385      17.7559       0.0000
4887.0108
   4887.0107       8.5000    4886.5859     103.7605       7.5105    7213.5361
      8.9881       8.9881     600.2073     764.7699       4.5535     502.3387
    364.9304    6729.0342      -0.0129       2.5957       0.0000      18.3666
   1346.6829    3269.7715      17.8308       0.0000
4886.8584
   4886.8584       8.5000    4886.4326     103.2500       7.5318    7164.2393
      8.9822       8.9822     610.8596     769.2468       4.6570     507.4909
    361.6189    6718.7305      -0.0173       2.5912       0.0000      18.2045
   1364.9827    3298.5742      17.6755       0.0000
4886.7060
   4886.7061       8.5000    4886.2793      99.8006       7.5430    7115.8867
      8.9785       8.9785     625.0266     787.8016       4.9802     507.5837
    353.9148    6706.5586      -0.0252       2.5825       0.0000      17.5658
   1400.3262    3320.5645      17.0502       0.0000
4886.5536
   4886.5536       8.5000    4886.1249      96.6058       7.5459    7075.9454
      8.9750       8.9750     633.2906     811.1233       5.3170     504.1361
    348.3561    6678.2303      -0.0351       2.5745       0.0000      17.2182
   1420.4085    3333.0011      16.7109       0.0000
4886.4012
   4886.4012       8.5000    4885.9705      93.5447       7.5367    7061.7499
      8.9704       8.9704     632.1001     820.2994       5.4563     494.2685
    345.6757    6645.0025      -0.0412       2.5731       0.0000      17.5053
   1414.8397    3348.9721      16.9963       0.0000
4886.2488
   4886.2488       8.5000    4885.8172      90.4810       7.5082    7092.4690
      8.9688       8.9688     625.7776     799.5793       5.3458     483.0070
    342.4373    6634.9950      -0.0375       2.5804       0.0000      17.6544
   1413.7822    3361.5158      17.1440       0.0000
4886.0964
   4886.0964       8.5000    4885.6638      87.8816       7.4770    7147.7750
      8.9724       8.9724     616.8709     765.4475       5.1091     479.6838
    340.9490    6641.6993      -0.0283       2.5914       0.0000      17.2684
   1429.6369    3359.7590      16.7621       0.0000
4885.9440
   4885.9440       8.5000    4885.5104      86.1956       7.4697    7184.6620
      8.9767       8.9767     606.4491     752.0849       5.0317     480.4727
    340.1199    6642.3043      -0.0235       2.5974       0.0000      17.1169
   1434.0234    3354.5054      16.6102       0.0000
4885.7916
   4885.7916       8.5000    4885.3570      85.4005       7.4874    7189.2799
      8.9784       8.9784     600.2657     760.5827       5.1602     482.4356
    335.8022    6650.7093      -0.0228       2.5960       0.0000      17.5217
   1417.7669    3357.5312      17.0069       0.0000
