~VERSION INFORMATION
VERS.           2.0   :CWLS Log ASCII Standard - VERSION 2.0
WRAP.           NO    :One Line per depth step
PROD.  Schlumberger   :LAS Producer
PROG.  DLIS to ASCII 2.3                               :LAS Program name and version
CREA.        2023/07/14 00:15                          :LAS Creation date {YYYY/MM/DD hh:mm}
DLIS_CREA.  2023-Jul-14 00:11                          :DLIS Creation date and time {YYYY-MMM-DD hh:mm}
SOURCE.     LIS_001.dlis                               :DLIS File Name
FILE-ID.     LIS   .001                                :File Identification Number
#--------------------------------------------------
~WELL INFORMATION
#MNEM.UNIT      DATA             DESCRIPTION
#---- ------ --------------   -----------------------------
STRT .M      5244.5412       :START DEPTH     
STOP .M      5059.0704       :STOP DEPTH     
STEP .M        -0.1524       :STEP     
NULL .          -999.25      :NULL VALUE
COMP .        PETROBRAS S.A.                           :COMPANY
WELL .        3-BRSA-293D-SPS                          :WELL
FLD  .        BS-400                                   :FIELD
LOC  .        BASE SAD 69:                             :LOCATION
CNTY .        SANTOS                                   :COUNTY
STAT .        BRASIL                                   :STATE
CTRY .        BRASIL                                   :COUNTRY
API  .                                                 :API NUMBER
UWI  .                                                 :UNIQUE WELL ID
DATE .        22/10/2004                               :LOG DATE
SRVC .        Schlumberger                             :SERVICE COMPANY
LATI .DEG                                              :LATITUDE
LONG .DEG                                              :LONGITUDE
GDAT .                                                 :GeoDetic Datum
#-----------------------------------------------------------------------------
~PARAMETER INFORMATION
#MNEM.UNIT    VALUE                      DESCRIPTION
#---- -----   --------------------       ------------------------
APD  .M               24                 :
BHT  .DEGF           260                 :
BLI  .M       5227.50000                 :
BS   .IN         8.50000                 :
CN   .        PETROBRAS S.A.             :
COUN .        SANTOS                     :
CS   .IN         9.62500                 :
DATE .        22/10/2004                 :
DFD  .LB/G      12.30000                 :
DFL  .C3               2                 :
DFPH .        N/A                        :
DFT  .        SINTETICO                  :
DFV  .S               87                 :
DMF  .        MESA ROTATIVA              :
EDF  .M               24                 :
EGL  .M             -500                 :
EKB  .        N/A                        :
ENGI .        HERNANDEZ/LOCK             :
FL1  .        X   7292392.00 M LAT 24 28 47.189 S :
FL2  .        Y    584087.00 M LON 44 10 12.698 W :
FL3  .        MC  45 GRAUS               :
FN   .        BS-400                     :
LMF  .        MESA ROTATIVA              :
LUL  .        MACAE                      :
MCSS .        PRENSA                     :
MCST .DEGF            80                 :
MFSS .        PRENSA                     :
MFST .DEGF            80                 :
MSS  .        LINHA DE FLUXO             :
MST  .DEGF            80                 :
PDAT .        NIVEL DO MAR               :
R1   .        01. APRESENTAÇÃO DE ACORDO COM REQUERIMENTO DO CLIENTE :
R2   .        02. TEMPERATURA MÁXIMA DO POÇO T1=T2= 260 DEGF @  5180 M :
R3   .        03. INICIO DA CIRCULAÇÃO  13 45 H 21/10/2004 :
R4   .        04. FINAL DA CIRCULAÇÃO   16 00 H 21/10/2004 :
R5   .        05. TEMPO TOTAL DE CIRCULAÇÃO  02 15 H :
R6   .        06. FLUIDO DE PERFURAÇÃO  SINTETICO (BR-MUL  BR-MI)  65% TEOR DO OLEO :
R7   .        07. SALINIDADE DA LAMA  266377 PPM NACL NA FASE DE AGUA :
R8   .        08. INCLINAÇÃO MÁXIMA DO POÇO  37.37 GRAUS @ 5100 M :
R9   .        09. PRIMEIRAS E ULTIMAS LEITURAS  :
RMB  .OHMM    > 10                       :
RMCS .OHMM    > 10                       :
RMFS .OHMM    > 10                       :
RMS  .OHMM    > 10                       :
RUN  .                 1                 :
STAT .        BRASIL                     :
TCS  .        16 00 H                    :
TDD  .M             5230                 :
TDL  .M             5231                 :
TLAB .        N/A                        :
TLI  .M             3850                 :
WITN .        ALCIDIO/VLADIMIR           :
WN   .        3-BRSA-293D-SPS            :
LUN  .              8808                 :
HIDE .        3-SPS-41D                  :
HID2 .        HIGH DEFINITION INDUCTION LOG :
HID3 .        X-MULTIPOLE ARRAY ACOUSTILOG :
HID4 .        GAMMA RAY LOG              :
HID5 .        TTRM SUB                   :
CLAB .        BACIA                      :
SLAB .        PAIS                       :
CMT1 .        ESC  1 1000                :
CMT2 .        PROF. MEDIDA               :
CMT4 .        SONDA  SS-43               :
HDAT .        SAD 69                     :
FL   .        BASE SAD 69                :
OS1  .        GR/CN/ZDL                  :
OS2  .        MREX/GR                    :
OS3  .        RCI/GR                     :
0S4  .        3DEX/GR                    :
OS5  .        SL/GR                      :
LNAM .        MREX/ZDL/CN/XMAC/HDIL/RCI/3DEX/SL/GR :
TOOL .        MREX/ZDL/CN/XMAC/HDIL/RCI/3DEX/SL/GR :
LSOU .        PETROBRAS                  :
LSRV .        OH WIRELINE                :
LTYP .        RAW                        :
EPD  .M                0                 :
LDAT .        22/10/2004                 :
TRIP .                 1                 :
SON  .            772317                 :
CBDR .M             4277                 :
CBLO .M             4277                 :
CBL1 .M             4277                 :
STEM .DEGF    N/A                        :
BSAL .            266377                 :
BARI .        OFF                        :
DLAB .        21/10/2004                 :
MRT  .DEGF           260                 :
TSTR .        HDIL/XMAC/GR/TTRM          :
TSTG .        N/A                        :
STUS .        FINAL                      :
LCNM .        BAKER ATLAS                :
LCC  .               150                 :
NATI .        BRASIL                     :
OPMD .        OH.WIRELINE                :
PANA .        HERNANDEZ/LOCK             :
PCON .        BAKER ATLAS                :
R11  .        SL     5196.0 M/4960.0 M   :
R12  .        GR     4960.0 M/4277.0 M   :
R13  .        XMAC   5202.0 M/3850.0 M   :
R14  .        HDIL   5227.5 M/4277.0 M   :
R15  .        3DEX   5217.0 M/4960.0 M   :
R17  .        10. PONTO FRACO UTILIZADO  10K :
R18  .        11. DECLINAÇÃO MAGNETICA  -20.9 GRAUS :
R19  .        12. COORDENADAS ARATU      :
R21  .        X   7292512.00 M           :
R22  .        Y    583936.00 M           :
R23  .        MC  45 GRAUS               :
R25  .        13. CADASTRO ANP  86316021017 :
PVER .           4.10000                 :
WDFN .        /space/expusr/3-SPS-41D/i77bf02_2spf.xtf :
OCT  .        i77bf                      :
#-----------------------------------------------------------------------------
~CURVE INFORMATION
#MNEM.UNIT   API CODE                                  DESCRIPTION
#---- -----  --------                                  -----------------------
DEPT .M                                                :DEPTH (BOREHOLE) {F10.4}
DEPT .M                                                : {F13.4}
DT   .US/F                                             : {F13.4}
SFN1 .US                                               : {F13.4}
SFN2 .US                                               : {F13.4}
SFN3 .US                                               : {F13.4}
SFN4 .US                                               : {F13.4}
TT   .MS                                               : {F13.4}
#-----------------------------------------------------------------------------
# 
#     DEPT        DEPT         DT           SFN1         SFN2         SFN3         SFN4         TT
#
~A  
# ...
 5075.9868    5075.9868      69.8225     696.5004     729.8758     768.0000     801.3746      31.2274
 5075.8344    5075.8344      69.8478     696.6247     730.1243     768.0000     801.2503      31.2621
 5075.6820    5075.6820      69.8748     696.5003     730.1250     768.0000     801.2500      31.2970
 5075.5296    5075.5296      69.8748     696.5000     730.1250     768.0000     801.3748      31.2971
 5075.3772    5075.3772    -999.2500     696.3752     730.1250     768.0000     801.3750    -999.2500
 5075.2248    5075.2248    -999.2500     696.3750     730.0002     768.0000     801.3750    -999.2500
 5075.0724    5075.0724    -999.2500     696.4999     730.1249     768.0000     801.4999    -999.2500
 5074.9200    5074.9200    -999.2500     696.3751     730.0001     768.0000     801.2501    -999.2500
 5074.7676    5074.7676    -999.2500     696.3750     729.8750     768.0000     801.3750    -999.2500
 5074.6152    5074.6152    -999.2500     696.5000     730.2500     768.0000     801.2500    -999.2500
 5074.4628    5074.4628    -999.2500     696.3750     730.1249     767.8751     801.1250    -999.2500
 5074.3104    5074.3104    -999.2500     696.3751     730.0000     767.9999     801.1252    -999.2500
 5074.1580    5074.1580    -999.2500     696.4998     730.0002     767.8752     801.3747    -999.2500
 5074.0056    5074.0056    -999.2500     696.3750     730.1246     768.0000     801.1254    -999.2500
 5073.8532    5073.8532    -999.2500     696.3753     729.8742     768.0000     801.3750    -999.2500
 5073.7008    5073.7008    -999.2500     696.5000     729.5012     767.9997     801.3744    -999.2500
 5073.5484    5073.5484    -999.2500     696.5000     729.9996     767.8754     801.1250    -999.2500
 5073.3960    5073.3960    -999.2500     696.5000     729.8754     768.0000     801.1254    -999.2500
 5073.2436    5073.2436    -999.2500     696.5000     730.0000     768.0000     801.2504    -999.2500
 5073.0912    5073.0912    -999.2500     696.5000     730.0000     768.0000     801.3747    -999.2500
 5072.9388    5072.9388    -999.2500     696.3753     730.0000     768.0000     801.1255    -999.2500
 5072.7864    5072.7864    -999.2500     696.4998     729.8752     768.0000     801.3746    -999.2500
 5072.6340    5072.6340    -999.2500     696.5000     729.9998     768.0000     801.2502    -999.2500
 5072.4816    5072.4816    -999.2500     696.5000     730.0000     768.0000     801.4997    -999.2500
 5072.3292    5072.3292    -999.2500     696.3751     730.0000     768.0000     801.1252    -999.2500
 5072.1768    5072.1768    -999.2500     696.3750     729.7500     768.0000     801.1250    -999.2500
 5072.0244    5072.0244    -999.2500     696.5000     729.8750     768.0000     801.3750    -999.2500
 5071.8720    5071.8720    -999.2500     696.5000     729.8751     768.0000     801.1251    -999.2500
 5071.7196    5071.7196    -999.2500     696.4999     729.9999     768.0000     801.2500    -999.2500
 5071.5672    5071.5672    -999.2500     696.3751     729.8749     768.0000     801.2499    -999.2500
 5071.4148    5071.4148    -999.2500     696.5000     729.7504     767.9998     801.1248    -999.2500
 5071.2624    5071.2624    -999.2500     696.4998     729.9998     767.8752     801.0002    -999.2500
 5071.1100    5071.1100    -999.2500     696.3753     729.8750     768.0000     801.1256    -999.2500
 5070.9576    5070.9576    -999.2500     696.5000     729.8750     767.9997     801.3750    -999.2500
 5070.8052    5070.8052    -999.2500     696.5000     729.8750     767.8754     801.3746    -999.2500
 5070.6528    5070.6528    -999.2500     696.4996     729.8750     768.0000     801.2500    -999.2500
 5070.5004    5070.5004    -999.2500     696.3753     729.8750     768.0000     801.2500    -999.2500
 5070.3480    5070.3480    -999.2500     696.3750     729.8750     768.0000     801.2500    -999.2500
 5070.1956    5070.1956    -999.2500     696.4998     729.7502     768.0000     801.2500    -999.2500
 5070.0432    5070.0432    -999.2500     696.5000     729.7500     768.0000     801.2500    -999.2500
 5069.8908    5069.8908    -999.2500     696.5000     729.8749     768.0000     801.1251    -999.2500
 5069.7384    5069.7384    -999.2500     696.5000     729.8750     768.0000     801.2499    -999.2500
 5069.5860    5069.5860    -999.2500     696.3751     729.8750     768.0000     801.3749    -999.2500
 5069.4336    5069.4336    -999.2500     696.3750     729.7500     768.0000     801.2500    -999.2500
 5069.2812    5069.2813    -999.2500     696.5000     729.7500     768.0000     801.1250    -999.2500
 5069.1288    5069.1288    -999.2500     696.3750     729.8748     768.0000     801.3748    -999.2500
 5068.9764    5068.9764    -999.2500     696.3751     729.6251     768.0000     801.1250    -999.2500
 5068.8240    5068.8240    -999.2500     696.5000     729.7496     768.0000     801.1250    -999.2500
 5068.6716    5068.6716    -999.2500     696.4998     729.5002     768.0000     801.1252    -999.2500
 5068.5192    5068.5192    -999.2500     696.3750     729.6255     768.0000     801.2497    -999.2500
 5068.3668    5068.3668    -999.2500    -999.2500     729.8750     768.0000     801.1250    -999.2500
 5068.2144    5068.2144    -999.2500    -999.2500    -999.2500     768.0000     801.1254    -999.2500
 5068.0620    5068.0620    -999.2500    -999.2500    -999.2500    -999.2500     801.2500    -999.2500
 5067.9096    5067.9096    -999.2500    -999.2500    -999.2500    -999.2500    -999.2500    -999.2500
 5067.7572    5067.7572    -999.2500    -999.2500    -999.2500    -999.2500    -999.2500    -999.2500
 5067.6048    5067.6048    -999.2500    -999.2500    -999.2500    -999.2500    -999.2500    -999.2500
 5067.4524    5067.4524    -999.2500    -999.2500    -999.2500    -999.2500    -999.2500    -999.2500
 5067.3000    5067.3000    -999.2500    -999.2500    -999.2500    -999.2500    -999.2500    -999.2500
 5067.1476    5067.1476    -999.2500    -999.2500    -999.2500    -999.2500    -999.2500    -999.2500
 5066.9952    5066.9952    -999.2500    -999.2500    -999.2500    -999.2500    -999.2500    -999.2500
 5066.8428    5066.8428    -999.2500    -999.2500    -999.2500    -999.2500    -999.2500    -999.2500
 5066.6904    5066.6904    -999.2500    -999.2500    -999.2500    -999.2500    -999.2500    -999.2500
 5066.5380    5066.5380    -999.2500    -999.2500    -999.2500    -999.2500    -999.2500    -999.2500
 5066.3856    5066.3856    -999.2500    -999.2500    -999.2500    -999.2500    -999.2500    -999.2500
 5066.2332    5066.2332    -999.2500    -999.2500    -999.2500    -999.2500    -999.2500    -999.2500
 5066.0808    5066.0808    -999.2500    -999.2500    -999.2500    -999.2500    -999.2500    -999.2500
 5065.9284    5065.9284    -999.2500    -999.2500    -999.2500    -999.2500    -999.2500    -999.2500
 5065.7760    5065.7760    -999.2500    -999.2500    -999.2500    -999.2500    -999.2500    -999.2500
 5065.6236    5065.6236    -999.2500    -999.2500    -999.2500    -999.2500    -999.2500    -999.2500
 5065.4712    5065.4712    -999.2500    -999.2500    -999.2500    -999.2500    -999.2500    -999.2500
 5065.3188    5065.3188    -999.2500    -999.2500    -999.2500    -999.2500    -999.2500    -999.2500
 5065.1664    5065.1664    -999.2500    -999.2500    -999.2500    -999.2500    -999.2500    -999.2500
 5065.0140    5065.0140    -999.2500    -999.2500    -999.2500    -999.2500    -999.2500    -999.2500
 5064.8616    5064.8616    -999.2500    -999.2500    -999.2500    -999.2500    -999.2500    -999.2500
 5064.7092    5064.7092    -999.2500    -999.2500    -999.2500    -999.2500    -999.2500    -999.2500
 5064.5568    5064.5568    -999.2500    -999.2500    -999.2500    -999.2500    -999.2500    -999.2500
 5064.4044    5064.4044    -999.2500    -999.2500    -999.2500    -999.2500    -999.2500    -999.2500
 5064.2520    5064.2520    -999.2500    -999.2500    -999.2500    -999.2500    -999.2500    -999.2500
 5064.0996    5064.0996    -999.2500    -999.2500    -999.2500    -999.2500    -999.2500    -999.2500
