~VERSION INFORMATION
VERS.           2.0   :CWLS Log ASCII Standard - VERSION 2.0
WRAP.           NO    :One Line per depth step
PROD.  Schlumberger   :LAS Producer
PROG.  DLIS to ASCII 2.3                               :LAS Program name and version
CREA.        2023/07/14 00:15                          :LAS Creation date {YYYY/MM/DD hh:mm}
DLIS_CREA.  2023-Jul-14 00:11                          :DLIS Creation date and time {YYYY-MMM-DD hh:mm}
SOURCE.     LIS_008.dlis                               :DLIS File Name
FILE-ID.     LIS   .001                                :File Identification Number
#--------------------------------------------------
~WELL INFORMATION
#MNEM.UNIT      DATA             DESCRIPTION
#---- ------ --------------   -----------------------------
STRT .M      5286.4512       :START DEPTH     
STOP .M      5066.6904       :STOP DEPTH     
STEP .M        -0.1524       :STEP     
NULL .          -999.25      :NULL VALUE
COMP .        PETROBRAS S.A.                           :COMPANY
WELL .        3-BRSA-293D-SPS                          :WELL
FLD  .        BS-400                                   :FIELD
LOC  .        BASE SAD 69:                             :LOCATION
CNTY .        SANTOS                                   :COUNTY
STAT .        BRASIL                                   :STATE
CTRY .        BRASIL                                   :COUNTRY
API  .                                                 :API NUMBER
UWI  .                                                 :UNIQUE WELL ID
DATE .        15/11/2004                               :LOG DATE
SRVC .        Schlumberger                             :SERVICE COMPANY
LATI .DEG                                              :LATITUDE
LONG .DEG                                              :LONGITUDE
GDAT .                                                 :GeoDetic Datum
#-----------------------------------------------------------------------------
~PARAMETER INFORMATION
#MNEM.UNIT    VALUE                      DESCRIPTION
#---- -----   --------------------       ------------------------
APD  .M               24                 :
BHT  .DEGF           260                 :
BLI  .M             5289                 :
BS   .IN         8.50000                 :
CN   .        PETROBRAS S.A.             :
COUN .        SANTOS                     :
CS   .IN         9.62500                 :
DATE .        15/11/2004                 :
DFD  .LB/G      12.30000                 :
DFL  .C3               2                 :
DFPH .        N/A                        :
DFT  .        SINTETICO                  :
DFV  .S               95                 :
DMF  .        MESA ROTATIVA              :
EDF  .M               24                 :
EGL  .M             -500                 :
EKB  .        N/A                        :
ENGI .        HERNANDEZ / LOCK           :
FL1  .        X   7292392.00 M LAT 24 28 47.189 S :
FL2  .        Y    584087.00 M LON 44 10 12.698 W :
FL3  .        MC  45 GRAUS               :
FN   .        BS-400                     :
LMF  .        MESA ROTATIVA              :
LUL  .        MACAE                      :
MCSS .        PRENSA                     :
MCST .DEGF            80                 :
MFSS .        PRENSA                     :
MFST .DEGF            80                 :
MSS  .        LINHA DE FLUXO             :
MST  .DEGF            80                 :
PDAT .        NIVEL DO MAR               :
R1   .        01. APRESENTAÇÃO DE ACORDO COM REQUERIMENTO DO CLIENTE :
R2   .        02. TEMPERATURA MÁXIMA DO POÇO T1=T2= 290 DEGF @  5275 M :
R3   .        03. INICIO DA CIRCULAÇÃO  12/11/2004 09 00 H :
R4   .        04. FINAL DA CIRCULAÇÃO   12/11/2004 18 00 H :
R5   .        05. TEMPO TOTAL DE CIRCULAÇÃO   09 00 H :
R6   .        06. FLUIDO DE PERFURAÇÃO  SINTETICO (BR-MUL  BR-MI)  60% TEOR DO OLEO :
R7   .        07. SALINIDADE DA LAMA  254762 PPM NACL NA FASE DE AGUA :
R8   .        08. INCLINAÇÃO MÁXIMA DO POÇO  37.37 GRAUS @ 5100 M :
R9   .        09. PRIMEIRAS E ULTIMAS LEITURAS  :
RMB  .OHMM    > 10                       :
RMCS .OHMM    > 10                       :
RMFS .OHMM    > 10                       :
RMS  .OHMM    >10                        :
RUN  .                 2                 :
STAT .        BRASIL                     :
TCS  .        18 00 H                    :
TDD  .M             5288                 :
TDL  .M             5293                 :
TLAB .        N/A                        :
TLI  .M             5000                 :
WITN .        ERNANI / ZE MARIA          :
WN   .        3-BRSA-293D-SPS            :
LUN  .              8808                 :
HIDE .        3-SPS-41D                  :
HID2 .        HIGH DEFINITION INDUCTION LOG :
HID3 .        X-MULTIPOLE ARRAY ACOUSTILOG :
HID4 .        GAMMA RAY LOG              :
HID5 .        TTRM SUB                   :
CLAB .        BACIA                      :
SLAB .        PAIS                       :
CMT1 .        ESC  1 200                 :
CMT2 .        PROF. MEDIDA               :
CMT4 .        SONDA  SS-43               :
HDAT .        SAD 69                     :
FL   .        BASE SAD 69                :
OS1  .        RCI/GR                     :
OS2  .        CHECK SHOT                 :
OS3  .        GR/CN/ZDL                  :
OS5  .        RCOR/GR                    :
LNAM .        ZDL/CN/XMAC/HDIL/EARTH IMAGER/RCI/RCOR/CHECK SHOT/GR :
TOOL .        ZDL/CN/XMAC/HDIL/EARTH IMAGER/RCI/RCOR/CHECK SHOT/GR :
LSOU .        PETROBRAS                  :
LSRV .        OH WIRELINE                :
LTYP .        RAW                        :
EPD  .M                0                 :
LDAT .        15/11/2004                 :
TRIP .                 3                 :
SON  .            786588                 :
CBDR .M             4277                 :
CBLO .        NR                         :
CBL1 .        NR                         :
STEM .DEGF    N/A                        :
BSAL .            254762                 :
BARI .        OFF                        :
DLAB .        12/11/2004                 :
MRT  .DEGF           290                 :
TSTR .        HDIL/XMAC/GR/TTRM          :
TSTG .        N/A                        :
STUS .        FINAL                      :
LCNM .        BAKER ATLAS                :
LCC  .               150                 :
NATI .        BRASIL                     :
OPMD .        OH.WIRELINE                :
PANA .        HERNANDEZ / LOCK           :
PCON .        BAKER ATLAS                :
R11  .        SL     5268.3 M / 5000.0 M :
R12  .        GR     5268.3 M / 5000.0 M :
R13  .        XMAC   5279.5 M / 5000.0 M :
R14  .        HDIL   5289.0 M / 5000.0 M :
R17  .        11. DECLINAÇÃO MAGNETICA  -20.9 GRAUS :
R18  .        12. COORDENADAS BASE       :
R21  .        Y    583936.00 M           :
R22  .        MC  45 GRAUS               :
PVER .           4.10000                 :
WDFN .        /space/expusr/3-SPS-41D_RUN2/i77bf01_2spf.xtf :
OCT  .        i77bf                      :
OS4  .        EARTH IMAGER               :
R16  .        10. PONTO FRACO UTILIZADO  10K :
R20  .        X   7292512.00 M           :
R24  .        13. CADASTRO ANP  86316021017 :
#-----------------------------------------------------------------------------
~CURVE INFORMATION
#MNEM.UNIT   API CODE                                  DESCRIPTION
#---- -----  --------                                  -----------------------
DEPT .M                                                :DEPTH (BOREHOLE) {F10.4}
DEPT .M                                                : {F13.4}
DT   .US/F                                             : {F13.4}
SFN1 .US                                               : {F13.4}
SFN2 .US                                               : {F13.4}
SFN3 .US                                               : {F13.4}
SFN4 .US                                               : {F13.4}
TT   .MS                                               : {F13.4}
#-----------------------------------------------------------------------------
# 
#     DEPT        DEPT         DT           SFN1         SFN2         SFN3         SFN4         TT
#
~A  
# ...
 5250.3324    5250.3324      62.4549     663.9924     688.1271     723.4979     752.0000       7.2778
 5250.1800    5250.1800      62.9286     670.1124     695.8591     723.0010     753.2474       7.3093
 5250.0276    5250.0276      64.2255     674.4926     699.3691     727.4924     753.3748       7.3414
 5249.8752    5249.8752      65.8823     672.1281     705.4920     734.7405     759.6168       7.3744
 5249.7228    5249.7228      67.2327     672.7494     707.1235     744.1162     769.1160       7.4080
 5249.5704    5249.5704      67.7225     675.1236     707.9995     745.9989     777.7450       7.4419
 5249.4180    5249.4180      67.1583     678.5000     709.7500     745.2500     776.0000       7.4755
 5249.2656    5249.2656      65.6984     680.3750     712.0000     744.3750     776.0000       7.5083
 5249.1132    5249.1132      63.7026     680.0001     843.4297     744.0000     775.1961       7.5402
 5248.9608    5248.9608      61.5244     680.1249     711.6205     744.0002     908.3804       7.5710
 5248.8084    5248.8084      59.4947     679.9937     706.6217     744.2396     775.6057       7.6007
 5248.6560    5248.6560      58.0254     675.0237     704.0124     736.0391     465.4785       7.6296
 5248.5036    5248.5036      57.4645     671.2665     697.5286     735.2533     761.0621       7.6583
 5248.3512    5248.3512      58.0064     664.0292     695.8816     729.1497     760.1341       7.6873
 5248.1988    5248.1988      59.5985     651.0476     688.7761     726.3851     755.1433       7.7171
 5248.0464    5248.0464      62.0526     648.0099     678.2846     720.0210     751.1382       7.7482
 5247.8940    5247.8940      64.9278     649.8695     679.9949     714.8900     747.7599       7.7807
 5247.7416    5247.7416      67.3382     655.1116     685.7353     719.9869     749.4955       7.8143
 5247.5892    5247.5892      68.2670     662.7333     688.6187     724.8643     753.7407       7.8485
 5247.4368    5247.4368      67.2586     663.9977     696.7352     729.2421     760.2382       7.8821
 5247.2844    5247.2844      64.9483     665.1234     696.0011     728.3763     760.7493       7.9146
 5247.1320    5247.1320      62.7147     661.2542     691.8794     728.0004     757.3786       7.9460
 5246.9796    5246.9796      61.6407     656.0037     688.0027     726.6260     757.2501       7.9768
 5246.8272    5246.8271      61.7862     652.5000     684.6250     723.0000     755.2500       8.0077
 5246.6748    5246.6748      62.3713     649.8750     682.1250     718.2500     753.5000       8.0389
 5246.5224    5246.5224      62.6378     651.6254     680.2500     718.1236     747.8745       8.0702
 5246.3700    5246.3700      62.3965     652.7480     680.3755     714.6251     746.6230       8.1015
 5246.2176    5246.2176      61.9684     650.1316     680.9989     714.7500     744.0003       8.1324
 5246.0652    5246.0652      61.8737     655.9714     680.0049     714.7500     744.2488       8.1632
 5245.9128    5245.9128      62.4588     656.7466     684.3552     712.6346     744.2500       8.1944
 5245.7604    5245.7604      63.7840     659.7375     687.4870     718.4755     744.0010       8.2263
 5245.6080    5245.6080      65.6037     660.9953     688.3717     721.8622     750.4753       8.2592
 5245.4556    5245.4556      67.3530     661.9966     692.9842     730.4705     760.4657       8.2928
 5245.3032    5245.3032      68.3547     669.1032     695.3677     734.8616     767.9771       8.3270
 5245.1508    5245.1508      68.1368     676.1062     705.2235     735.9970     768.9973       8.3611
 5244.9984    5244.9984      66.7376     669.3906     707.3701     744.1062     770.7459       8.3945
 5244.8460    5244.8460      64.7886     664.8838     697.6440     739.3843     775.9898       8.4269
 5244.6936    5244.6936      63.2420     664.0014     696.0026     732.3861     769.1359       8.4585
 5244.5412    5244.5412      62.8734     665.1236     691.2557     728.0053     760.8850       8.4900
 5244.3888    5244.3888      63.7819     670.9951     697.4947     724.1283     757.2530       8.5219
 5244.2364    5244.2364      65.3127     672.7492     703.9969     737.9935     760.4985       8.5546
 5244.0840    5244.0840      66.4770     675.5000     706.7500     743.2500     772.8750       8.5878
 5243.9316    5243.9316      66.5563     679.8750     709.1250     744.8750     776.0000       8.6211
 5243.7792    5243.7792      65.4967     680.8746     711.9993     744.4997     775.0002       8.6539
 5243.6268    5243.6268      63.8704     680.2497     710.8736     744.0000     775.3747       8.6858
 5243.4744    5243.4744      62.4710     680.0000     709.5014     743.9998     775.1211       8.7170
 5243.3220    5243.3220      61.8846     680.0000     710.4954     743.8756     772.2633       8.7478
 5243.1696    5243.1696      62.2193     680.0000     708.3841     742.7548     770.8809       8.7789
 5243.0172    5243.0172      63.1181     680.0000     711.4877     749.8470     774.2367       8.8105
 5242.8648    5242.8648      64.0389     680.0000     711.5000     751.2451     780.1041       8.8425
 5242.7124    5242.7124      64.6330     680.0000     711.6246     751.3746     777.2592       8.8749
 5242.5600    5242.5600      64.8345     680.0000     711.8743     751.3750     777.2500       8.9073
 5242.4076    5242.4076      64.6095     683.3667     711.9997     751.6244     777.2500       8.9396
 5242.2552    5242.2552      63.8411     679.0091     708.0083     751.7497     777.3747       8.9715
 5242.1028    5242.1028      62.5638     685.2393     711.9931     744.0133     777.1254       9.0028
 5241.9504    5241.9504      61.2502     685.9990     712.4993     746.2470     781.7438       9.0335
 5241.7980    5241.7980      60.7332     682.2537     712.0005     739.8812     768.1383       9.0638
 5241.6456    5241.6456      61.4619     680.0014     707.1280     741.1242     776.1202       9.0946
 5241.4932    5241.4932      62.9161     686.8750     716.6250     750.2500     780.0000       9.1261
 5241.3408    5241.3408      63.9305     686.2500     720.0000     753.8750     784.7500       9.1580
 5241.1884    5241.1884      63.6439     685.7498     719.6229     756.4977     788.8730       9.1899
 5241.0360    5241.0360      62.1878     685.3749     715.4991     751.9944     784.8691       9.2210
 5240.8836    5240.8836      60.4442     685.2502     714.5000     745.6230     778.1224       9.2512
 5240.7312    5240.7312      59.2406     685.3744     714.5000     744.0078     776.0101       9.2806
 5240.5788    5240.5788      58.7690     685.4994     714.5000     744.0000     775.3778       9.3100
 5240.4264    5240.4264      58.8097     685.2510     714.3755     744.0000     775.7485       9.3394
 5240.2740    5240.2740      59.1326     685.1255     714.2505     744.0000     775.7500       9.3690
 5240.1216    5240.1216      59.6894     852.1930     714.1254     744.0000     775.5008       9.3989
 5239.9692    5239.9692      60.4925     589.1559     708.0181     744.0000     775.6246       9.4291
 5239.8168    5239.8168      61.3615     587.5023     730.6912     744.0000     775.6250       9.4598
 5239.6644    5239.6644      61.8997     700.6238     734.3670     765.3276     775.6250       9.4908
 5239.5120    5239.5120      61.7285     702.6218     734.2502     772.9859     797.3348       9.5217
 5239.3596    5239.3596      60.7857     707.9921     734.0004     769.6300     810.6054       9.5521
 5239.2072    5239.2072      59.3949     708.0000     733.2508     765.3797     797.6394       9.5818
 5239.0548    5239.0548      58.0699     708.2498     733.3749     764.6256     794.2525       9.6108
 5238.9024    5238.9023      57.3556     708.5000     733.3750     764.6250     792.8750       9.6395
 5238.7500    5238.7500      57.6012     700.8750     733.2500     764.6250     790.8750       9.6683
 5238.5976    5238.5977      58.7990     696.7500     728.3750     764.5000     791.0000       9.6977
 5238.4452    5238.4452      60.5524     699.2500     730.8733     760.3761     790.8772       9.7280
