~VERSION INFORMATION
VERS.           2.0   :CWLS Log ASCII Standard - VERSION 2.0
WRAP.           NO    :One Line per depth step
PROD.  Schlumberger   :LAS Producer
PROG.  DLIS to ASCII 2.3                               :LAS Program name and version
CREA.        2023/07/14 00:15                          :LAS Creation date {YYYY/MM/DD hh:mm}
DLIS_CREA.  2023-Jul-14 00:11                          :DLIS Creation date and time {YYYY-MMM-DD hh:mm}
SOURCE.     LIS_011.dlis                               :DLIS File Name
FILE-ID.     LIS   .004                                :File Identification Number
#--------------------------------------------------
~WELL INFORMATION
#MNEM.UNIT      DATA             DESCRIPTION
#---- ------ --------------   -----------------------------
STRT .M      5300.3196       :START DEPTH     
STOP .M      4931.0544       :STOP DEPTH     
STEP .M        -0.1524       :STEP     
NULL .          -999.25      :NULL VALUE
COMP .        PETROBRAS S.A.                           :COMPANY
WELL .        3-BRSA-293D-SPS                          :WELL
FLD  .        BS-400                                   :FIELD
LOC  .        BASE SAD 69:                             :LOCATION
CNTY .        SANTOS                                   :COUNTY
STAT .        BRASIL                                   :STATE
CTRY .        BRASIL                                   :COUNTRY
API  .                                                 :API NUMBER
UWI  .                                                 :UNIQUE WELL ID
DATE .        15/11/2004                               :LOG DATE
SRVC .        Schlumberger                             :SERVICE COMPANY
LATI .DEG                                              :LATITUDE
LONG .DEG                                              :LONGITUDE
GDAT .                                                 :GeoDetic Datum
#-----------------------------------------------------------------------------
~PARAMETER INFORMATION
#MNEM.UNIT    VALUE                      DESCRIPTION
#---- -----   --------------------       ------------------------
APD  .M               24                 :
BHT  .DEGF           260                 :
BLI  .M             5289                 :
BS   .IN         8.50000                 :
CN   .        PETROBRAS S.A.             :
COUN .        SANTOS                     :
CS   .IN         9.62500                 :
DATE .        15/11/2004                 :
DFD  .LB/G      12.30000                 :
DFL  .C3               2                 :
DFPH .        N/A                        :
DFT  .        SINTETICO                  :
DFV  .S               95                 :
DMF  .        MESA ROTATIVA              :
EDF  .M               24                 :
EGL  .M             -500                 :
EKB  .        N/A                        :
ENGI .        HERNANDEZ / LOCK           :
FL1  .        X   7292392.00 M LAT 24 28 47.189 S :
FL2  .        Y    584087.00 M LON 44 10 12.698 W :
FL3  .        MC  45 GRAUS               :
FN   .        BS-400                     :
LMF  .        MESA ROTATIVA              :
LUL  .        MACAE                      :
MCSS .        PRENSA                     :
MCST .DEGF            80                 :
MFSS .        PRENSA                     :
MFST .DEGF            80                 :
MSS  .        LINHA DE FLUXO             :
MST  .DEGF            80                 :
PDAT .        NIVEL DO MAR               :
R1   .        01. APRESENTAÇÃO DE ACORDO COM REQUERIMENTO DO CLIENTE :
R2   .        02. TEMPERATURA MÁXIMA DO POÇO T1=T2= 290 DEGF @  5275 M :
R3   .        03. INICIO DA CIRCULAÇÃO  12/11/2004 09 00 H :
R4   .        04. FINAL DA CIRCULAÇÃO   12/11/2004 18 00 H :
R5   .        05. TEMPO TOTAL DE CIRCULAÇÃO   09 00 H :
R6   .        06. FLUIDO DE PERFURAÇÃO  SINTETICO (BR-MUL  BR-MI)  60% TEOR DO OLEO :
R7   .        07. SALINIDADE DA LAMA  254762 PPM NACL NA FASE DE AGUA :
R8   .        08. INCLINAÇÃO MÁXIMA DO POÇO  37.37 GRAUS @ 5100 M :
R9   .        09. PRIMEIRAS E ULTIMAS LEITURAS  :
RMB  .OHMM    > 10                       :
RMCS .OHMM    > 10                       :
RMFS .OHMM    > 10                       :
RMS  .OHMM    >10                        :
RUN  .                 2                 :
STAT .        BRASIL                     :
TCS  .        18 00 H                    :
TDD  .M             5288                 :
TDL  .M             5293                 :
TLAB .        N/A                        :
TLI  .M             5000                 :
WITN .        ERNANI / ZE MARIA          :
WN   .        3-BRSA-293D-SPS            :
LUN  .              8808                 :
HIDE .        3-SPS-41D                  :
HID2 .        HIGH DEFINITION INDUCTION LOG :
HID3 .        X-MULTIPOLE ARRAY ACOUSTILOG :
HID4 .        GAMMA RAY LOG              :
HID5 .        TTRM SUB                   :
CLAB .        BACIA                      :
SLAB .        PAIS                       :
CMT1 .        ESC  1 200                 :
CMT2 .        PROF. MEDIDA               :
CMT4 .        SONDA  SS-43               :
HDAT .        SAD 69                     :
FL   .        BASE SAD 69                :
OS1  .        RCI/GR                     :
OS2  .        CHECK SHOT                 :
OS3  .        GR/CN/ZDL                  :
OS5  .        RCOR/GR                    :
LNAM .        ZDL/CN/XMAC/HDIL/EARTH IMAGER/RCI/RCOR/CHECK SHOT/GR :
TOOL .        ZDL/CN/XMAC/HDIL/EARTH IMAGER/RCI/RCOR/CHECK SHOT/GR :
LSOU .        PETROBRAS                  :
LSRV .        OH WIRELINE                :
LTYP .        RAW                        :
EPD  .M                0                 :
LDAT .        15/11/2004                 :
TRIP .                 3                 :
SON  .            786588                 :
CBDR .M             4277                 :
CBLO .        NR                         :
CBL1 .        NR                         :
STEM .DEGF    N/A                        :
BSAL .            254762                 :
BARI .        OFF                        :
DLAB .        12/11/2004                 :
MRT  .DEGF           290                 :
TSTR .        HDIL/XMAC/GR/TTRM          :
TSTG .        N/A                        :
STUS .        FINAL                      :
LCNM .        BAKER ATLAS                :
LCC  .               150                 :
NATI .        BRASIL                     :
OPMD .        OH.WIRELINE                :
PANA .        HERNANDEZ / LOCK           :
PCON .        BAKER ATLAS                :
R11  .        SL     5268.3 M / 5000.0 M :
R12  .        GR     5268.3 M / 5000.0 M :
R13  .        XMAC   5279.5 M / 5000.0 M :
R14  .        HDIL   5289.0 M / 5000.0 M :
R17  .        11. DECLINAÇÃO MAGNETICA  -20.9 GRAUS :
R18  .        12. COORDENADAS BASE       :
R21  .        Y    583936.00 M           :
R22  .        MC  45 GRAUS               :
PVER .           4.10000                 :
WDFN .        /space/expusr/3-SPS-41D_RUN2/i77bf02_4spf.xtf :
OCT  .        i77bf                      :
OS4  .        EARTH IMAGER               :
R16  .        10. PONTO FRACO UTILIZADO  10K :
R20  .        X   7292512.00 M           :
R24  .        13. CADASTRO ANP  86316021017 :
#-----------------------------------------------------------------------------
~CURVE INFORMATION
#MNEM.UNIT   API CODE                                  DESCRIPTION
#---- -----  --------                                  -----------------------
DEPT .M                                                :DEPTH (BOREHOLE) {F10.4}
DEPT .M                                                : {F13.4}
BIT  .IN                                               : {F13.4}
GR   .GAPI                                             : {F13.4}
M2R1 .OHMM                                             : {F13.4}
M2R2 .OHMM                                             : {F13.4}
M2R3 .OHMM                                             : {F13.4}
M2R6 .OHMM                                             : {F13.4}
M2R9 .OHMM                                             : {F13.4}
M2RX .OHMM                                             : {F13.4}
SPD  .M/MN                                             : {F13.4}
TEN  .LBF                                              : {F13.4}
TTEN .LBF                                              : {F13.4}
#-----------------------------------------------------------------------------
# 
#     DEPT        DEPT         BIT          GR           M2R1         M2R2         M2R3         M2R6         M2R9         M2RX         SPD          TEN          TTEN
#
~A  
# ...
 5095.4940    5095.4940       8.5000      92.1016       4.3038       5.7048       6.8104       7.6006       7.8403       8.1122       4.8376     182.6002    7856.2164
 5095.3416    5095.3416       8.5000      93.3361       4.3574       5.7472       6.8732       7.6806       7.9174       8.1894       4.8485     135.8594    7812.4734
 5095.1892    5095.1892       8.5000      95.4797       4.3789       5.8067       6.9679       7.7958       8.0328       8.3067       4.8642      16.1109    7694.0175
 5095.0368    5095.0368       8.5000      97.7330       4.3574       5.8780       7.0858       7.9356       8.1747       8.4514       4.8715     -82.0073    7595.0871
 5094.8844    5094.8844       8.5000      98.9408       4.2185       5.8254       7.0543       7.9049       8.1414       8.4145       4.8674    -101.6310    7573.6737
 5094.7320    5094.7320       8.5000      98.2431       3.9549       5.5723       6.7693       7.5854       7.8100       8.0688       4.8616     -75.6768    7598.0459
 5094.5796    5094.5796       8.5000      96.8705       3.6893       5.2514       6.3842       7.1475       7.3554       7.5948       4.8616     -44.4869    7628.2341
 5094.4272    5094.4272       8.5000      96.0346       3.5169       5.0097       6.0811       6.7959       6.9880       7.2099       4.8626     -15.1359    7657.1281
 5094.2748    5094.2748       8.5000      95.6501       3.4518       4.8938       5.9223       6.6018       6.7810       6.9896       4.8563      17.4467    7689.8069
 5094.1224    5094.1224       8.5000      95.5564       3.4664       4.8859       5.8928       6.5502       6.7193       6.9179       4.8487      49.6805    7722.7020
 5093.9700    5093.9700       8.5000      96.1789       3.5092       4.9252       5.9239       6.5671       6.7271       6.9167       4.8429      77.8197    7751.9978
 5093.8176    5093.8176       8.5000      97.1720       3.5394       4.9586       5.9561       6.5893       6.7405       6.9205       4.8449     115.9456    7791.8732
 5093.6652    5093.6652       8.5000      97.9600       3.5595       4.9882       5.9923       6.6220       6.7658       6.9357       4.8550     158.4943    7836.9706
 5093.5128    5093.5128       8.5000      98.9118       3.5763       5.0195       6.0384       6.6728       6.8115       6.9714       4.8639     151.2376    7832.5680
 5093.3604    5093.3604       8.5000     100.0033       3.5793       5.0352       6.0702       6.7144       6.8503       7.0001       4.8635      72.5782    7755.8438
 5093.2080    5093.2080       8.5000     100.1203       3.5687       5.0353       6.0860       6.7440       6.8803       7.0196       4.8584     -20.7195    7662.8535
 5093.0556    5093.0556       8.5000      99.1735       3.5496       5.0256       6.0916       6.7659       6.9064       7.0355       4.8517     -78.3399    7604.2557
 5092.9032    5092.9032       8.5000      98.4610       3.5088       4.9818       6.0579       6.7469       6.8948       7.0134       4.8472    -103.7331    7577.2310
 5092.7508    5092.7508       8.5000      97.7618       3.4501       4.9050       5.9843       6.6837       6.8419       6.9501       4.8452    -109.1848    7569.8959
 5092.5984    5092.5984       8.5000      97.5365       3.4062       4.8410       5.9242       6.6346       6.8069       6.9058       4.8442     -98.8944    7578.3129
 5092.4460    5092.4460       8.5000      99.2444       3.3937       4.8145       5.9040       6.6279       6.8175       6.9088       4.8472     -73.5431    7602.0666
 5092.2936    5092.2936       8.5000     101.3785       3.4011       4.8080       5.9010       6.6375       6.8458       6.9308       4.8571     -41.5997    7632.9543
 5092.1412    5092.1412       8.5000     101.2666       3.4107       4.7944       5.8826       6.6259       6.8512       6.9305       4.8662     -25.7512    7648.2373
 5091.9888    5091.9888       8.5000      99.8555       3.4211       4.7750       5.8557       6.6008       6.8394       6.9139       4.8644     -35.5561    7637.9116
 5091.8364    5091.8364       8.5000      98.7628       3.4603       4.8001       5.8875       6.6374       6.8862       6.9577       4.8532     -51.5849    7621.0874
 5091.6840    5091.6840       8.5000      97.1144       3.5651       4.9341       6.0600       6.8288       7.0876       7.1586       4.8456     -60.3254    7611.3110
 5091.5316    5091.5316       8.5000      95.2495       3.7164       5.1592       6.3494       7.1471       7.4131       7.4859       4.8478     -64.5704    7605.9337
 5091.3792    5091.3792       8.5000      95.1931       3.8333       5.3568       6.6024       7.4194       7.6828       7.7581       4.8517     -62.5842    7606.7712
 5091.2268    5091.2268       8.5000      96.9563       3.8632       5.4317       6.6911       7.5011       7.7481       7.8255       4.8548     -42.8166    7625.6089
 5091.0744    5091.0744       8.5000      98.4742       3.8151       5.3732       6.5966       7.3720       7.5914       7.6702       4.8592       0.3751    7668.4917
 5090.9220    5090.9220       8.5000      99.0932       3.7513       5.2618       6.4200       7.1459       7.3338       7.4146       4.8623      58.6482    7727.4215
 5090.7696    5090.7696       8.5000      99.5217       3.7317       5.1904       6.2829       6.9601       7.1194       7.2038       4.8671     101.4017    7771.7477
 5090.6172    5090.6172       8.5000      99.7034       3.7517       5.1661       6.2009       6.8331       6.9686       7.0581       4.8752      89.3365    7761.4434
 5090.4648    5090.4648       8.5000      99.1970       3.7726       5.1517       6.1364       6.7259       6.8424       6.9376       4.8718      20.3326    7693.2881
 5090.3124    5090.3124       8.5000      97.8657       3.7784       5.1410       6.0857       6.6384       6.7411       6.8421       4.8536     -54.8283    7617.6037
 5090.1600    5090.1600       8.5000      97.0639       3.7680       5.1367       6.0533       6.5793       6.6734       6.7795       4.8424     -88.2488    7582.8092
 5090.0076    5090.0076       8.5000      97.8971       3.7175       5.0931       5.9909       6.4899       6.5792       6.6883       4.8453     -76.8887    7592.7575
 5089.8552    5089.8552       8.5000      99.1983       3.6208       4.9831       5.8597       6.3336       6.4204       6.5293       4.8519     -42.9990    7625.7164
 5089.7028    5089.7028       8.5000      99.3579       3.5432       4.8886       5.7521       6.2096       6.2962       6.4029       4.8575     -21.4572    7646.8216
 5089.5504    5089.5504       8.5000      99.1004       3.5407       4.8907       5.7609       6.2161       6.3048       6.4094       4.8608     -35.0664    7632.7513
 5089.3980    5089.3980       8.5000      99.8704       3.5973       4.9736       5.8656       6.3296       6.4215       6.5236       4.8586     -65.7961    7601.0229
 5089.2456    5089.2456       8.5000     100.6087       3.6621       5.0694       5.9859       6.4621       6.5563       6.6543       4.8554     -80.5014    7584.8580
 5089.0932    5089.0932       8.5000      99.7163       3.7026       5.1291       6.0622       6.5483       6.6426       6.7344       4.8532     -71.3536    7592.5512
 5088.9408    5088.9408       8.5000      97.4265       3.7362       5.1703       6.1136       6.6079       6.7004       6.7852       4.8475     -53.7243    7609.0629
 5088.7884    5088.7884       8.5000      95.7762       3.7893       5.2242       6.1753       6.6786       6.7684       6.8467       4.8379     -40.4850    7621.4819
 5088.6360    5088.6360       8.5000      95.5223       3.8594       5.2881       6.2452       6.7579       6.8449       6.9177       4.8330     -40.1261    7621.1209
 5088.4836    5088.4836       8.5000      95.3119       3.9447       5.3681       6.3324       6.8559       6.9408       7.0100       4.8405     -54.6846    7605.7325
 5088.3312    5088.3312       8.5000      94.7011       4.0398       5.4681       6.4450       6.9820       7.0665       7.1346       4.8559     -74.7772    7584.5430
