~VERSION INFORMATION
VERS.           2.0   :CWLS Log ASCII Standard - VERSION 2.0
WRAP.           NO    :One Line per depth step
PROD.  Schlumberger   :LAS Producer
PROG.  DLIS to ASCII 2.3                               :LAS Program name and version
CREA.        2023/07/14 00:15                          :LAS Creation date {YYYY/MM/DD hh:mm}
DLIS_CREA.  2023-Jul-14 00:11                          :DLIS Creation date and time {YYYY-MMM-DD hh:mm}
SOURCE.     LIS_009.dlis                               :DLIS File Name
FILE-ID.     LIS   .002                                :File Identification Number
#--------------------------------------------------
~WELL INFORMATION
#MNEM.UNIT      DATA             DESCRIPTION
#---- ------ --------------   -----------------------------
STRT .M      5301.9960       :START DEPTH     
STOP .M      5058.6132       :STOP DEPTH     
STEP .M        -0.1524       :STEP     
NULL .          -999.25      :NULL VALUE
COMP .        PETROBRAS S.A.                           :COMPANY
WELL .        3-BRSA-293D-SPS                          :WELL
FLD  .        BS-400                                   :FIELD
LOC  .        BASE SAD 69:                             :LOCATION
CNTY .        SANTOS                                   :COUNTY
STAT .        BRASIL                                   :STATE
CTRY .        BRASIL                                   :COUNTRY
API  .                                                 :API NUMBER
UWI  .                                                 :UNIQUE WELL ID
DATE .        15/11/2004                               :LOG DATE
SRVC .        Schlumberger                             :SERVICE COMPANY
LATI .DEG                                              :LATITUDE
LONG .DEG                                              :LONGITUDE
GDAT .                                                 :GeoDetic Datum
#-----------------------------------------------------------------------------
~PARAMETER INFORMATION
#MNEM.UNIT    VALUE                      DESCRIPTION
#---- -----   --------------------       ------------------------
APD  .M               24                 :
BHT  .DEGF           260                 :
BLI  .M             5289                 :
BS   .IN         8.50000                 :
CN   .        PETROBRAS S.A.             :
COUN .        SANTOS                     :
CS   .IN         9.62500                 :
DATE .        15/11/2004                 :
DFD  .LB/G      12.30000                 :
DFL  .C3               2                 :
DFPH .        N/A                        :
DFT  .        SINTETICO                  :
DFV  .S               95                 :
DMF  .        MESA ROTATIVA              :
EDF  .M               24                 :
EGL  .M             -500                 :
EKB  .        N/A                        :
ENGI .        HERNANDEZ / LOCK           :
FL1  .        X   7292392.00 M LAT 24 28 47.189 S :
FL2  .        Y    584087.00 M LON 44 10 12.698 W :
FL3  .        MC  45 GRAUS               :
FN   .        BS-400                     :
LMF  .        MESA ROTATIVA              :
LUL  .        MACAE                      :
MCSS .        PRENSA                     :
MCST .DEGF            80                 :
MFSS .        PRENSA                     :
MFST .DEGF            80                 :
MSS  .        LINHA DE FLUXO             :
MST  .DEGF            80                 :
PDAT .        NIVEL DO MAR               :
R1   .        01. APRESENTAÇÃO DE ACORDO COM REQUERIMENTO DO CLIENTE :
R2   .        02. TEMPERATURA MÁXIMA DO POÇO T1=T2= 290 DEGF @  5275 M :
R3   .        03. INICIO DA CIRCULAÇÃO  12/11/2004 09 00 H :
R4   .        04. FINAL DA CIRCULAÇÃO   12/11/2004 18 00 H :
R5   .        05. TEMPO TOTAL DE CIRCULAÇÃO   09 00 H :
R6   .        06. FLUIDO DE PERFURAÇÃO  SINTETICO (BR-MUL  BR-MI)  60% TEOR DO OLEO :
R7   .        07. SALINIDADE DA LAMA  254762 PPM NACL NA FASE DE AGUA :
R8   .        08. INCLINAÇÃO MÁXIMA DO POÇO  37.37 GRAUS @ 5100 M :
R9   .        09. PRIMEIRAS E ULTIMAS LEITURAS  :
RMB  .OHMM    > 10                       :
RMCS .OHMM    > 10                       :
RMFS .OHMM    > 10                       :
RMS  .OHMM    >10                        :
RUN  .                 2                 :
STAT .        BRASIL                     :
TCS  .        18 00 H                    :
TDD  .M             5288                 :
TDL  .M             5293                 :
TLAB .        N/A                        :
TLI  .M             5000                 :
WITN .        ERNANI / ZE MARIA          :
WN   .        3-BRSA-293D-SPS            :
LUN  .              8808                 :
HIDE .        3-SPS-41D                  :
HID2 .        HIGH DEFINITION INDUCTION LOG :
HID3 .        X-MULTIPOLE ARRAY ACOUSTILOG :
HID4 .        GAMMA RAY LOG              :
HID5 .        TTRM SUB                   :
CLAB .        BACIA                      :
SLAB .        PAIS                       :
CMT1 .        ESC  1 200                 :
CMT2 .        PROF. MEDIDA               :
CMT4 .        SONDA  SS-43               :
HDAT .        SAD 69                     :
FL   .        BASE SAD 69                :
OS1  .        RCI/GR                     :
OS2  .        CHECK SHOT                 :
OS3  .        GR/CN/ZDL                  :
OS5  .        RCOR/GR                    :
LNAM .        ZDL/CN/XMAC/HDIL/EARTH IMAGER/RCI/RCOR/CHECK SHOT/GR :
TOOL .        ZDL/CN/XMAC/HDIL/EARTH IMAGER/RCI/RCOR/CHECK SHOT/GR :
LSOU .        PETROBRAS                  :
LSRV .        OH WIRELINE                :
LTYP .        RAW                        :
EPD  .M                0                 :
LDAT .        15/11/2004                 :
TRIP .                 3                 :
SON  .            786588                 :
CBDR .M             4277                 :
CBLO .        NR                         :
CBL1 .        NR                         :
STEM .DEGF    N/A                        :
BSAL .            254762                 :
BARI .        OFF                        :
DLAB .        12/11/2004                 :
MRT  .DEGF           290                 :
TSTR .        HDIL/XMAC/GR/TTRM          :
TSTG .        N/A                        :
STUS .        FINAL                      :
LCNM .        BAKER ATLAS                :
LCC  .               150                 :
NATI .        BRASIL                     :
OPMD .        OH.WIRELINE                :
PANA .        HERNANDEZ / LOCK           :
PCON .        BAKER ATLAS                :
R11  .        SL     5268.3 M / 5000.0 M :
R12  .        GR     5268.3 M / 5000.0 M :
R13  .        XMAC   5279.5 M / 5000.0 M :
R14  .        HDIL   5289.0 M / 5000.0 M :
R17  .        11. DECLINAÇÃO MAGNETICA  -20.9 GRAUS :
R18  .        12. COORDENADAS BASE       :
R21  .        Y    583936.00 M           :
R22  .        MC  45 GRAUS               :
PVER .           4.10000                 :
WDFN .        /space/expusr/3-SPS-41D_RUN2/i77bf01_4spf.xtf :
OCT  .        i77bf                      :
OS4  .        EARTH IMAGER               :
R16  .        10. PONTO FRACO UTILIZADO  10K :
R20  .        X   7292512.00 M           :
R24  .        13. CADASTRO ANP  86316021017 :
#-----------------------------------------------------------------------------
~CURVE INFORMATION
#MNEM.UNIT   API CODE                                  DESCRIPTION
#---- -----  --------                                  -----------------------
DEPT .M                                                :DEPTH (BOREHOLE) {F10.4}
DEPT .M                                                : {F13.4}
BIT  .IN                                               : {F13.4}
GR   .GAPI                                             : {F13.4}
M2R1 .OHMM                                             : {F13.4}
M2R2 .OHMM                                             : {F13.4}
M2R3 .OHMM                                             : {F13.4}
M2R6 .OHMM                                             : {F13.4}
M2R9 .OHMM                                             : {F13.4}
M2RX .OHMM                                             : {F13.4}
SPD  .M/MN                                             : {F13.4}
TEN  .LBF                                              : {F13.4}
TTEN .LBF                                              : {F13.4}
#-----------------------------------------------------------------------------
# 
#     DEPT        DEPT         BIT          GR           M2R1         M2R2         M2R3         M2R6         M2R9         M2RX         SPD          TEN          TTEN
#
~A  
# ...
 5243.4744    5243.4744       8.5000      97.4091       3.8600       5.1945       6.0501       6.5195       6.6565       6.7544       4.6297    -106.1138    7721.5886
 5243.3220    5243.3220       8.5000      92.1935       3.9328       5.2720       6.1416       6.6258       6.7683       6.8741       4.6325     -69.7993    7756.0288
 5243.1696    5243.1696       8.5000      95.4757       4.0354       5.3960       6.2931       6.8028       6.9513       7.0635       4.6417     -19.0132    7805.9211
 5243.0172    5243.0172       8.5000     101.6369       4.0778       5.4489       6.3672       6.8989       7.0502       7.1646       4.6484     -16.1550    7808.4799
 5242.8648    5242.8648       8.5000     107.3225       4.0086       5.3650       6.2870       6.8293       6.9785       7.0894       4.6454     -63.3387    7760.5099
 5242.7124    5242.7124       8.5000     110.5823       3.9105       5.2594       6.1863       6.7359       6.8813       6.9860       4.6381    -119.4322    7702.5220
 5242.5600    5242.5600       8.5000     108.0573       3.8631       5.2398       6.1937       6.7581       6.9023       7.0006       4.6337    -139.2710    7680.0544
 5242.4076    5242.4076       8.5000      99.1061       3.8332       5.2558       6.2485       6.8288       6.9740       7.0650       4.6315    -109.8292    7707.1626
 5242.2552    5242.2552       8.5000      89.7668       3.7769       5.2385       6.2574       6.8535       7.0019       7.0839       4.6329     -83.8122    7731.5537
 5242.1028    5242.1028       8.5000      87.2198       3.7488       5.2578       6.3063       6.9129       7.0697       7.1424       4.6412    -105.2205    7708.5006
 5241.9504    5241.9504       8.5000      91.3284       3.8265       5.4157       6.5032       7.1340       7.3090       7.3737       4.6512    -151.9344    7659.3932
 5241.7980    5241.7980       8.5000      96.2827       3.9975       5.6725       6.7953       7.4608       7.6640       7.7206       4.6555    -179.1670    7629.0387
 5241.6456    5241.6456       8.5000      96.5086       4.1621       5.8540       6.9860       7.6719       7.9074       7.9544       4.6558    -179.2037    7625.5963
 5241.4932    5241.4932       8.5000      88.0540       4.2346       5.8357       6.9271       7.6247       7.8889       7.9241       4.6503    -153.7550    7647.8506
 5241.3408    5241.3408       8.5000      75.5709       4.2346       5.6854       6.7292       7.4327       7.7207       7.7436       4.6386    -100.7471    7698.4971
 5241.1884    5241.1884       8.5000      70.4702       4.2548       5.5720       6.6036       7.3274       7.6386       7.6493       4.6316     -55.7277    7742.1808
 5241.0360    5241.0360       8.5000      74.8053       4.3785       5.6193       6.6950       7.4679       7.8061       7.8048       4.6337     -60.1341    7736.7910
 5240.8836    5240.8836       8.5000      79.9377       4.6182       5.8399       7.0074       7.8560       8.2231       8.2086       4.6404     -95.3975    7700.0350
 5240.7312    5240.7312       8.5000      82.6619       4.8176       6.0442       7.2967       8.2118       8.5928       8.5650       4.6484    -107.0957    7686.2923
 5240.5788    5240.5788       8.5000      86.9602       4.8146       6.0550       7.3316       8.2647       8.6302       8.5914       4.6495     -78.5062    7713.0289
 5240.4264    5240.4264       8.5000      92.1443       4.6628       5.9490       7.2000       8.1064       8.4335       8.3882       4.6409     -29.8676    7760.6592
 5240.2740    5240.2740       8.5000      93.4685       4.4402       5.7954       6.9912       7.8380       8.1129       8.0660       4.6334      25.5738    7816.1222
 5240.1216    5240.1216       8.5000      89.8651       4.1872       5.5925       6.7123       7.4762       7.6929       7.6495       4.6302      83.0533    7874.6880
 5239.9692    5239.9692       8.5000      84.1836       3.9703       5.3866       6.4256       7.1016       7.2627       7.2270       4.6219     127.0054    7920.7595
 5239.8168    5239.8168       8.5000      78.8215       3.8431       5.2409       6.2060       6.8143       6.9287       6.9035       4.6151     115.4308    7911.6595
 5239.6644    5239.6644       8.5000      74.3785       3.7992       5.1607       6.0754       6.6302       6.7078       6.6954       4.6223      31.0682    7828.7401
 5239.5120    5239.5120       8.5000      71.3072       3.8180       5.1418       6.0260       6.5506       6.6016       6.6037       4.6382     -74.0303    7723.1171
 5239.3596    5239.3596       8.5000      71.7769       3.9217       5.2357       6.1185       6.6403       6.6744       6.6930       4.6462    -119.9037    7675.3194
 5239.2072    5239.2072       8.5000      77.5178       4.1284       5.4800       6.3964       6.9436       6.9692       7.0067       4.6425     -95.4755    7697.7609
 5239.0548    5239.0548       8.5000      85.1802       4.3641       5.7799       6.7448       7.3304       7.3550       7.4138       4.6362     -46.4730    7745.5310
 5238.9024    5238.9023       8.5000      88.6660       4.4724       5.9215       6.9099       7.5170       7.5461       7.6252       4.6322     -13.2875    7778.3115
 5238.7500    5238.7500       8.5000      86.0513       4.3516       5.7552       6.7127       7.2992       7.3357       7.4291       4.6315       3.1029    7794.8096
 5238.5976    5238.5977       8.5000      80.6831       4.0782       5.3716       6.2472       6.7892       6.8338       6.9343       4.6306      32.9837    7825.2373
 5238.4452    5238.4452       8.5000      78.5385       3.8621       5.0560       5.8568       6.3550       6.4085       6.5135       4.6235      95.5822    7889.2233
 5238.2928    5238.2928       8.5000      83.5936       3.8284       4.9877       5.7562       6.2334       6.2985       6.4103       4.6138     165.5656    7961.7432
 5238.1404    5238.1404       8.5000      90.7531       3.9341       5.1210       5.8963       6.3727       6.4524       6.5740       4.6132     204.7154    8004.3194
 5237.9880    5237.9880       8.5000      92.0268       4.0332       5.2683       6.0647       6.5466       6.6419       6.7727       4.6205     216.5512    8020.0478
 5237.8356    5237.8356       8.5000      89.5322       4.0359       5.2995       6.1089       6.5924       6.7009       6.8371       4.6258     239.1798    8046.9534
 5237.6832    5237.6832       8.5000      89.9933       3.9978       5.2715       6.0899       6.5777       6.6966       6.8359       4.6220     297.7525    8110.6709
 5237.5308    5237.5308       8.5000      92.7885       4.0174       5.3054       6.1420       6.6465       6.7752       6.9184       4.6142     328.7225    8147.9484
 5237.3784    5237.3784       8.5000      93.8305       4.0931       5.3956       6.2563       6.7887       6.9260       7.0740       4.6154     227.0552    8051.9011
 5237.2260    5237.2260       8.5000      93.8389       4.1187       5.4020       6.2686       6.8236       6.9639       7.1139       4.6281      20.0546    7847.1420
 5237.0736    5237.0736       8.5000      95.0108       4.0581       5.2866       6.1345       6.6995       6.8358       6.9839       4.6411    -142.2901    7683.2293
 5236.9212    5236.9212       8.5000      96.4849       3.9979       5.1757       6.0000       6.5706       6.6994       6.8451       4.6483    -189.8011    7632.2439
 5236.7688    5236.7688       8.5000      95.9600       3.9852       5.1382       5.9457       6.5227       6.6427       6.7876       4.6507    -170.5240    7647.9499
 5236.6164    5236.6164       8.5000      92.9511       3.9898       5.1385       5.9304       6.5082       6.6175       6.7624       4.6511    -125.2802    7690.4319
 5236.4640    5236.4640       8.5000      90.5332       3.9936       5.1543       5.9298       6.4998       6.5971       6.7421       4.6517     -80.9860    7732.9569
 5236.3116    5236.3116       8.5000      92.1066       3.9992       5.1819       5.9415       6.4953       6.5799       6.7251       4.6513     -71.0265    7741.6168
