~VERSION INFORMATION
VERS.           2.0   :CWLS Log ASCII Standard - VERSION 2.0
WRAP.           NO    :One Line per depth step
PROD.  Schlumberger   :LAS Producer
PROG.  DLIS to ASCII 2.3                               :LAS Program name and version
CREA.        2023/07/14 00:15                          :LAS Creation date {YYYY/MM/DD hh:mm}
DLIS_CREA.  2023-Jul-14 00:11                          :DLIS Creation date and time {YYYY-MMM-DD hh:mm}
SOURCE.     LIS_003.dlis                               :DLIS File Name
FILE-ID.     LIS   .003                                :File Identification Number
#--------------------------------------------------
~WELL INFORMATION
#MNEM.UNIT      DATA             DESCRIPTION
#---- ------ --------------   -----------------------------
STRT .M      5239.8168       :START DEPTH     
STOP .M      3827.6784       :STOP DEPTH     
STEP .M        -0.1524       :STEP     
NULL .          -999.25      :NULL VALUE
COMP .        PETROBRAS S.A.                           :COMPANY
WELL .        3-BRSA-293D-SPS                          :WELL
FLD  .        BS-400                                   :FIELD
LOC  .        BASE SAD 69:                             :LOCATION
CNTY .        SANTOS                                   :COUNTY
STAT .        BRASIL                                   :STATE
CTRY .        BRASIL                                   :COUNTRY
API  .                                                 :API NUMBER
UWI  .                                                 :UNIQUE WELL ID
DATE .        22/10/2004                               :LOG DATE
SRVC .        Schlumberger                             :SERVICE COMPANY
LATI .DEG                                              :LATITUDE
LONG .DEG                                              :LONGITUDE
GDAT .                                                 :GeoDetic Datum
#-----------------------------------------------------------------------------
~PARAMETER INFORMATION
#MNEM.UNIT    VALUE                      DESCRIPTION
#---- -----   --------------------       ------------------------
APD  .M               24                 :
BHT  .DEGF           260                 :
BLI  .M       5227.50000                 :
BS   .IN         8.50000                 :
CN   .        PETROBRAS S.A.             :
COUN .        SANTOS                     :
CS   .IN         9.62500                 :
DATE .        22/10/2004                 :
DFD  .LB/G      12.30000                 :
DFL  .C3               2                 :
DFPH .        N/A                        :
DFT  .        SINTETICO                  :
DFV  .S               87                 :
DMF  .        MESA ROTATIVA              :
EDF  .M               24                 :
EGL  .M             -500                 :
EKB  .        N/A                        :
ENGI .        HERNANDEZ/LOCK             :
FL1  .        X   7292392.00 M LAT 24 28 47.189 S :
FL2  .        Y    584087.00 M LON 44 10 12.698 W :
FL3  .        MC  45 GRAUS               :
FN   .        BS-400                     :
LMF  .        MESA ROTATIVA              :
LUL  .        MACAE                      :
MCSS .        PRENSA                     :
MCST .DEGF            80                 :
MFSS .        PRENSA                     :
MFST .DEGF            80                 :
MSS  .        LINHA DE FLUXO             :
MST  .DEGF            80                 :
PDAT .        NIVEL DO MAR               :
R1   .        01. APRESENTAÇÃO DE ACORDO COM REQUERIMENTO DO CLIENTE :
R2   .        02. TEMPERATURA MÁXIMA DO POÇO T1=T2= 260 DEGF @  5180 M :
R3   .        03. INICIO DA CIRCULAÇÃO  13 45 H 21/10/2004 :
R4   .        04. FINAL DA CIRCULAÇÃO   16 00 H 21/10/2004 :
R5   .        05. TEMPO TOTAL DE CIRCULAÇÃO  02 15 H :
R6   .        06. FLUIDO DE PERFURAÇÃO  SINTETICO (BR-MUL  BR-MI)  65% TEOR DO OLEO :
R7   .        07. SALINIDADE DA LAMA  266377 PPM NACL NA FASE DE AGUA :
R8   .        08. INCLINAÇÃO MÁXIMA DO POÇO  37.37 GRAUS @ 5100 M :
R9   .        09. PRIMEIRAS E ULTIMAS LEITURAS  :
RMB  .OHMM    > 10                       :
RMCS .OHMM    > 10                       :
RMFS .OHMM    > 10                       :
RMS  .OHMM    > 10                       :
RUN  .                 1                 :
STAT .        BRASIL                     :
TCS  .        16 00 H                    :
TDD  .M             5230                 :
TDL  .M             5231                 :
TLAB .        N/A                        :
TLI  .M             3850                 :
WITN .        ALCIDIO/VLADIMIR           :
WN   .        3-BRSA-293D-SPS            :
LUN  .              8808                 :
HIDE .        3-SPS-41D                  :
HID2 .        HIGH DEFINITION INDUCTION LOG :
HID3 .        X-MULTIPOLE ARRAY ACOUSTILOG :
HID4 .        GAMMA RAY LOG              :
HID5 .        TTRM SUB                   :
CLAB .        BACIA                      :
SLAB .        PAIS                       :
CMT1 .        ESC  1 1000                :
CMT2 .        PROF. MEDIDA               :
CMT4 .        SONDA  SS-43               :
HDAT .        SAD 69                     :
FL   .        BASE SAD 69                :
OS1  .        GR/CN/ZDL                  :
OS2  .        MREX/GR                    :
OS3  .        RCI/GR                     :
0S4  .        3DEX/GR                    :
OS5  .        SL/GR                      :
LNAM .        MREX/ZDL/CN/XMAC/HDIL/RCI/3DEX/SL/GR :
TOOL .        MREX/ZDL/CN/XMAC/HDIL/RCI/3DEX/SL/GR :
LSOU .        PETROBRAS                  :
LSRV .        OH WIRELINE                :
LTYP .        RAW                        :
EPD  .M                0                 :
LDAT .        22/10/2004                 :
TRIP .                 1                 :
SON  .            772317                 :
CBDR .M             4277                 :
CBLO .M             4277                 :
CBL1 .M             4277                 :
STEM .DEGF    N/A                        :
BSAL .            266377                 :
BARI .        OFF                        :
DLAB .        21/10/2004                 :
MRT  .DEGF           260                 :
TSTR .        HDIL/XMAC/GR/TTRM          :
TSTG .        N/A                        :
STUS .        FINAL                      :
LCNM .        BAKER ATLAS                :
LCC  .               150                 :
NATI .        BRASIL                     :
OPMD .        OH.WIRELINE                :
PANA .        HERNANDEZ/LOCK             :
PCON .        BAKER ATLAS                :
R11  .        SL     5196.0 M/4960.0 M   :
R12  .        GR     4960.0 M/4277.0 M   :
R13  .        XMAC   5202.0 M/3850.0 M   :
R14  .        HDIL   5227.5 M/4277.0 M   :
R15  .        3DEX   5217.0 M/4960.0 M   :
R17  .        10. PONTO FRACO UTILIZADO  10K :
R18  .        11. DECLINAÇÃO MAGNETICA  -20.9 GRAUS :
R19  .        12. COORDENADAS ARATU      :
R21  .        X   7292512.00 M           :
R22  .        Y    583936.00 M           :
R23  .        MC  45 GRAUS               :
R25  .        13. CADASTRO ANP  86316021017 :
PVER .           4.10000                 :
WDFN .        /space/expusr/3-SPS-41D/i77bf03_2spf.xtf :
OCT  .        i77bf                      :
#-----------------------------------------------------------------------------
~CURVE INFORMATION
#MNEM.UNIT   API CODE                                  DESCRIPTION
#---- -----  --------                                  -----------------------
DEPT .M                                                :DEPTH (BOREHOLE) {F10.4}
DEPT .M                                                : {F13.4}
DT   .US/F                                             : {F13.4}
SFN1 .US                                               : {F13.4}
SFN2 .US                                               : {F13.4}
SFN3 .US                                               : {F13.4}
SFN4 .US                                               : {F13.4}
TT   .MS                                               : {F13.4}
#-----------------------------------------------------------------------------
# 
#     DEPT        DEPT         DT           SFN1         SFN2         SFN3         SFN4         TT
#
~A  
# ...
 4493.3616    4493.3616      73.1564     728.0000     762.3754     800.2496     835.7504     161.2947
 4493.2092    4493.2092      72.1125     727.7504     760.2530     800.0004     834.5018     161.3307
 4493.0568    4493.0568      71.2052     727.1257     761.3738     800.0000     836.1233     161.3664
 4492.9044    4492.9044      71.0052     720.0048     759.7511     797.7515     832.5025     161.4019
 4492.7520    4492.7520      71.6361     713.8750     755.3750     795.8750     831.5000     161.4377
 4492.5996    4492.5996      72.6595     712.5000     751.6250     794.1250     834.0000     161.4740
 4492.4472    4492.4472      73.3911     720.0027     753.2517     794.3748     834.9984     161.5108
 4492.2948    4492.2948      73.3445     726.3760     757.2530     793.8784     831.2503     161.5474
 4492.1424    4492.1424      72.5641     727.6227     760.9988     798.1257     831.6246     161.5837
 4491.9900    4491.9900      71.5109     725.6217     759.9973     798.7456     831.2510     161.6195
 4491.8376    4491.8376      70.6738     723.4969     758.2452     795.8705     831.8707     161.6549
 4491.6852    4491.6852      70.2851     721.8708     755.7477     793.4966     829.6191     161.6900
 4491.5328    4491.5328      70.1719     720.0070     754.7537     792.0056     827.0098     161.7249
 4491.3804    4491.3804      70.0350     719.7508     753.2551     792.0000     825.6297     161.7599
 4491.2280    4491.2280      69.7510     718.6284     752.0038     790.7538     825.3758     161.7948
 4491.0756    4491.0756      69.3774     715.3836     753.3713     790.6253     825.0010     161.8295
 4490.9232    4490.9232      69.1020     710.6359     746.3910     787.6319     823.0046     161.8641
 4490.7708    4490.7708      69.0756     705.3851     744.0046     783.7574     821.3781     161.8986
 4490.6184    4490.6184      69.3078     704.7510     742.1279     781.5035     819.7525     161.9333
 4490.4660    4490.4660      69.7192     709.4944     737.3806     777.7544     816.0044     161.9681
 4490.3136    4490.3136      70.1856     707.1269     743.9946     776.5010     814.7510     162.0032
 4490.1612    4490.1612      70.5339     710.9983     743.1254     781.9976     812.8758     162.0385
 4490.0088    4490.0088      70.6643     711.7500     744.0000     781.0000     817.7500     162.0739
 4489.8564    4489.8564      70.6196     710.7500     744.0000     782.0000     815.5000     162.1092
 4489.7040    4489.7040      70.5063     709.4990     743.0002     780.2499     815.5002     162.1445
 4489.5516    4489.5516      70.4562     708.0000     743.3753     780.1263     815.7503     162.1797
 4489.3992    4489.3992      70.4940     708.0019     743.6252     781.3736     815.9996     162.2150
 4489.2468    4489.2468      70.5449     709.3726     743.7478     780.3721     815.7482     162.2502
 4489.0944    4489.0944      70.5801     707.9920     742.4992     778.7479     814.7471     162.2856
 4488.9420    4488.9420      70.6302     704.2645     742.1265     777.7539     813.3803     162.3207
 4488.7896    4488.7896      70.7885     702.6307     736.2707     776.2553     811.3821     162.3561
 4488.6372    4488.6372      71.1271     703.4972     736.0008     775.2532     810.7520     162.3916
 4488.4848    4488.4848      71.5957     703.9986     737.4958     775.2500     810.1267     162.4275
 4488.3324    4488.3324      72.0897     706.4939     739.2458     776.2476     809.2521     162.4635
 4488.1800    4488.1800      72.5326     706.7495     741.7449     776.0005     811.1212     162.4998
 4488.0276    4488.0276      72.8930     711.9912     743.2475     780.3676     812.7473     162.5363
 4487.8752    4487.8752      73.1952     712.7490     744.7480     780.0005     815.9957     162.5729
 4487.7228    4487.7228      73.4117     717.9950     751.9932     785.2450     817.7483     162.6096
 4487.5704    4487.5704      73.4102     719.9989     752.0000     789.4976     822.3723     162.6463
 4487.4180    4487.4180      73.1412     721.7500     755.6250     792.0000     826.0000     162.6829
 4487.2656    4487.2656      72.7264     721.8750     756.6250     793.1250     827.3750     162.7193
 4487.1132    4487.1132      72.3585     721.0009     755.7497     793.3749     828.6250     162.7555
 4486.9608    4486.9608      72.2124     722.6261     755.2527     793.2500     828.6258     162.7916
 4486.8084    4486.8084      72.3057     723.8769     758.2511     793.2530     829.4997     162.8277
 4486.6560    4486.6560      72.4935     725.3738     759.1264     795.6254     829.2527     162.8640
 4486.5036    4486.5036      72.6762     724.6170     759.9983     795.8767     830.8760     162.9003
 4486.3512    4486.3512      72.8382     720.6410     759.1285     796.7465     831.3730     162.9366
 4486.1988    4486.1988      73.0126     726.8521     759.9968     798.9918     832.6204     162.9731
 4486.0464    4486.0464      73.2677     726.7504     760.3738     798.5016     834.2446     163.0097
 4485.8940    4485.8940      73.5965     727.8717     761.3721     799.9956     834.2500     163.0465
 4485.7416    4485.7416      73.8845     728.9971     762.6218     801.4962     837.4917     163.0835
 4485.5892    4485.5892      73.9804     728.0022     766.2421     801.7495     837.7495     163.1205
 4485.4368    4485.4368      73.7509     729.4973     764.5032     804.3702     839.1225     163.1574
 4485.2844    4485.2844      73.1925     729.8745     765.2489     802.1283     840.3732     163.1940
 4485.1320    4485.1320      72.4904     728.7512     764.6257     802.2499     838.0026     163.2302
 4484.9796    4484.9796      71.9226     728.5002     764.5001     803.2493     837.0007     163.2662
 4484.8272    4484.8271      71.6543     728.0000     762.0000     801.1250     836.5000     163.3021
 4484.6748    4484.6748      71.5964     725.7500     762.1250     800.0000     836.8750     163.3379
 4484.5224    4484.5224      71.5160     725.6257     759.7501     800.2490     835.0002     163.3736
 4484.3700    4484.3700      71.2756     727.3726     760.0009     797.7509     835.4979     163.4093
 4484.2176    4484.2176      71.0078     724.2463     761.1200     798.8712     832.7470     163.4448
 4484.0652    4484.0652      71.0035     721.0021     756.7526     795.5002     830.1286     163.4803
 4483.9128    4483.9128      71.3907     722.3748     758.4998     795.6245     832.4981     163.5160
 4483.7604    4483.7604      71.9987     722.2508     758.3742     795.3753     831.5006     163.5521
 4483.6080    4483.6080      72.5092     722.6236     758.0014     795.4995     831.7491     163.5881
 4483.4556    4483.4556      72.7105     722.6250     757.7509     795.1263     831.6254     163.6244
 4483.3032    4483.3032      72.5574     720.3819     757.1269     793.7542     830.0050     163.6607
 4483.1508    4483.1508      72.1380     720.6243     755.5044     794.4980     830.1247     163.6968
 4482.9984    4482.9984      71.5662     720.1262     757.4954     794.5000     831.6215     163.7326
 4482.8460    4482.8460      70.9634     719.7507     754.8801     794.5000     829.5041     163.7681
 4482.6936    4482.6936      70.5002     716.8795     752.0045     791.8791     828.6264     163.8034
 4482.5412    4482.5412      70.2932     717.9986     752.3745     791.0011     828.0008     163.8385
 4482.3888    4482.3888      70.3787     717.5004     753.6239     790.8751     826.8759     163.8737
 4482.2364    4482.2364      70.7709     718.7494     752.0008     790.8750     825.8755     163.9091
 4482.0840    4482.0840      71.4004     719.5000     754.3750     790.8750     827.0000     163.9449
 4481.9316    4481.9316      72.0454     718.5000     753.6250     792.0000     825.5000     163.9809
 4481.7792    4481.7792      72.3938     717.6250     752.7496     791.6244     827.1245     164.0171
 4481.6268    4481.6268      72.2369     717.6280     752.1260     790.7504     826.3756     164.0532
 4481.4744    4481.4744      71.6820     720.6257     753.1283     791.1248     826.9985     164.0891
