~VERSION INFORMATION
VERS.           2.0   :CWLS Log ASCII Standard - VERSION 2.0
WRAP.           NO    :One Line per depth step
PROD.  Schlumberger   :LAS Producer
PROG.  DLIS to ASCII 2.3                               :LAS Program name and version
CREA.        2023/07/14 00:15                          :LAS Creation date {YYYY/MM/DD hh:mm}
DLIS_CREA.  2023-Jul-14 00:11                          :DLIS Creation date and time {YYYY-MMM-DD hh:mm}
SOURCE.     LIS_009.dlis                               :DLIS File Name
FILE-ID.     LIS   .002                                :File Identification Number
#--------------------------------------------------
~WELL INFORMATION
#MNEM.UNIT      DATA             DESCRIPTION
#---- ------ --------------   -----------------------------
STRT .M      5301.9960       :START DEPTH     
STOP .M      5058.6132       :STOP DEPTH     
STEP .M        -0.1524       :STEP     
NULL .          -999.25      :NULL VALUE
COMP .        PETROBRAS S.A.                           :COMPANY
WELL .        3-BRSA-293D-SPS                          :WELL
FLD  .        BS-400                                   :FIELD
LOC  .        BASE SAD 69:                             :LOCATION
CNTY .        SANTOS                                   :COUNTY
STAT .        BRASIL                                   :STATE
CTRY .        BRASIL                                   :COUNTRY
API  .                                                 :API NUMBER
UWI  .                                                 :UNIQUE WELL ID
DATE .        15/11/2004                               :LOG DATE
SRVC .        Schlumberger                             :SERVICE COMPANY
LATI .DEG                                              :LATITUDE
LONG .DEG                                              :LONGITUDE
GDAT .                                                 :GeoDetic Datum
#-----------------------------------------------------------------------------
~PARAMETER INFORMATION
#MNEM.UNIT    VALUE                      DESCRIPTION
#---- -----   --------------------       ------------------------
APD  .M               24                 :
BHT  .DEGF           260                 :
BLI  .M             5289                 :
BS   .IN         8.50000                 :
CN   .        PETROBRAS S.A.             :
COUN .        SANTOS                     :
CS   .IN         9.62500                 :
DATE .        15/11/2004                 :
DFD  .LB/G      12.30000                 :
DFL  .C3               2                 :
DFPH .        N/A                        :
DFT  .        SINTETICO                  :
DFV  .S               95                 :
DMF  .        MESA ROTATIVA              :
EDF  .M               24                 :
EGL  .M             -500                 :
EKB  .        N/A                        :
ENGI .        HERNANDEZ / LOCK           :
FL1  .        X   7292392.00 M LAT 24 28 47.189 S :
FL2  .        Y    584087.00 M LON 44 10 12.698 W :
FL3  .        MC  45 GRAUS               :
FN   .        BS-400                     :
LMF  .        MESA ROTATIVA              :
LUL  .        MACAE                      :
MCSS .        PRENSA                     :
MCST .DEGF            80                 :
MFSS .        PRENSA                     :
MFST .DEGF            80                 :
MSS  .        LINHA DE FLUXO             :
MST  .DEGF            80                 :
PDAT .        NIVEL DO MAR               :
R1   .        01. APRESENTAÇÃO DE ACORDO COM REQUERIMENTO DO CLIENTE :
R2   .        02. TEMPERATURA MÁXIMA DO POÇO T1=T2= 290 DEGF @  5275 M :
R3   .        03. INICIO DA CIRCULAÇÃO  12/11/2004 09 00 H :
R4   .        04. FINAL DA CIRCULAÇÃO   12/11/2004 18 00 H :
R5   .        05. TEMPO TOTAL DE CIRCULAÇÃO   09 00 H :
R6   .        06. FLUIDO DE PERFURAÇÃO  SINTETICO (BR-MUL  BR-MI)  60% TEOR DO OLEO :
R7   .        07. SALINIDADE DA LAMA  254762 PPM NACL NA FASE DE AGUA :
R8   .        08. INCLINAÇÃO MÁXIMA DO POÇO  37.37 GRAUS @ 5100 M :
R9   .        09. PRIMEIRAS E ULTIMAS LEITURAS  :
RMB  .OHMM    > 10                       :
RMCS .OHMM    > 10                       :
RMFS .OHMM    > 10                       :
RMS  .OHMM    >10                        :
RUN  .                 2                 :
STAT .        BRASIL                     :
TCS  .        18 00 H                    :
TDD  .M             5288                 :
TDL  .M             5293                 :
TLAB .        N/A                        :
TLI  .M             5000                 :
WITN .        ERNANI / ZE MARIA          :
WN   .        3-BRSA-293D-SPS            :
LUN  .              8808                 :
HIDE .        3-SPS-41D                  :
HID2 .        HIGH DEFINITION INDUCTION LOG :
HID3 .        X-MULTIPOLE ARRAY ACOUSTILOG :
HID4 .        GAMMA RAY LOG              :
HID5 .        TTRM SUB                   :
CLAB .        BACIA                      :
SLAB .        PAIS                       :
CMT1 .        ESC  1 200                 :
CMT2 .        PROF. MEDIDA               :
CMT4 .        SONDA  SS-43               :
HDAT .        SAD 69                     :
FL   .        BASE SAD 69                :
OS1  .        RCI/GR                     :
OS2  .        CHECK SHOT                 :
OS3  .        GR/CN/ZDL                  :
OS5  .        RCOR/GR                    :
LNAM .        ZDL/CN/XMAC/HDIL/EARTH IMAGER/RCI/RCOR/CHECK SHOT/GR :
TOOL .        ZDL/CN/XMAC/HDIL/EARTH IMAGER/RCI/RCOR/CHECK SHOT/GR :
LSOU .        PETROBRAS                  :
LSRV .        OH WIRELINE                :
LTYP .        RAW                        :
EPD  .M                0                 :
LDAT .        15/11/2004                 :
TRIP .                 3                 :
SON  .            786588                 :
CBDR .M             4277                 :
CBLO .        NR                         :
CBL1 .        NR                         :
STEM .DEGF    N/A                        :
BSAL .            254762                 :
BARI .        OFF                        :
DLAB .        12/11/2004                 :
MRT  .DEGF           290                 :
TSTR .        HDIL/XMAC/GR/TTRM          :
TSTG .        N/A                        :
STUS .        FINAL                      :
LCNM .        BAKER ATLAS                :
LCC  .               150                 :
NATI .        BRASIL                     :
OPMD .        OH.WIRELINE                :
PANA .        HERNANDEZ / LOCK           :
PCON .        BAKER ATLAS                :
R11  .        SL     5268.3 M / 5000.0 M :
R12  .        GR     5268.3 M / 5000.0 M :
R13  .        XMAC   5279.5 M / 5000.0 M :
R14  .        HDIL   5289.0 M / 5000.0 M :
R17  .        11. DECLINAÇÃO MAGNETICA  -20.9 GRAUS :
R18  .        12. COORDENADAS BASE       :
R21  .        Y    583936.00 M           :
R22  .        MC  45 GRAUS               :
PVER .           4.10000                 :
WDFN .        /space/expusr/3-SPS-41D_RUN2/i77bf01_4spf.xtf :
OCT  .        i77bf                      :
OS4  .        EARTH IMAGER               :
R16  .        10. PONTO FRACO UTILIZADO  10K :
R20  .        X   7292512.00 M           :
R24  .        13. CADASTRO ANP  86316021017 :
#-----------------------------------------------------------------------------
~CURVE INFORMATION
#MNEM.UNIT   API CODE                                  DESCRIPTION
#---- -----  --------                                  -----------------------
DEPT .M                                                :DEPTH (BOREHOLE) {F10.4}
DEPT .M                                                : {F13.4}
BIT  .IN                                               : {F13.4}
GR   .GAPI                                             : {F13.4}
M2R1 .OHMM                                             : {F13.4}
M2R2 .OHMM                                             : {F13.4}
M2R3 .OHMM                                             : {F13.4}
M2R6 .OHMM                                             : {F13.4}
M2R9 .OHMM                                             : {F13.4}
M2RX .OHMM                                             : {F13.4}
SPD  .M/MN                                             : {F13.4}
TEN  .LBF                                              : {F13.4}
TTEN .LBF                                              : {F13.4}
#-----------------------------------------------------------------------------
# 
#     DEPT        DEPT         BIT          GR           M2R1         M2R2         M2R3         M2R6         M2R9         M2RX         SPD          TEN          TTEN
#
~A  
# ...
 5228.8440    5228.8440       8.5000      89.2754       3.7196       4.9797       5.7440       6.1375       6.1948       6.2097       4.6320     284.4650    8039.6921
 5228.6916    5228.6916       8.5000      88.6146       3.6274       4.8668       5.6147       5.9973       6.0532       6.0534       4.6332     299.5148    8060.4008
 5228.5392    5228.5392       8.5000      87.6348       3.5972       4.8236       5.5636       5.9419       5.9973       5.9850       4.6331     242.3679    8008.3650
 5228.3868    5228.3868       8.5000      87.6945       3.6700       4.9115       5.6667       6.0539       6.1109       6.0881       4.6346     110.9438    7880.0413
 5228.2344    5228.2344       8.5000      88.8296       3.8036       5.0844       5.8730       6.2775       6.3377       6.3063       4.6332     -17.1576    7752.5234
 5228.0820    5228.0820       8.5000      89.3128       3.9396       5.2713       6.1001       6.5252       6.5907       6.5544       4.6292     -85.6229    7682.8281
 5227.9296    5227.9296       8.5000      88.6570       3.9964       5.3577       6.2093       6.6469       6.7183       6.6824       4.6283    -104.3410    7662.0980
 5227.7772    5227.7772       8.5000      88.3940       3.9387       5.2857       6.1291       6.5671       6.6453       6.6168       4.6348     -91.7277    7672.7391
 5227.6248    5227.6248       8.5000      88.6068       3.8676       5.1874       6.0117       6.4484       6.5362       6.5213       4.6405     -56.9466    7706.1377
 5227.4724    5227.4724       8.5000      88.6688       3.8898       5.2117       6.0349       6.4848       6.5889       6.5942       4.6378      -9.5942    7752.9197
 5227.3200    5227.3200       8.5000      88.9172       3.9756       5.3218       6.1600       6.6375       6.7651       6.7989       4.6335      38.3578    7801.1652
 5227.1676    5227.1676       8.5000      90.2475       4.0129       5.3654       6.2200       6.7245       6.8811       6.9514       4.6338      72.2990    7836.2122
 5227.0152    5227.0152       8.5000      91.2544       3.9966       5.3338       6.1934       6.7374       6.9277       7.0411       4.6307      90.3668    7855.9815
 5226.8628    5226.8628       8.5000      89.7298       4.0370       5.3785       6.2644       6.8728       7.1077       7.2737       4.6222      85.1035    7852.5656
 5226.7104    5226.7104       8.5000      88.6758       4.1786       5.5665       6.5158       7.2265       7.5226       7.7550       4.6176      45.8810    7814.6685
 5226.5580    5226.5580       8.5000      91.9227       4.3100       5.7539       6.7865       7.6264       7.9970       8.3066       4.6228      -6.2821    7762.8310
 5226.4056    5226.4056       8.5000      97.2046       4.2698       5.7243       6.8207       7.7786       8.2199       8.6018       4.6354     -32.6840    7736.0004
 5226.2532    5226.2532       8.5000     100.3811       4.0828       5.5064       6.6407       7.6892       8.1894       8.6300       4.6455     -45.0019    7722.9823
 5226.1008    5226.1008       8.5000     101.4297       3.9258       5.3374       6.5157       7.6480       8.2048       8.6991       4.6468     -80.7034    7686.1840
 5225.9484    5225.9484       8.5000     102.0619       3.8678       5.3107       6.5477       7.7616       8.3767       8.9252       4.6442    -123.7454    7641.2262
 5225.7960    5225.7960       8.5000     102.1428       3.8494       5.3379       6.6103       7.8643       8.5209       9.1094       4.6424    -122.3396    7640.2073
 5225.6436    5225.6436       8.5000      99.8119       3.8225       5.3321       6.5726       7.7868       8.4467       9.0443       4.6400     -79.1785    7681.3926
 5225.4912    5225.4912       8.5000      95.6142       3.7991       5.2745       6.3974       7.4858       8.1041       8.6740       4.6367     -55.9340    7703.3525
 5225.3388    5225.3388       8.5000      93.2839       3.7899       5.1390       6.0660       6.9619       7.4981       8.0060       4.6343     -85.6491    7672.1894
 5225.1864    5225.1864       8.5000      92.5877       3.7933       4.9106       5.6027       6.2785       6.7082       7.1316       4.6335    -126.8364    7628.7550
 5225.0340    5225.0340       8.5000      91.0243       3.8936       4.7306       5.2140       5.6974       6.0258       6.3674       4.6395    -127.6147    7625.4208
 5224.8816    5224.8816       8.5000      89.8908       4.3361       4.9122       5.2550       5.6075       5.8627       6.1491       4.6516     -98.8756    7652.0221
 5224.7292    5224.7292       8.5000      86.9006       5.4932       5.8190       6.0886       6.3684       6.5776       6.8407       4.6569     -80.4374    7668.7821
 5224.5768    5224.5768       8.5000      78.3415       7.6713       7.7012       7.9632       8.2197       8.3943       8.6531       4.6478     -83.1622    7664.4627
 5224.4244    5224.4244       8.5000      68.8926      10.4052      10.0339      10.4130      10.6840      10.8020      11.0368       4.6336     -91.8469    7654.0008
 5224.2720    5224.2720       8.5000      65.3849      11.9090      11.4809      11.9820      12.3182      12.3546      12.5177       4.6251     -95.5891    7648.3908
 5224.1196    5224.1196       8.5000      65.1984      11.3280      11.2961      11.8876      12.3478      12.3212      12.3929       4.5948     -92.1010    7650.1154
 5223.9672    5223.9672       8.5000      64.1758      10.2652      10.5574      11.3373      11.9784      11.9358      11.9368       4.5497     -92.7925    7647.7721
 5223.8148    5223.8148       8.5000      63.6529       9.5318      10.0284      11.0216      11.8903      11.8804      11.8344       4.5290    -107.2675    7631.4878
 5223.6624    5223.6624       8.5000      66.1108       9.0726       9.7511      10.9740      12.1011      12.1680      12.1086       4.5458    -117.8932    7618.7811
 5223.5100    5223.5100       8.5000      73.3624       9.0459      10.0517      11.5761      13.0303      13.2233      13.1778       4.5852    -111.0080    7623.5626
 5223.3576    5223.3576       8.5000      84.3206       9.1524      10.7077      12.5965      14.4238      14.7930      14.8035       4.6290    -102.9378    7629.6961
 5223.2052    5223.2052       8.5000      93.8836       8.4759      10.5371      12.6316      14.6669      15.2050      15.3052       4.6516    -106.2577    7624.4489
 5223.0528    5223.0528       8.5000      98.1149       7.2232       9.5174      11.5869      13.5958      14.2301      14.4299       4.6445    -106.4686    7622.2078
 5222.9004    5222.9004       8.5000      96.9378       6.3939       8.8885      10.9438      12.9191      13.6150      13.9174       4.6370     -97.7115    7628.9883
 5222.7480    5222.7480       8.5000      91.8076       6.0806       8.8917      11.0362      13.0559      13.8150      14.2365       4.6347     -91.0125    7633.8486
 5222.5956    5222.5956       8.5000      84.8716       5.7246       8.6845      10.8287      12.7902      13.5450      14.0586       4.6244     -91.7686    7631.3207
 5222.4432    5222.4432       8.5000      78.0038       5.0675       7.7583       9.6865      11.3926      12.0439      12.5741       4.6013    -100.6420    7620.6149
 5222.2908    5222.2908       8.5000      72.3519       4.4518       6.6844       8.3244       9.7268      10.2428      10.7371       4.6022    -105.1673    7614.1387
 5222.1384    5222.1384       8.5000      69.4131       4.1323       6.0064       7.4372       8.6209       9.0307       9.4871       4.6340    -100.4465    7616.9109
 5221.9860    5221.9860       8.5000      68.0380       4.0781       5.7581       7.0734       8.1285       8.4647       8.8961       4.6504    -100.0723    7615.3950
 5221.8336    5221.8336       8.5000      66.2116       4.1857       5.8253       7.0932       8.0809       8.3648       8.7806       4.6324    -108.7487    7604.7885
 5221.6812    5221.6812       8.5000      65.0193       4.4243       6.1800       7.4577       8.4245       8.6716       9.0796       4.5933    -112.3173    7599.1605
