~VERSION INFORMATION
VERS.           2.0   :CWLS Log ASCII Standard - VERSION 2.0
WRAP.           YES   :Multiple lines per depth step
PROD.  Schlumberger   :LAS Producer
PROG.  DLIS to ASCII 2.3                               :LAS Program name and version
CREA.        2023/07/14 00:15                          :LAS Creation date {YYYY/MM/DD hh:mm}
DLIS_CREA.  2023-Jul-14 00:11                          :DLIS Creation date and time {YYYY-MMM-DD hh:mm}
SOURCE.     LIS_013.dlis                               :DLIS File Name
FILE-ID.     LIS   .002                                :File Identification Number
#--------------------------------------------------
~WELL INFORMATION
#MNEM.UNIT      DATA             DESCRIPTION
#---- ------ --------------   -----------------------------
STRT .M      5299.5576       :START DEPTH     
STOP .M      4241.4444       :STOP DEPTH     
STEP .M        -0.1524       :STEP     
NULL .          -999.25      :NULL VALUE
COMP .        PETROBRAS S.A.                           :COMPANY
WELL .        3-BRSA-293D-SPS                          :WELL
FLD  .        BS-400                                   :FIELD
LOC  .        BASE SAD 69:                             :LOCATION
CNTY .        SANTOS                                   :COUNTY
STAT .        BRASIL                                   :STATE
CTRY .        BRASIL                                   :COUNTRY
API  .                                                 :API NUMBER
UWI  .                                                 :UNIQUE WELL ID
DATE .        15/11/2004                               :LOG DATE
SRVC .        Schlumberger                             :SERVICE COMPANY
LATI .DEG                                              :LATITUDE
LONG .DEG                                              :LONGITUDE
GDAT .                                                 :GeoDetic Datum
#-----------------------------------------------------------------------------
~PARAMETER INFORMATION
#MNEM.UNIT    VALUE                      DESCRIPTION
#---- -----   --------------------       ------------------------
APD  .M               24                 :
BHT  .DEGF           260                 :
BLI  .M             5289                 :
BS   .IN         8.50000                 :
CN   .        PETROBRAS S.A.             :
COUN .        SANTOS                     :
CS   .IN         9.62500                 :
DATE .        15/11/2004                 :
DFD  .LB/G      12.30000                 :
DFL  .C3               2                 :
DFPH .        N/A                        :
DFT  .        SINTETICO                  :
DFV  .S               95                 :
DMF  .        MESA ROTATIVA              :
EDF  .M               24                 :
EGL  .M             -500                 :
EKB  .        N/A                        :
ENGI .        HERNANDEZ / LOCK           :
FL1  .        X   7292392.00 M LAT 24 28 47.189 S :
FL2  .        Y    584087.00 M LON 44 10 12.698 W :
FL3  .        MC  45 GRAUS               :
FN   .        BS-400                     :
LMF  .        MESA ROTATIVA              :
LUL  .        MACAE                      :
MCSS .        PRENSA                     :
MCST .DEGF            80                 :
MFSS .        PRENSA                     :
MFST .DEGF            80                 :
MSS  .        LINHA DE FLUXO             :
MST  .DEGF            80                 :
PDAT .        NIVEL DO MAR               :
R1   .        01. APRESENTAÇÃO DE ACORDO COM REQUERIMENTO DO CLIENTE :
R2   .        02. TEMPERATURA MÁXIMA DO POÇO T1=T2= 292 DEGF @  5277 M :
R3   .        03. INICIO DA CIRCULAÇÃO  12/11/2004 09 00 H :
R4   .        04. FINAL DA CIRCULAÇÃO   12/11/2004 18 00 H :
R5   .        05. TEMPO TOTAL DE CIRCULAÇÃO   09 00 H :
R6   .        06. FLUIDO DE PERFURAÇÃO  SINTETICO (BR-MUL  BR-MI)  60% TEOR DO OLEO :
R7   .        07. SALINIDADE DA LAMA  254762 PPM NACL NA FASE DE AGUA :
R8   .        08. INCLINAÇÃO MÁXIMA DO POÇO  37.37 GRAUS @ 5100 M :
R9   .        09. PRIMEIRAS E ULTIMAS LEITURAS  :
RMB  .OHMM    > 10                       :
RMCS .OHMM    > 10                       :
RMFS .OHMM    > 10                       :
RMS  .OHMM    >10                        :
RUN  .                 2                 :
STAT .        BRASIL                     :
TCS  .        18 00 H                    :
TDD  .M             5288                 :
TDL  .M             5293                 :
TLAB .        N/A                        :
TLI  .M             4277                 :
WITN .        ERNANI / ZE MARIA          :
WN   .        3-BRSA-293D-SPS            :
LUN  .              8808                 :
HIDE .        3-SPS-41D                  :
HID2 .        COMPENSATED Z-DENSILOG     :
HID3 .        COMPENSATED NEUTRON LOG    :
HID4 .        GAMMA RAY LOG              :
HID5 .        TTRM SUB                   :
CLAB .        BACIA                      :
SLAB .        PAIS                       :
CMT1 .        ESC  1 1000                :
CMT2 .        PROF. MEDIDA               :
CMT4 .        SONDA  SS-43               :
HDAT .        SAD 69                     :
FL   .        BASE SAD 69                :
OS1  .        RCI/GR                     :
OS2  .        CHECK SHOT                 :
OS3  .        GR/XMAC/HDIL               :
OS5  .        RCOR/GR                    :
LNAM .        ZDL/CN/XMAC/HDIL/EARTH IMAGER/RCI/RCOR/CHECK SHOT/GR :
TOOL .        ZDL/CN/XMAC/HDIL/EARTH IMAGER/RCI/RCOR/CHECK SHOT/GR :
LSOU .        PETROBRAS                  :
LSRV .        OH WIRELINE                :
LTYP .        RAW                        :
EPD  .M                0                 :
LDAT .        15/11/2004                 :
TRIP .                 4                 :
SON  .            786588                 :
CBDR .M             4277                 :
CBLO .        NR                         :
CBL1 .        NR                         :
STEM .DEGF    N/A                        :
BSAL .            254762                 :
BARI .        OFF                        :
DLAB .        12/11/2004                 :
MRT  .DEGF           292                 :
TSTR .        ZDL/CN/GR/TTRM             :
TSTG .        N/A                        :
STUS .        FINAL                      :
LCNM .        BAKER ATLAS                :
LCC  .               150                 :
NATI .        BRASIL                     :
OPMD .        OH.WIRELINE                :
PANA .        HERNANDEZ / LOCK           :
PCON .        BAKER ATLAS                :
R11  .        GR     5268.3 M / 4277.0 M :
R12  .        CN     5286.5 M / 5128.0 M (FERRAMENTA PERDEU LEITURA ACIMA DE 5128M) :
R13  .        ZDL    5292.0 M / 4277.0 M :
R15  .        10. PONTO FRACO UTILIZADO  10K :
R17  .        12. COORDENADAS BASE       :
R19  .        X   7292512.00 M           :
R21  .        MC  45 GRAUS               :
R23  .        13. CADASTRO ANP  86316021017 :
PVER .           4.10000                 :
WDFN .        /space/expusr/3-SPS-41D_RUN2/i77bf04_8spf.xtf :
OCT  .        i77bf                      :
OS4  .        EARTH IMAGER               :
R16  .        11. DECLINAÇÃO MAGNETICA  -20.9 GRAUS :
R20  .        Y    583936.00 M           :
#-----------------------------------------------------------------------------
~CURVE INFORMATION
#MNEM.UNIT   API CODE                                  DESCRIPTION
#---- -----  --------                                  -----------------------
DEPT .M                                                :DEPTH (BOREHOLE) {F10.4}
DEPT .M                                                : {F13.4}
BIT  .IN                                               : {F13.4}
DEPM .M                                                : {F13.4}
GR   .GAPI                                             : {F13.4}
SPD  .M/MN                                             : {F13.4}
TTEN .LBF                                              : {F13.4}
CAL  .IN                                               : {F13.4}
CALX .IN                                               : {F13.4}
HRD1 .HZ                                               : {F13.4}
HRD2 .HZ                                               : {F13.4}
PE   .B/E                                              : {F13.4}
SFT2 .HZ                                               : {F13.4}
SOFT .HZ                                               : {F13.4}
SSD  .HZ                                               : {F13.4}
ZCOR .G/C3                                             : {F13.4}
ZDEN .G/C3                                             : {F13.4}
CNC  .PU                                               : {F13.4}
CN   .PU                                               : {F13.4}
LSN  .HZ                                               : {F13.4}
SSN  .HZ                                               : {F13.4}
CNCF .PU                                               : {F13.4}
MMRK .MN                                               : {F13.4}
#-----------------------------------------------------------------------------
# DEPT       
#     DEPT         BIT          DEPM         GR           SPD          TTEN         
#     CAL          CALX         HRD1         HRD2         PE           SFT2         
#     SOFT         SSD          ZCOR         ZDEN         CNC          CN           
#     LSN          SSN          CNCF         MMRK         
~A  
5299.5576
   5299.5576       8.5000    5299.2520    -999.2500    -999.2500    -999.2500
   -999.2500    -999.2500    -999.2500    -999.2500       2.5091    -999.2500
   -999.2500    -999.2500    -999.2500    -999.2500    -999.2500    -999.2500
   -999.2500    -999.2500    -999.2500       0.0000
5299.4052
   5299.4052       8.5000    5299.1005    -999.2500    -999.2500    -999.2500
   -999.2500    -999.2500    -999.2500    -999.2500       2.5185    -999.2500
   -999.2500    -999.2500    -999.2500       2.4999    -999.2500    -999.2500
   -999.2500    -999.2500    -999.2500       0.0000
5299.2528
   5299.2528       8.5000    5298.9471    -999.2500    -999.2500 -999999.9999
   -999.2500    -999.2500    -999.2500    -999.2500       2.5196    -999.2500
   -999.2500    -999.2500    -999.2500       2.4986    -999.2500    -999.2500
   -999.2500    -999.2500    -999.2500       0.0000
5299.1004
   5299.1004       8.5000    5298.7947    -999.2500       4.4546    5762.9567
   -999.2500    -999.2500    -999.2500    -999.2500       2.5004    -999.2500
   -999.2500    -999.2500    -999.2500       2.4962    -999.2500    -999.2500
   -999.2500    -999.2500    -999.2500       0.0000
5298.9480
   5298.9480       8.5000    5298.6423    -999.2500       4.4700    5821.3617
   -999.2500    -999.2500    -999.2500    -999.2500       2.5000    -999.2500
   -999.2500    -999.2500    -999.2500       2.4939    -999.2500    -999.2500
   -999.2500    -999.2500    -999.2500       0.0000
5298.7956
   5298.7956       8.5000    5298.4909    -999.2500       4.4781    5882.6755
   -999.2500    -999.2500    -999.2500    -999.2500       2.5197    -999.2500
   -999.2500    -999.2500    -999.2500       2.4922    -999.2500    -999.2500
   -999.2500    -999.2500    -999.2500       0.0000
5298.6432
   5298.6432       8.5000    5298.3385    -999.2500       4.4865    5943.5265
   -999.2500    -999.2500    -999.2500    -999.2500       2.5208    -999.2500
   -999.2500    -999.2500    -999.2500       2.4900    -999.2500    -999.2500
   -999.2500    -999.2500    -999.2500       0.0000
5298.4908
   5298.4908       8.5000    5298.1861    -999.2500       4.4928    5999.5036
   -999.2500    -999.2500    -999.2500    -999.2500       2.5010    -999.2500
   -999.2500    -999.2500    -999.2500       2.4870    -999.2500    -999.2500
   -999.2500    -999.2500    -999.2500       0.0000
5298.3384
   5298.3384       8.5000    5298.0337    -999.2500       4.4984    6051.1447
   -999.2500    -999.2500    -999.2500    -999.2500       2.5016    -999.2500
   -999.2500    -999.2500    -999.2500       2.4839    -999.2500    -999.2500
   -999.2500    -999.2500    -999.2500       0.0000
5298.1860
   5298.1860       8.5000    5297.8813    -999.2500       4.5142    6092.8345
   -999.2500 -950945.4898    -999.2500    -999.2500       4.0933    -999.2500
   -999.2500    -999.2500    -999.2500       2.4960    -999.2500    -999.2500
   -999.2500    -999.2500    -999.2500       0.0000
5298.0336
   5298.0336       8.5000    5297.7289    -999.2500       4.5370    6124.1716
   -999.2500       8.4165     535.9255     734.4016       7.1804     385.6923
    252.3987 -999999.9999 -943000.1604       2.5831    -999.2500    -999.2500
   -999.2500    -999.2500    -999.2500       0.0000
5297.8812
   5297.8812       8.5000    5297.5765    -999.2500       4.5548    6157.8527
-951001.0399       8.4170     542.5178     745.0874       7.7878     384.3489
    253.5089    6393.6749      -0.0442       2.6215    -999.2500    -999.2500
   -999.2500    -999.2500    -999.2500       0.0000
5297.7288
   5297.7288       8.5000    5297.4241    -999.2500       4.5774    6198.5799
      8.4188       8.4188     552.0720     750.7786       8.0737     384.6695
    249.4622    6402.1719      -0.0462       2.6144    -999.2500    -999.2500
   -999.2500    -999.2500    -999.2500       0.0000
5297.5764
   5297.5764       8.5000    5297.2717    -999.2500       4.8204    6233.0687
      8.4207       8.4207     558.4078     746.3765       8.3367     390.2368
    239.8752    6416.7145      -0.0445       2.6109    -999.2500    -999.2500
   -999.2500    -999.2500    -999.2500       0.0000
5297.4240
   5297.4240       8.5000    5297.1193    -999.2500       5.5834    6260.3679
      8.4209       8.4209     556.8948     741.5434       8.5789     399.0384
    233.0340    6418.4982      -0.0429       2.6103    -999.2500    -999.2500
   -999.2500    -999.2500    -999.2500       0.0000
5297.2716
   5297.2716       8.5000    5296.9669    -999.2500       6.6031    6296.9410
      8.4197       8.4197     550.3177     741.2028       8.8013     404.2636
    231.5683    6404.8002      -0.0435       2.6107    -999.2500    -999.2500
   -999.2500    -999.2500    -999.2500       0.0000
5297.1192
   5297.1191       8.5000    5296.8145    -999.2500       7.1268    6327.7998
      8.4186       8.4186     544.5728     741.6147       9.0155     399.5724
    229.0071    6404.9736      -0.0423       2.6101    -999.2500    -999.2500
   -999.2500    -999.2500    -999.2500       0.0000
5296.9668
   5296.9668       8.5000    5296.6621    -999.2500       6.6110    6311.6602
      8.4165       8.4165     542.4872     744.8583       9.1829     389.4719
    225.2024    6426.6563      -0.0395       2.6071    -999.2500    -999.2500
   -999.2500    -999.2500    -999.2500       0.0000
5296.8144
   5296.8145       8.5000    5296.5088    -999.2500       5.4238    6255.6416
      8.4139       8.4139     538.0188     752.7600       9.2678     383.5835
    225.3504    6451.4990      -0.0366       2.6034    -999.2500    -999.2500
   -999.2500    -999.2500    -999.2500       0.0000
5296.6620
   5296.6620       8.5000    5296.3563    -999.2500       4.4729    6226.9303
      8.4128       8.4128     531.2831     763.6828       9.2874     381.9413
    225.6525    6454.5219      -0.0371       2.6006    -999.2500    -999.2500
   -999.2500    -999.2500    -999.2500       0.0000
5296.5096
   5296.5096       8.5000    5296.2039    -999.2500       4.2017    6247.5915
      8.4130       8.4130     531.5328     773.9205       9.2725     383.4027
    224.2889    6439.7126      -0.0413       2.5977    -999.2500    -999.2500
   -999.2500    -999.2500    -999.2500       0.0000
5296.3572
   5296.3572       8.5000    5296.0515    -999.2500       4.2540    6267.1253
      8.4125       8.4125     544.0590     763.9692       9.2948     384.5884
    221.5433    6426.3024      -0.0438       2.5967    -999.2500    -999.2500
   -999.2500    -999.2500    -999.2500       0.0000
5296.2048
   5296.2048       8.5000    5295.9001    -999.2500       4.2601    6258.3710
      8.4113       8.4113     558.0400     740.3530       9.3394     383.3570
    219.8803    6430.5314      -0.0412       2.5988    -999.2500    -999.2500
   -999.2500    -999.2500    -999.2500       0.0000
5296.0524
   5296.0524       8.5000    5295.7477    -999.2500       4.2313    6258.5358
      8.4109       8.4109     559.5831     729.7124       9.3669     383.9466
    221.0522    6438.1012      -0.0382       2.6007    -999.2500    -999.2500
   -999.2500    -999.2500    -999.2500       0.0000
5295.9000
   5295.9000       8.5000    5295.5953    -999.2500       4.2044    6304.4413
      8.4113       8.4113     552.5253     743.8777       9.3763     390.9207
    225.5014    6422.8472      -0.0419       2.5991    -999.2500    -999.2500
   -999.2500    -999.2500    -999.2500       0.0000
5295.7476
   5295.7476       8.5000    5295.4429    -999.2500       4.2026    6387.2453
      8.4133       8.4133     549.9100     756.6725       9.3762     398.0579
    229.2325    6389.1774      -0.0488       2.5965    -999.2500    -999.2500
   -999.2500    -999.2500    -999.2500       0.0000
5295.5952
   5295.5952       8.5000    5295.2905    -999.2500       4.2227    6466.7939
      8.4163       8.4163     552.2249     755.8744       9.3654     396.2587
    230.0676    6372.0472      -0.0516       2.5956    -999.2500    -999.2500
   -999.2500    -999.2500    -999.2500       0.0000
5295.4428
   5295.4428       8.5000    5295.1381    -999.2500       4.2475    6509.7313
      8.4170       8.4170     550.5258     754.3513       9.3445     391.1073
    228.6811    6381.6268      -0.0496       2.5953    -999.2500    -999.2500
   -999.2500    -999.2500    -999.2500       0.0017
