~VERSION INFORMATION
VERS.           2.0   :CWLS Log ASCII Standard - VERSION 2.0
WRAP.           NO    :One Line per depth step
PROD.  Schlumberger   :LAS Producer
PROG.  DLIS to ASCII 2.3                               :LAS Program name and version
CREA.        2023/07/14 00:15                          :LAS Creation date {YYYY/MM/DD hh:mm}
DLIS_CREA.  2023-Jul-14 00:11                          :DLIS Creation date and time {YYYY-MMM-DD hh:mm}
SOURCE.     LIS_011.dlis                               :DLIS File Name
FILE-ID.     LIS   .004                                :File Identification Number
#--------------------------------------------------
~WELL INFORMATION
#MNEM.UNIT      DATA             DESCRIPTION
#---- ------ --------------   -----------------------------
STRT .M      5300.3196       :START DEPTH     
STOP .M      4931.0544       :STOP DEPTH     
STEP .M        -0.1524       :STEP     
NULL .          -999.25      :NULL VALUE
COMP .        PETROBRAS S.A.                           :COMPANY
WELL .        3-BRSA-293D-SPS                          :WELL
FLD  .        BS-400                                   :FIELD
LOC  .        BASE SAD 69:                             :LOCATION
CNTY .        SANTOS                                   :COUNTY
STAT .        BRASIL                                   :STATE
CTRY .        BRASIL                                   :COUNTRY
API  .                                                 :API NUMBER
UWI  .                                                 :UNIQUE WELL ID
DATE .        15/11/2004                               :LOG DATE
SRVC .        Schlumberger                             :SERVICE COMPANY
LATI .DEG                                              :LATITUDE
LONG .DEG                                              :LONGITUDE
GDAT .                                                 :GeoDetic Datum
#-----------------------------------------------------------------------------
~PARAMETER INFORMATION
#MNEM.UNIT    VALUE                      DESCRIPTION
#---- -----   --------------------       ------------------------
APD  .M               24                 :
BHT  .DEGF           260                 :
BLI  .M             5289                 :
BS   .IN         8.50000                 :
CN   .        PETROBRAS S.A.             :
COUN .        SANTOS                     :
CS   .IN         9.62500                 :
DATE .        15/11/2004                 :
DFD  .LB/G      12.30000                 :
DFL  .C3               2                 :
DFPH .        N/A                        :
DFT  .        SINTETICO                  :
DFV  .S               95                 :
DMF  .        MESA ROTATIVA              :
EDF  .M               24                 :
EGL  .M             -500                 :
EKB  .        N/A                        :
ENGI .        HERNANDEZ / LOCK           :
FL1  .        X   7292392.00 M LAT 24 28 47.189 S :
FL2  .        Y    584087.00 M LON 44 10 12.698 W :
FL3  .        MC  45 GRAUS               :
FN   .        BS-400                     :
LMF  .        MESA ROTATIVA              :
LUL  .        MACAE                      :
MCSS .        PRENSA                     :
MCST .DEGF            80                 :
MFSS .        PRENSA                     :
MFST .DEGF            80                 :
MSS  .        LINHA DE FLUXO             :
MST  .DEGF            80                 :
PDAT .        NIVEL DO MAR               :
R1   .        01. APRESENTAÇÃO DE ACORDO COM REQUERIMENTO DO CLIENTE :
R2   .        02. TEMPERATURA MÁXIMA DO POÇO T1=T2= 290 DEGF @  5275 M :
R3   .        03. INICIO DA CIRCULAÇÃO  12/11/2004 09 00 H :
R4   .        04. FINAL DA CIRCULAÇÃO   12/11/2004 18 00 H :
R5   .        05. TEMPO TOTAL DE CIRCULAÇÃO   09 00 H :
R6   .        06. FLUIDO DE PERFURAÇÃO  SINTETICO (BR-MUL  BR-MI)  60% TEOR DO OLEO :
R7   .        07. SALINIDADE DA LAMA  254762 PPM NACL NA FASE DE AGUA :
R8   .        08. INCLINAÇÃO MÁXIMA DO POÇO  37.37 GRAUS @ 5100 M :
R9   .        09. PRIMEIRAS E ULTIMAS LEITURAS  :
RMB  .OHMM    > 10                       :
RMCS .OHMM    > 10                       :
RMFS .OHMM    > 10                       :
RMS  .OHMM    >10                        :
RUN  .                 2                 :
STAT .        BRASIL                     :
TCS  .        18 00 H                    :
TDD  .M             5288                 :
TDL  .M             5293                 :
TLAB .        N/A                        :
TLI  .M             5000                 :
WITN .        ERNANI / ZE MARIA          :
WN   .        3-BRSA-293D-SPS            :
LUN  .              8808                 :
HIDE .        3-SPS-41D                  :
HID2 .        HIGH DEFINITION INDUCTION LOG :
HID3 .        X-MULTIPOLE ARRAY ACOUSTILOG :
HID4 .        GAMMA RAY LOG              :
HID5 .        TTRM SUB                   :
CLAB .        BACIA                      :
SLAB .        PAIS                       :
CMT1 .        ESC  1 200                 :
CMT2 .        PROF. MEDIDA               :
CMT4 .        SONDA  SS-43               :
HDAT .        SAD 69                     :
FL   .        BASE SAD 69                :
OS1  .        RCI/GR                     :
OS2  .        CHECK SHOT                 :
OS3  .        GR/CN/ZDL                  :
OS5  .        RCOR/GR                    :
LNAM .        ZDL/CN/XMAC/HDIL/EARTH IMAGER/RCI/RCOR/CHECK SHOT/GR :
TOOL .        ZDL/CN/XMAC/HDIL/EARTH IMAGER/RCI/RCOR/CHECK SHOT/GR :
LSOU .        PETROBRAS                  :
LSRV .        OH WIRELINE                :
LTYP .        RAW                        :
EPD  .M                0                 :
LDAT .        15/11/2004                 :
TRIP .                 3                 :
SON  .            786588                 :
CBDR .M             4277                 :
CBLO .        NR                         :
CBL1 .        NR                         :
STEM .DEGF    N/A                        :
BSAL .            254762                 :
BARI .        OFF                        :
DLAB .        12/11/2004                 :
MRT  .DEGF           290                 :
TSTR .        HDIL/XMAC/GR/TTRM          :
TSTG .        N/A                        :
STUS .        FINAL                      :
LCNM .        BAKER ATLAS                :
LCC  .               150                 :
NATI .        BRASIL                     :
OPMD .        OH.WIRELINE                :
PANA .        HERNANDEZ / LOCK           :
PCON .        BAKER ATLAS                :
R11  .        SL     5268.3 M / 5000.0 M :
R12  .        GR     5268.3 M / 5000.0 M :
R13  .        XMAC   5279.5 M / 5000.0 M :
R14  .        HDIL   5289.0 M / 5000.0 M :
R17  .        11. DECLINAÇÃO MAGNETICA  -20.9 GRAUS :
R18  .        12. COORDENADAS BASE       :
R21  .        Y    583936.00 M           :
R22  .        MC  45 GRAUS               :
PVER .           4.10000                 :
WDFN .        /space/expusr/3-SPS-41D_RUN2/i77bf02_4spf.xtf :
OCT  .        i77bf                      :
OS4  .        EARTH IMAGER               :
R16  .        10. PONTO FRACO UTILIZADO  10K :
R20  .        X   7292512.00 M           :
R24  .        13. CADASTRO ANP  86316021017 :
#-----------------------------------------------------------------------------
~CURVE INFORMATION
#MNEM.UNIT   API CODE                                  DESCRIPTION
#---- -----  --------                                  -----------------------
DEPT .M                                                :DEPTH (BOREHOLE) {F10.4}
DEPT .M                                                : {F13.4}
BIT  .IN                                               : {F13.4}
GR   .GAPI                                             : {F13.4}
M2R1 .OHMM                                             : {F13.4}
M2R2 .OHMM                                             : {F13.4}
M2R3 .OHMM                                             : {F13.4}
M2R6 .OHMM                                             : {F13.4}
M2R9 .OHMM                                             : {F13.4}
M2RX .OHMM                                             : {F13.4}
SPD  .M/MN                                             : {F13.4}
TEN  .LBF                                              : {F13.4}
TTEN .LBF                                              : {F13.4}
#-----------------------------------------------------------------------------
# 
#     DEPT        DEPT         BIT          GR           M2R1         M2R2         M2R3         M2R6         M2R9         M2RX         SPD          TEN          TTEN
#
~A  
# ...
 5271.0588    5271.0588       8.5000     103.3806       4.2067       5.5244       6.5145       7.1449       7.2887       7.4159       4.8766     -25.6935    7608.5720
 5270.9064    5270.9064       8.5000     103.2849       4.2877       5.6867       6.7258       7.3709       7.5114       7.6266       4.8731       0.3306    7634.3832
 5270.7540    5270.7540       8.5000     104.4467       4.2233       5.6921       6.7658       7.4182       7.5552       7.6572       4.8659      48.1303    7682.6874
 5270.6016    5270.6016       8.5000     106.3295       4.1007       5.6149       6.7045       7.3588       7.4930       7.5834       4.8495      96.7273    7732.6660
 5270.4492    5270.4492       8.5000     108.1791       3.9712       5.4980       6.5795       7.2285       7.3607       7.4423       4.8389     138.2718    7776.3770
 5270.2968    5270.2968       8.5000     109.1850       3.8519       5.3588       6.4069       7.0442       7.1745       7.2510       4.8441     176.8045    7817.7656
 5270.1444    5270.1444       8.5000     108.9537       3.7789       5.2555       6.2669       6.8887       7.0190       7.0952       4.8564     224.0909    7868.6769
 5269.9920    5269.9920       8.5000     107.5482       3.7761       5.2343       6.2200       6.8355       6.9695       7.0511       4.8652     276.9182    7926.0420
 5269.8396    5269.8396       8.5000     105.8768       3.8006       5.2451       6.2161       6.8307       6.9723       7.0643       4.8671     315.9724    7970.4411
 5269.6872    5269.6872       8.5000     105.5649       3.7956       5.2171       6.1764       6.7902       6.9420       7.0483       4.8639     333.9645    7994.2719
 5269.5348    5269.5348       8.5000     106.0731       3.7792       5.1858       6.1429       6.7602       6.9264       7.0509       4.8582     352.6676    8019.1747
 5269.3824    5269.3824       8.5000     105.4204       3.7973       5.2243       6.1975       6.8291       7.0156       7.1632       4.8491     389.6969    8062.9782
 5269.2300    5269.2300       8.5000     103.9676       3.8550       5.3414       6.3432       6.9968       7.2090       7.3843       4.8394     434.9614    8115.8000
 5269.0776    5269.0776       8.5000     102.0106       3.9135       5.4712       6.4931       7.1638       7.4022       7.6065       4.8365     442.4245    8131.2599
 5268.9252    5268.9252       8.5000      97.9208       3.9226       5.5202       6.5313       7.1990       7.4568       7.6858       4.8459     339.4976    8035.3682
 5268.7728    5268.7728       8.5000      91.1304       3.8665       5.4463       6.4127       7.0541       7.3184       7.5630       4.8638     138.1188    7837.9624
 5268.6204    5268.6204       8.5000      84.4809       3.7831       5.3037       6.2154       6.8201       7.0794       7.3308       4.8778     -40.6642    7659.5849
 5268.4680    5268.4680       8.5000      77.5860       3.7601       5.2351       6.1216       6.7042       6.9542       7.2105       4.8790    -116.1650    7582.4079
 5268.3156    5268.3156       8.5000      67.0588       3.8921       5.3893       6.3145       6.9131       7.1575       7.4246       4.8705    -116.8736    7579.5722
 5268.1632    5268.1632       8.5000      54.5896       4.2023       5.8030       6.8467       7.5107       7.7538       8.0394       4.8576     -80.9176    7613.7974
 5268.0108    5268.0107       8.5000      47.4122       4.6346       6.3883       7.6201       8.3959       8.6358       8.9416       4.8482     -28.6114    7665.1895
 5267.8584    5267.8584       8.5000      49.1228       5.1999       7.1326       8.6050       9.5349       9.7659      10.0886       4.8481      12.7016    7706.4287
 5267.7060    5267.7061       8.5000      58.3674       5.9898       8.1057       9.8323      10.9459      11.1610      11.4935       4.8526      34.3380    7728.5020
 5267.5536    5267.5536       8.5000      73.7301       6.8286       8.9665      10.7981      12.0360      12.2176      12.5324       4.8502      60.8905    7755.8836
 5267.4012    5267.4012       8.5000      91.5555       7.2497       9.0388      10.6517      11.8327      11.9630      12.2161       4.8487     112.3167    7808.8723
 5267.2488    5267.2488       8.5000     105.3657       7.1527       8.3206       9.4942      10.4602      10.5406      10.7107       4.8558     177.8883    7877.1223
 5267.0964    5267.0964       8.5000     111.3389       6.8419       7.4007       8.1513       8.8743       8.9223       9.0202       4.8633     243.3276    7946.4522
 5266.9440    5266.9440       8.5000     111.3140       6.4724       6.5862       7.0309       7.5562       7.5898       7.6348       4.8597     308.1031    8016.3024
 5266.7916    5266.7916       8.5000     108.0417       6.1384       5.9907       6.2477       6.6399       6.6739       6.6825       4.8504     364.1047    8078.4310
 5266.6392    5266.6392       8.5000     101.8611       5.9652       5.6907       5.8540       6.1752       6.2214       6.2053       4.8413     393.0150    8114.1233
 5266.4868    5266.4868       8.5000      93.2255       5.9297       5.6120       5.7516       6.0557       6.1261       6.0922       4.8341     408.4149    8136.5549
 5266.3344    5266.3344       8.5000      83.4208       5.9051       5.6115       5.7842       6.1135       6.2212       6.1746       4.8339     447.1373    8182.8632
 5266.1820    5266.1820       8.5000      76.9928       5.8309       5.6185       5.8755       6.2674       6.4258       6.3724       4.8465     513.0368    8257.4160
 5266.0296    5266.0296       8.5000      79.6705       5.7377       5.6637       6.0576       6.5567       6.7816       6.7275       4.8577     570.0797    8324.3200
 5265.8772    5265.8772       8.5000      90.4487       5.6807       5.8391       6.4379       7.0983       7.4114       7.3638       4.8521     605.8527    8370.7698
 5265.7248    5265.7248       8.5000     102.2089       5.6824       6.2426       7.1401       8.0341       8.4670       8.4357       4.8447     639.7336    8415.8977
 5265.5724    5265.5724       8.5000     110.0647       5.5506       6.7024       7.9704       9.1444       9.7161       9.7167       4.8473     684.0750    8472.2099
 5265.4200    5265.4200       8.5000     113.4004       4.9497       6.6467       8.1883       9.5474      10.2059      10.2510       4.8415     728.1077    8529.0776
 5265.2676    5265.2676       8.5000     113.6832       4.0617       5.9613       7.5325       8.8773       9.5208       9.6086       4.8260     753.3260    8567.7715
 5265.1152    5265.1152       8.5000     112.1067       3.3099       5.1111       6.5316       7.7269       8.2866       8.4040       4.8212     758.8857    8586.8359
 5264.9628    5264.9628       8.5000     108.0611       2.8480       4.4638       5.6994       6.7230       7.1864       7.3231       4.8303     774.1587    8615.3392
 5264.8104    5264.8104       8.5000     100.8763       2.6699       4.1517       5.2598       6.1575       6.5450       6.6998       4.8389     823.2595    8678.0913
 5264.6580    5264.6580       8.5000      92.7028       2.6915       4.1122       5.1566       5.9749       6.3053       6.4815       4.8393     886.5594    8756.3956
 5264.5056    5264.5056       8.5000      83.9612       2.8018       4.2062       5.2244       5.9874       6.2698       6.4688       4.8336     938.8715    8825.0989
 5264.3532    5264.3532       8.5000      75.5404       2.9205       4.3291       5.3369       6.0556       6.2946       6.5152       4.8263     967.0114    8870.4577
 5264.2008    5264.2008       8.5000      72.1592       3.0043       4.4199       5.4202       6.1008       6.3021       6.5407       4.8259     878.7409    8798.9570
 5264.0484    5264.0484       8.5000      78.1073       3.0433       4.4593       5.4508       6.1004       6.2726       6.5247       4.8366     549.5639    8482.5376
 5263.8960    5263.8960       8.5000      90.5955       3.0491       4.4571       5.4408       6.0700       6.2243       6.4867       4.8534      88.8565    8026.8872
