~VERSION INFORMATION
VERS.           2.0   :CWLS Log ASCII Standard - VERSION 2.0
WRAP.           YES   :Multiple lines per depth step
PROD.  Schlumberger   :LAS Producer
PROG.  DLIS to ASCII 2.3                               :LAS Program name and version
CREA.        2023/07/14 00:15                          :LAS Creation date {YYYY/MM/DD hh:mm}
DLIS_CREA.  2023-Jul-14 00:11                          :DLIS Creation date and time {YYYY-MMM-DD hh:mm}
SOURCE.     LIS_007.dlis                               :DLIS File Name
FILE-ID.     LIS   .003                                :File Identification Number
#--------------------------------------------------
~WELL INFORMATION
#MNEM.UNIT      DATA             DESCRIPTION
#---- ------ --------------   -----------------------------
STRT .M      5238.7500       :START DEPTH     
STOP .M      4241.4444       :STOP DEPTH     
STEP .M        -0.1524       :STEP     
NULL .          -999.25      :NULL VALUE
COMP .        PETROBRAS S.A.                           :COMPANY
WELL .        3-BRSA-293D-SPS                          :WELL
FLD  .        BS-400                                   :FIELD
LOC  .        BASE SAD 69:                             :LOCATION
CNTY .        SANTOS                                   :COUNTY
STAT .        BRASIL                                   :STATE
CTRY .        SANTOS                                   :COUNTRY
API  .                                                 :API NUMBER
UWI  .                                                 :UNIQUE WELL ID
DATE .        23/10/2004                               :LOG DATE
SRVC .        Schlumberger                             :SERVICE COMPANY
LATI .DEG                                              :LATITUDE
LONG .DEG                                              :LONGITUDE
GDAT .                                                 :GeoDetic Datum
#-----------------------------------------------------------------------------
~PARAMETER INFORMATION
#MNEM.UNIT    VALUE                      DESCRIPTION
#---- -----   --------------------       ------------------------
APD  .M               24                 :
BHT  .DEGF           280                 :
BLI  .M             5230                 :
BS   .IN         8.50000                 :
CN   .        PETROBRAS S.A.             :
COUN .        SANTOS                     :
CS   .IN         9.62500                 :
DATE .        23/10/2004                 :
DFD  .LB/G      12.30000                 :
DFL  .C3               2                 :
DFPH .        N/A                        :
DFT  .        SINTETICO                  :
DFV  .S               87                 :
DMF  .        MESA ROTATIVA              :
EDF  .M               24                 :
EGL  .M             -500                 :
EKB  .        N/A                        :
ENGI .        HERNANDEZ/LOCK             :
FL1  .        X   7292392.00 M LAT 24 28 47.189 S :
FL2  .        Y    584087.00 M LON 44 10 12.698 W :
FL3  .        MC  45 GRAUS               :
FN   .        BS-400                     :
LMF  .        MESA ROTATIVA              :
LUL  .        MACAE                      :
MCSS .        PRENSA                     :
MCST .DEGF            80                 :
MFSS .        PRENSA                     :
MFST .DEGF            80                 :
MSS  .        LINHA DE FLUXO             :
MST  .DEGF            80                 :
PDAT .        NIVEL DO MAR               :
R1   .        01. APRESENTAÇÃO DE ACORDO COM REQUERIMENTO DO CLIENTE :
R2   .        02. TEMPERATURA MÁXIMA DO POÇO T1=T2= 260 DEGF @  5180 M :
R3   .        03. INICIO DA CIRCULAÇÃO  13 45 H 21/10/2004 :
R4   .        04. FINAL DA CIRCULAÇÃO   16 00 H 21/10/2004 :
R5   .        05. TEMPO TOTAL DE CIRCULAÇÃO  02 15 H :
R6   .        06. FLUIDO DE PERFURAÇÃO  SINTETICO (BR-MUL  BR-MI)  65% TEOR DO OLEO :
R7   .        07. SALINIDADE DA LAMA  266377 PPM NACL NA FASE DE AGUA :
R8   .        08. INCLINAÇÃO MÁXIMA DO POÇO  37.37 GRAUS @ 5100 M :
R9   .        09. PRIMEIRAS E ULTIMAS LEITURAS  :
RMB  .OHMM    > 10                       :
RMCS .OHMM    > 10                       :
RMFS .OHMM    > 10                       :
RMS  .OHMM    > 10                       :
RUN  .                 1                 :
STAT .        BRASIL                     :
TCS  .        16 00 H                    :
TDD  .M             5230                 :
TDL  .M             5231                 :
TLAB .        N/A                        :
TLI  .M             4277                 :
WITN .        ALCIDIO/VLADIMIR           :
WN   .        3-BRSA-293D-SPS            :
LUN  .              8808                 :
HIDE .        3-SPS-41D                  :
HID2 .        COMPENSATED Z-DENSILOG     :
HID3 .        COMPENSATED NEUTRON LOG    :
HID4 .        GAMMA RAY LOG              :
HID5 .        TTRM SUB                   :
CLAB .        BACIA                      :
SLAB .        PAIS                       :
CMT1 .        ESC  1 1000                :
CMT2 .        PROF. MEDIDA               :
CMT4 .        SONDA  SS-43               :
HDAT .        SAD 69                     :
FL   .        BASE SAD 69                :
OS1  .        HDIL/XMAC/SL/GR            :
OS3  .        MREX/GR                    :
OS5  .        SL/GR                      :
LNAM .        MREX/ZDL/CN/XMAC/HDIL/3DEX/RCI/SL/GR :
TOOL .        MREX/ZDL/CN/XMAC/HDIL/3DEX/RCI/SL/GR :
LSOU .        PETROBRAS                  :
LSRV .        OH WIRELINE                :
LTYP .        RAW                        :
EPD  .M                0                 :
LDAT .        23/10/2004                 :
TRIP .                 1                 :
SON  .            772317                 :
CBDR .M             4277                 :
CBLO .M             4277                 :
CBL1 .M             4277                 :
STEM .DEGF    N/A                        :
BSAL .            266377                 :
BARI .        OFF                        :
DLAB .        21/10/2004                 :
MRT  .DEGF           280                 :
TSTR .        ZDL/CN/GR/TTRM             :
TSTG .        N/A                        :
STUS .        FINAL                      :
LCNM .        BAKER ATLAS                :
LCC  .               150                 :
NATI .        SANTOS                     :
OPMD .        OH.WIRELINE                :
PANA .        HERNANDEZ/LOCK             :
PCON .        BAKER ATLAS                :
R11  .        GR     5222.5 M/4277.0 M   :
R12  .        ZDL    5230.0 M/4277.0 M   :
R13  .        CN     5224.0 M/4277.0 M   :
R15  .        10. PONTO FRACO UTILIZADO  10K :
R17  .        12. DECLINAÇÃO MAGNETICA  -20.9 GRAUS :
R18  .        13. COORDENADAS BASE       :
R21  .        Y    583936.00 M           :
R22  .        MC  45 GRAUS               :
PVER .           4.10000                 :
WDFN .        /space/expusr/3-SPS-41D/i77bf07_4spf.xtf :
OCT  .        i77bf                      :
0S2  .        3DEX/GR                    :
OS4  .        RCI/GR                     :
R16  .        11. CNC CORREGIDO PELO CALIPER E SALINIDADE  PRESENTADO MATRIZ CARBONATO :
R20  .        X   7292512.00 M           :
R24  .        14. CADASTRO ANP  86316021017 :
#-----------------------------------------------------------------------------
~CURVE INFORMATION
#MNEM.UNIT   API CODE                                  DESCRIPTION
#---- -----  --------                                  -----------------------
DEPT .M                                                :DEPTH (BOREHOLE) {F10.4}
DEPT .M                                                : {F13.4}
BIT  .IN                                               : {F13.4}
DEPM .M                                                : {F13.4}
GR   .GAPI                                             : {F13.4}
SPD  .M/MN                                             : {F13.4}
TEN  .LBF                                              : {F13.4}
TTEN .LBF                                              : {F13.4}
CAL  .IN                                               : {F13.4}
CALX .IN                                               : {F13.4}
HRD1 .HZ                                               : {F13.4}
HRD2 .HZ                                               : {F13.4}
PE   .B/E                                              : {F13.4}
SFT2 .HZ                                               : {F13.4}
SOFT .HZ                                               : {F13.4}
SSD  .HZ                                               : {F13.4}
ZCOR .G/C3                                             : {F13.4}
ZDEN .G/C3                                             : {F13.4}
CNC  .PU                                               : {F13.4}
CN   .PU                                               : {F13.4}
LSN  .HZ                                               : {F13.4}
SSN  .HZ                                               : {F13.4}
CNCF .PU                                               : {F13.4}
#-----------------------------------------------------------------------------
# DEPT       
#     DEPT         BIT          DEPM         GR           SPD          TEN          
#     TTEN         CAL          CALX         HRD1         HRD2         PE           
#     SFT2         SOFT         SSD          ZCOR         ZDEN         CNC          
#     CN           LSN          SSN          CNCF         
~A  
# ...
5042.4588
   5042.4588       8.5000    5041.9246      72.8156       5.2615      24.4441
   6394.3114       8.6893       8.6893     627.4527     889.6715       6.1601
    494.7818     341.2496    6215.8207      -0.0512       2.5418      18.7015
     19.0069    1245.4980    3066.7856      18.7015
5042.3064
   5042.3064       8.5000    5041.7732      72.4390       5.2659       5.6543
   6375.7406       8.6889       8.6889     615.4057     870.8452       6.1117
    486.8956     338.3676    6196.2058      -0.0485       2.5490      18.5910
     18.8953    1245.7532    3057.8137      18.5910
5042.1540
   5042.1540       8.5000    5041.6208      72.7429       5.2831     -13.8075
   6356.1491       8.6883       8.6883     609.9839     857.2325       6.0563
    492.3732     337.2785    6174.2888      -0.0483       2.5542      18.5475
     18.8510    1250.8912    3066.5890      18.5475
5042.0016
   5042.0016       8.5000    5041.4684      73.3658       5.2808     -39.4751
   6329.9060       8.6882       8.6882     609.9105     862.8258       6.0018
    502.2119     341.8382    6152.2948      -0.0525       2.5537      18.3641
     18.6662    1268.3822    3093.2160      18.3641
5041.8492
   5041.8492       8.5000    5041.3160      73.2915       5.2394     -46.6968
   6321.8535       8.6886       8.6886     616.8109     876.7365       5.9631
    502.5430     348.4167    6168.9807      -0.0538       2.5493      18.1529
     18.4538    1291.6647    3130.8930      18.1529
5041.6968
   5041.6968       8.5000    5041.1636      72.4713       5.1948     -22.1059
   6345.8671       8.6893       8.6893     632.8900     880.0914       5.9239
    495.1723     349.1228    6223.7223      -0.0494       2.5456      18.1572
     18.4587    1307.0607    3168.6584      18.1572
5041.5444
   5041.5444       8.5000    5041.0112      71.8678       5.1853      13.5030
   6381.4700       8.6897       8.6897     642.5851     868.2753       5.8809
    495.5208     346.7073    6234.0929      -0.0475       2.5470      18.4679
     18.7719    1307.0234    3197.0402      18.4679
5041.3920
   5041.3920       8.5000    5040.8588      72.0222       5.2055      28.7758
   6397.1446       8.6897       8.6897     635.8630     854.4736       5.8664
    499.0049     348.4311    6193.3578      -0.0497       2.5522      18.7185
     19.0243    1300.5489    3203.8958      18.7185
5041.2396
   5041.2396       8.5000    5040.7064      73.3455       5.2331      18.3070
   6387.0858       8.6897       8.6897     629.7355     853.4294       5.9009
    502.2960     351.6505    6182.9863      -0.0499       2.5541      18.6093
     18.9144    1291.5609    3171.9522      18.6093
5041.0872
   5041.0872       8.5000    5040.5540      74.4395       5.2565       6.5359
   6375.5676       8.6897       8.6897     638.9637     862.5044       5.9110
    509.7951     351.5679    6222.7944      -0.0474       2.5498      18.4822
     18.7863    1268.7935    3104.7912      18.4822
5040.9348
   5040.9348       8.5000    5040.4016      73.4682       5.2822       9.3203
   6378.5972       8.6895       8.6895     648.8246     869.8430       5.9121
    513.7392     348.3571    6264.4371      -0.0445       2.5450      18.8040
     19.1102    1231.4783    3041.0343      18.8040
5040.7824
   5040.7824       8.5000    5040.2492      71.4055       5.3106      14.6595
   6384.2495       8.6889       8.6889     640.7674     876.0952       5.9290
    504.2199     345.0345    6287.8603      -0.0408       2.5442      19.2021
     19.5104    1208.6592    3017.8562      19.2021
5040.6300
   5040.6300       8.5000    5040.0968      70.0242       5.3154       7.8707
   6377.6981       8.6882       8.6882     629.6386     881.1008       5.9354
    493.8256     344.1670    6296.6440      -0.0385       2.5457      19.2529
     19.5610    1212.7840    3032.3424      19.2529
5040.4776
   5040.4776       8.5000    5039.9444      69.2461       5.2887      -3.3355
   6366.5293       8.6882       8.6882     633.3959     872.5095       5.9408
    494.5425     345.1857    6300.4621      -0.0371       2.5472      19.3980
     19.7069    1217.6738    3056.6685      19.3980
5040.3252
   5040.3252       8.5000    5039.7910      68.3753       5.2651      -3.6699
   6366.1387       8.6883       8.6883     642.8942     861.2883       5.9823
    497.9061     345.6167    6299.2783      -0.0369       2.5473      19.8431
     20.1548    1206.4382    3065.0459      19.8431
5040.1728
   5040.1729       8.5000    5039.6387      67.2101       5.2686       1.8415
   6371.6289       8.6887       8.6887     644.5177     867.8989       5.9946
    497.7002     345.9346    6275.2588      -0.0418       2.5452      19.9187
     20.2310    1198.5803    3051.2373      19.9187
5040.0204
   5040.0204       8.5000    5039.4862      65.2046       5.2856       4.6503
   6374.4754       8.6892       8.6892     640.6943     886.5598       5.9622
    497.2236     349.9965    6245.4224      -0.0488       2.5419      19.4850
     19.7953    1207.3014    3037.8839      19.4850
5039.8680
   5039.8680       8.5000    5039.3338      63.5442       5.2922       0.7287
   6370.6405       8.6892       8.6892     638.3029     897.7600       5.9317
    497.8994     352.8442    6215.7767      -0.0546       2.5397      19.1522
     19.4604    1222.5720    3048.4152      19.1522
5039.7156
   5039.7156       8.5000    5039.1814      63.8402       5.2943     -12.2522
   6357.6801       8.6883       8.6883     640.4431     901.1127       5.9618
    501.7755     348.5984    6188.6071      -0.0595       2.5385      19.0131
     19.3197    1236.4949    3071.2165      19.0131
5039.5632
   5039.5632       8.5000    5039.0300      64.5398       5.3079     -24.1936
   6345.5684       8.6873       8.6873     648.4410     895.4517       5.9595
    506.7549     347.5338    6199.2742      -0.0583       2.5382      18.8790
     19.1839    1246.5361    3084.5404      18.8790
5039.4108
   5039.4108       8.5000    5038.8776      64.2141       5.3181     -22.2535
   6347.2371       8.6877       8.6877     654.6375     878.4376       5.7417
    504.8726     358.1807    6241.8432      -0.0503       2.5401      18.8928
     19.1982    1248.6508    3090.9992      18.8928
5039.2584
   5039.2584       8.5000    5038.7252      63.9100       5.3065     -17.7955
   6351.4388       8.6895       8.6895     654.0483     869.3042       5.5614
    498.4564     368.1632    6252.1688      -0.0471       2.5424      19.0412
     19.3489    1244.8792    3094.5366      19.0412
5039.1060
   5039.1060       8.5000    5038.5728      65.0050       5.2865     -16.2750
   6352.6886       8.6895       8.6895     646.6731     875.2195       5.5635
    495.7020     364.9013    6226.8557      -0.0505       2.5434      19.0908
     19.3989    1236.5857    3078.1520      19.0908
5038.9536
   5038.9536       8.5000    5038.4204      67.6929       5.2752      -7.7311
   6361.0657       8.6865       8.6865     636.7589     880.3120       5.7855
    494.0343     355.6267    6226.7038      -0.0497       2.5450      18.8926
     19.1970    1225.2485    3032.9669      18.8926
5038.8012
   5038.8012       8.5000    5038.2680      69.7278       5.2701      -8.5324
   6360.2358       8.6827       8.6827     630.8563     875.3320       6.0168
    491.1444     345.3901    6247.7157      -0.0447       2.5477      18.5908
     18.8903    1213.4860    2978.1915      18.5908
5038.6488
   5038.6488       8.5000    5038.1156      69.2562       5.2699     -29.3117
   6339.2362       8.6800       8.6800     630.3133     872.1897       6.2383
    494.1883     336.1490    6259.9998      -0.0423       2.5490      18.6517
     18.9495    1197.3887    2943.5818      18.6517
5038.4964
   5038.4964       8.5000    5037.9632      68.6467       5.2767     -46.0853
   6321.8563       8.6787       8.6787     631.2537     876.2653       6.4291
    500.8112     330.6480    6257.7927      -0.0435       2.5484      19.1986
     19.4988    1179.1675    2943.2821      19.1986
5038.3440
   5038.3440       8.5000    5037.8108      71.1426       5.2883     -51.1951
   6315.9343       8.6795       8.6795     632.9511     880.8076       6.5274
    503.5496     328.2153    6255.8624      -0.0449       2.5479      19.7389
     20.0429    1170.2473    2964.2676      19.7389
