~VERSION INFORMATION
VERS.           2.0   :CWLS Log ASCII Standard - VERSION 2.0
WRAP.           NO    :One Line per depth step
PROD.  Schlumberger   :LAS Producer
PROG.  DLIS to ASCII 2.3                               :LAS Program name and version
CREA.        2023/07/14 00:15                          :LAS Creation date {YYYY/MM/DD hh:mm}
DLIS_CREA.  2023-Jul-14 00:11                          :DLIS Creation date and time {YYYY-MMM-DD hh:mm}
SOURCE.     LIS_010.dlis                               :DLIS File Name
FILE-ID.     LIS   .003                                :File Identification Number
#--------------------------------------------------
~WELL INFORMATION
#MNEM.UNIT      DATA             DESCRIPTION
#---- ------ --------------   -----------------------------
STRT .M      5284.9272       :START DEPTH     
STOP .M      4939.1316       :STOP DEPTH     
STEP .M        -0.1524       :STEP     
NULL .          -999.25      :NULL VALUE
COMP .        PETROBRAS S.A.                           :COMPANY
WELL .        3-BRSA-293D-SPS                          :WELL
FLD  .        BS-400                                   :FIELD
LOC  .        BASE SAD 69:                             :LOCATION
CNTY .        SANTOS                                   :COUNTY
STAT .        BRASIL                                   :STATE
CTRY .        BRASIL                                   :COUNTRY
API  .                                                 :API NUMBER
UWI  .                                                 :UNIQUE WELL ID
DATE .        15/11/2004                               :LOG DATE
SRVC .        Schlumberger                             :SERVICE COMPANY
LATI .DEG                                              :LATITUDE
LONG .DEG                                              :LONGITUDE
GDAT .                                                 :GeoDetic Datum
#-----------------------------------------------------------------------------
~PARAMETER INFORMATION
#MNEM.UNIT    VALUE                      DESCRIPTION
#---- -----   --------------------       ------------------------
APD  .M               24                 :
BHT  .DEGF           260                 :
BLI  .M             5289                 :
BS   .IN         8.50000                 :
CN   .        PETROBRAS S.A.             :
COUN .        SANTOS                     :
CS   .IN         9.62500                 :
DATE .        15/11/2004                 :
DFD  .LB/G      12.30000                 :
DFL  .C3               2                 :
DFPH .        N/A                        :
DFT  .        SINTETICO                  :
DFV  .S               95                 :
DMF  .        MESA ROTATIVA              :
EDF  .M               24                 :
EGL  .M             -500                 :
EKB  .        N/A                        :
ENGI .        HERNANDEZ / LOCK           :
FL1  .        X   7292392.00 M LAT 24 28 47.189 S :
FL2  .        Y    584087.00 M LON 44 10 12.698 W :
FL3  .        MC  45 GRAUS               :
FN   .        BS-400                     :
LMF  .        MESA ROTATIVA              :
LUL  .        MACAE                      :
MCSS .        PRENSA                     :
MCST .DEGF            80                 :
MFSS .        PRENSA                     :
MFST .DEGF            80                 :
MSS  .        LINHA DE FLUXO             :
MST  .DEGF            80                 :
PDAT .        NIVEL DO MAR               :
R1   .        01. APRESENTAÇÃO DE ACORDO COM REQUERIMENTO DO CLIENTE :
R2   .        02. TEMPERATURA MÁXIMA DO POÇO T1=T2= 290 DEGF @  5275 M :
R3   .        03. INICIO DA CIRCULAÇÃO  12/11/2004 09 00 H :
R4   .        04. FINAL DA CIRCULAÇÃO   12/11/2004 18 00 H :
R5   .        05. TEMPO TOTAL DE CIRCULAÇÃO   09 00 H :
R6   .        06. FLUIDO DE PERFURAÇÃO  SINTETICO (BR-MUL  BR-MI)  60% TEOR DO OLEO :
R7   .        07. SALINIDADE DA LAMA  254762 PPM NACL NA FASE DE AGUA :
R8   .        08. INCLINAÇÃO MÁXIMA DO POÇO  37.37 GRAUS @ 5100 M :
R9   .        09. PRIMEIRAS E ULTIMAS LEITURAS  :
RMB  .OHMM    > 10                       :
RMCS .OHMM    > 10                       :
RMFS .OHMM    > 10                       :
RMS  .OHMM    >10                        :
RUN  .                 2                 :
STAT .        BRASIL                     :
TCS  .        18 00 H                    :
TDD  .M             5288                 :
TDL  .M             5293                 :
TLAB .        N/A                        :
TLI  .M             5000                 :
WITN .        ERNANI / ZE MARIA          :
WN   .        3-BRSA-293D-SPS            :
LUN  .              8808                 :
HIDE .        3-SPS-41D                  :
HID2 .        HIGH DEFINITION INDUCTION LOG :
HID3 .        X-MULTIPOLE ARRAY ACOUSTILOG :
HID4 .        GAMMA RAY LOG              :
HID5 .        TTRM SUB                   :
CLAB .        BACIA                      :
SLAB .        PAIS                       :
CMT1 .        ESC  1 200                 :
CMT2 .        PROF. MEDIDA               :
CMT4 .        SONDA  SS-43               :
HDAT .        SAD 69                     :
FL   .        BASE SAD 69                :
OS1  .        RCI/GR                     :
OS2  .        CHECK SHOT                 :
OS3  .        GR/CN/ZDL                  :
OS5  .        RCOR/GR                    :
LNAM .        ZDL/CN/XMAC/HDIL/EARTH IMAGER/RCI/RCOR/CHECK SHOT/GR :
TOOL .        ZDL/CN/XMAC/HDIL/EARTH IMAGER/RCI/RCOR/CHECK SHOT/GR :
LSOU .        PETROBRAS                  :
LSRV .        OH WIRELINE                :
LTYP .        RAW                        :
EPD  .M                0                 :
LDAT .        15/11/2004                 :
TRIP .                 3                 :
SON  .            786588                 :
CBDR .M             4277                 :
CBLO .        NR                         :
CBL1 .        NR                         :
STEM .DEGF    N/A                        :
BSAL .            254762                 :
BARI .        OFF                        :
DLAB .        12/11/2004                 :
MRT  .DEGF           290                 :
TSTR .        HDIL/XMAC/GR/TTRM          :
TSTG .        N/A                        :
STUS .        FINAL                      :
LCNM .        BAKER ATLAS                :
LCC  .               150                 :
NATI .        BRASIL                     :
OPMD .        OH.WIRELINE                :
PANA .        HERNANDEZ / LOCK           :
PCON .        BAKER ATLAS                :
R11  .        SL     5268.3 M / 5000.0 M :
R12  .        GR     5268.3 M / 5000.0 M :
R13  .        XMAC   5279.5 M / 5000.0 M :
R14  .        HDIL   5289.0 M / 5000.0 M :
R17  .        11. DECLINAÇÃO MAGNETICA  -20.9 GRAUS :
R18  .        12. COORDENADAS BASE       :
R21  .        Y    583936.00 M           :
R22  .        MC  45 GRAUS               :
PVER .           4.10000                 :
WDFN .        /space/expusr/3-SPS-41D_RUN2/i77bf02_2spf.xtf :
OCT  .        i77bf                      :
OS4  .        EARTH IMAGER               :
R16  .        10. PONTO FRACO UTILIZADO  10K :
R20  .        X   7292512.00 M           :
R24  .        13. CADASTRO ANP  86316021017 :
#-----------------------------------------------------------------------------
~CURVE INFORMATION
#MNEM.UNIT   API CODE                                  DESCRIPTION
#---- -----  --------                                  -----------------------
DEPT .M                                                :DEPTH (BOREHOLE) {F10.4}
DEPT .M                                                : {F13.4}
DT   .US/F                                             : {F13.4}
SFN1 .US                                               : {F13.4}
SFN2 .US                                               : {F13.4}
SFN3 .US                                               : {F13.4}
SFN4 .US                                               : {F13.4}
TT   .MS                                               : {F13.4}
#-----------------------------------------------------------------------------
# 
#     DEPT        DEPT         DT           SFN1         SFN2         SFN3         SFN4         TT
#
~A  
# ...
 5152.4916    5152.4916      71.9585     739.0128     776.0026     814.5022     845.8890      28.1651
 5152.3392    5152.3392      71.4909     733.6367     769.1400     812.2549     847.3717      28.2008
 5152.1868    5152.1868      71.4485     739.7389     771.8700     812.4995     849.7457      28.2366
 5152.0344    5152.0344      71.6225     741.9967     775.9940     811.1270     848.5018      28.2724
 5151.8820    5151.8820      71.6416     739.8773     775.2508     813.3726     846.2524      28.3082
 5151.7296    5151.7296      71.4179     740.6245     775.4998     814.1245     847.9988      28.3439
 5151.5772    5151.5771      71.1046     741.3750     776.0000     813.5000     848.0000      28.3795
 5151.4248    5151.4248      70.8143     737.1250     773.5000     811.3750     846.1250      28.4149
 5151.2724    5151.2724      70.4743     735.1248     769.6244     809.3745     845.3746      28.4502
 5151.1200    5151.1200      70.0176     734.4958     767.9990     807.9981     844.2475      28.4852
 5150.9676    5150.9676      69.6115     728.9960     766.7442     805.4962     840.9966      28.5200
 5150.8152    5150.8152      69.6610     725.4936     761.6137     802.1144     837.9917      28.5549
 5150.6628    5150.6628      70.4452     721.2673     754.1376     795.1341     832.5103      28.5901
 5150.5104    5150.5104      71.7436     730.4617     760.8471     799.9798     837.9772      28.6258
 5150.3580    5150.3580      72.9837     728.3831     765.1089     800.0000     834.3888      28.6623
 5150.2056    5150.2056      73.5025     732.4859     767.1181     805.9794     839.7316      28.6990
 5150.0532    5150.0532      72.8965     730.1323     767.9973     805.7508     840.9962      28.7355
 5149.9008    5149.9008      71.3115     729.1277     764.3847     804.7527     839.7534      28.7712
 5149.7484    5149.7484      69.4506     731.8686     763.5020     802.3805     839.2512      28.8059
 5149.5960    5149.5960      68.1764     726.6352     760.0068     797.8838     832.0141      28.8400
 5149.4436    5149.4436      68.0343     720.1353     755.3823     792.5085     824.0126      28.8740
 5149.2912    5149.2912      68.9508     727.2414     759.9944     798.9921     831.9903      28.9085
 5149.1388    5149.1388      70.3037     729.7479     762.1232     800.7485     834.9975      28.9437
 5148.9864    5148.9864      71.4659     728.7505     763.7492     800.3752     835.7496      28.9794
 5148.8340    5148.8340      72.2111     729.6250     764.0000     802.8750     837.0000      29.0155
 5148.6816    5148.6816      72.5728     728.7500     764.1250     801.2500     838.2500      29.0518
 5148.5292    5148.5292      72.6031     730.2494     766.1251     803.3743     839.1247      29.0882
 5148.3768    5148.3768      72.3106     729.3808     766.2484     802.2511     838.6254      29.1243
 5148.2244    5148.2244      71.8046     735.1245     764.6296     803.3717     838.9998      29.1602
 5148.0720    5148.0720      71.3863     734.7472     768.0000     801.0069     838.8715      29.1960
 5147.9196    5147.9196      71.3089     733.1319     768.0000     804.9829     836.8835      29.2314
 5147.7672    5147.7672      71.5447     733.2495     766.8794     805.9961     839.9877      29.2672
 5147.6148    5147.6148      71.8049     734.4956     767.9960     806.7473     840.0000      29.3031
 5147.4624    5147.4624      71.7874     731.6342     768.0000     807.3730     840.6230      29.3390
 5147.3100    5147.3100      71.4867     730.8771     766.5042     807.9982     840.8743      29.3748
 5147.1576    5147.1576      71.2648     734.4911     767.9963     806.6284     844.1170      29.4104
 5147.0052    5147.0052      71.5510     735.4979     766.3784     802.6333     839.7591      29.4462
 5146.8528    5146.8528      72.4556     735.9991     766.9989     804.2472     839.2509      29.4824
 5146.7004    5146.7004      73.6305     739.4953     768.4980     804.7493     838.7507      29.5193
 5146.5480    5146.5480      74.4974     739.9995     772.8707     807.4973     838.8749      29.5565
 5146.3956    5146.3956      74.7448     742.3736     775.9981     813.8711     843.4972      29.5939
 5146.2432    5146.2432      74.4702     743.0000     776.0000     815.1250     849.0000      29.6312
 5146.0908    5146.0908      73.9436     744.7500     778.5000     816.0000     851.1250      29.6681
 5145.9384    5145.9384      73.3617     744.0003     779.8746     816.8761     851.6261      29.7048
 5145.7860    5145.7860      72.7497     744.5009     779.0000     818.9991     853.7510      29.7412
 5145.6336    5145.6336      72.0854     745.5000     778.9995     817.9984     854.8724      29.7773
 5145.4812    5145.4812      71.4417     745.5052     778.6312     816.7506     852.7514      29.8130
 5145.3288    5145.3288      70.9543     748.7357     782.4829     817.1233     853.6211      29.8483
 5145.1764    5145.1764      70.7033     747.5051     782.6245     819.7393     854.4964      29.8836
 5145.0240    5145.0240      70.7532     744.1375     778.8888     818.1310     852.1338      29.9190
 5144.8716    5144.8716      71.0626     744.0004     777.6292     817.1283     853.3708      29.9546
 5144.7192    5144.7192      71.3401     744.1246     776.5033     816.5018     852.0041      29.9903
 5144.5668    5144.5668      71.4665     746.3692     779.6169     816.9987     852.9974      30.0260
 5144.4144    5144.4144      71.8151     745.1278     778.1283     816.3764     850.2561      30.0619
 5144.2620    5144.2620      72.8260     745.0002     778.9984     816.6245     851.2482      30.0984
 5144.1096    5144.1096      74.5470     743.3774     776.0044     816.0009     849.2530      30.1356
 5143.9572    5143.9572      76.2905     743.9993     779.8707     820.6199     855.7428      30.1738
 5143.8048    5143.8048      77.0711     757.4900     786.3702     854.3501     891.9732      30.2123
 5143.6524    5143.6523      76.6198     736.0000     770.1250     812.7500     848.5000      30.2507
 5143.5000    5143.5000      75.5827     737.6250     773.5000     814.5000     848.7500      30.2885
 5143.3476    5143.3477      74.7580     736.2500     772.0000     812.8750     848.1250      30.3259
 5143.1952    5143.1952      74.3485     738.5007     774.9973     815.2468     849.3740      30.3631
 5143.0428    5143.0428      74.0451     739.5026     771.3776     810.8739     847.9990      30.4001
 5142.8904    5142.8904      73.4450     741.8720     773.7533     809.8796     847.1246      30.4368
 5142.7380    5142.7380      72.5276     739.8819     775.9984     813.0039     846.8755      30.4731
 5142.5856    5142.5856      71.6604     743.6094     775.1286     815.1161     847.1240      30.5087
 5142.4332    5142.4332      71.1357     743.9986     775.9967     812.8836     847.9967      30.5443
 5142.2808    5142.2808      71.1445     739.3910     776.0000     814.7435     847.5017      30.5799
 5142.1284    5142.1284      71.6732     740.8704     775.2523     814.5008     847.9985      30.6157
 5141.9760    5141.9760      72.4205     741.8723     775.3747     814.0014     848.1247      30.6520
 5141.8236    5141.8236      72.9654     741.0021     776.3727     815.9953     849.6215      30.6885
 5141.6712    5141.6712      73.1528     743.1208     776.0007     816.8733     852.1201      30.7250
 5141.5188    5141.5188      73.0777     744.7474     776.0000     815.5022     852.0002      30.7616
 5141.3664    5141.3664      72.5878     740.8798     778.2472     814.7509     848.3795      30.7979
 5141.2140    5141.2140      71.5206     744.4968     776.0020     817.2478     849.6239      30.8337
 5141.0616    5141.0616      70.4515     743.8753     779.9980     816.0006     854.4975      30.8689
 5140.9092    5140.9092      70.8100     744.0000     776.1250     816.0000     842.5000      30.9043
 5140.7568    5140.7568      73.7231     924.3750     761.5000     800.8750     840.0000      30.9412
 5140.6044    5140.6044      78.4989     729.0042     767.2549     807.6287     845.5015      30.9805
