~VERSION INFORMATION
VERS.           2.0   :CWLS Log ASCII Standard - VERSION 2.0
WRAP.           YES   :Multiple lines per depth step
PROD.  Schlumberger   :LAS Producer
PROG.  DLIS to ASCII 2.3                               :LAS Program name and version
CREA.        2023/07/14 00:15                          :LAS Creation date {YYYY/MM/DD hh:mm}
DLIS_CREA.  2023-Jul-14 00:11                          :DLIS Creation date and time {YYYY-MMM-DD hh:mm}
SOURCE.     LIS_012.dlis                               :DLIS File Name
FILE-ID.     LIS   .001                                :File Identification Number
#--------------------------------------------------
~WELL INFORMATION
#MNEM.UNIT      DATA             DESCRIPTION
#---- ------ --------------   -----------------------------
STRT .M      5265.1152       :START DEPTH     
STOP .M      5185.4100       :STOP DEPTH     
STEP .M        -0.1524       :STEP     
NULL .          -999.25      :NULL VALUE
COMP .        PETROBRAS S.A.                           :COMPANY
WELL .        3-BRSA-293D-SPS                          :WELL
FLD  .        BS-400                                   :FIELD
LOC  .        BASE SAD 69:                             :LOCATION
CNTY .        SANTOS                                   :COUNTY
STAT .        BRASIL                                   :STATE
CTRY .        BRASIL                                   :COUNTRY
API  .                                                 :API NUMBER
UWI  .                                                 :UNIQUE WELL ID
DATE .        15/11/2004                               :LOG DATE
SRVC .        Schlumberger                             :SERVICE COMPANY
LATI .DEG                                              :LATITUDE
LONG .DEG                                              :LONGITUDE
GDAT .                                                 :GeoDetic Datum
#-----------------------------------------------------------------------------
~PARAMETER INFORMATION
#MNEM.UNIT    VALUE                      DESCRIPTION
#---- -----   --------------------       ------------------------
APD  .M               24                 :
BHT  .DEGF           260                 :
BLI  .M             5289                 :
BS   .IN         8.50000                 :
CN   .        PETROBRAS S.A.             :
COUN .        SANTOS                     :
CS   .IN         9.62500                 :
DATE .        15/11/2004                 :
DFD  .LB/G      12.30000                 :
DFL  .C3               2                 :
DFPH .        N/A                        :
DFT  .        SINTETICO                  :
DFV  .S               95                 :
DMF  .        MESA ROTATIVA              :
EDF  .M               24                 :
EGL  .M             -500                 :
EKB  .        N/A                        :
ENGI .        HERNANDEZ / LOCK           :
FL1  .        X   7292392.00 M LAT 24 28 47.189 S :
FL2  .        Y    584087.00 M LON 44 10 12.698 W :
FL3  .        MC  45 GRAUS               :
FN   .        BS-400                     :
LMF  .        MESA ROTATIVA              :
LUL  .        MACAE                      :
MCSS .        PRENSA                     :
MCST .DEGF            80                 :
MFSS .        PRENSA                     :
MFST .DEGF            80                 :
MSS  .        LINHA DE FLUXO             :
MST  .DEGF            80                 :
PDAT .        NIVEL DO MAR               :
R1   .        01. APRESENTAÇÃO DE ACORDO COM REQUERIMENTO DO CLIENTE :
R2   .        02. TEMPERATURA MÁXIMA DO POÇO T1=T2= 292 DEGF @  5277 M :
R3   .        03. INICIO DA CIRCULAÇÃO  12/11/2004 09 00 H :
R4   .        04. FINAL DA CIRCULAÇÃO   12/11/2004 18 00 H :
R5   .        05. TEMPO TOTAL DE CIRCULAÇÃO   09 00 H :
R6   .        06. FLUIDO DE PERFURAÇÃO  SINTETICO (BR-MUL  BR-MI)  60% TEOR DO OLEO :
R7   .        07. SALINIDADE DA LAMA  254762 PPM NACL NA FASE DE AGUA :
R8   .        08. INCLINAÇÃO MÁXIMA DO POÇO  37.37 GRAUS @ 5100 M :
R9   .        09. PRIMEIRAS E ULTIMAS LEITURAS  :
RMB  .OHMM    > 10                       :
RMCS .OHMM    > 10                       :
RMFS .OHMM    > 10                       :
RMS  .OHMM    >10                        :
RUN  .                 2                 :
STAT .        BRASIL                     :
TCS  .        18 00 H                    :
TDD  .M             5288                 :
TDL  .M             5293                 :
TLAB .        N/A                        :
TLI  .M             4277                 :
WITN .        ERNANI / ZE MARIA          :
WN   .        3-BRSA-293D-SPS            :
LUN  .              8808                 :
HIDE .        3-SPS-41D                  :
HID2 .        COMPENSATED Z-DENSILOG     :
HID3 .        COMPENSATED NEUTRON LOG    :
HID4 .        GAMMA RAY LOG              :
HID5 .        TTRM SUB                   :
CLAB .        BACIA                      :
SLAB .        PAIS                       :
CMT1 .        ESC  1 1000                :
CMT2 .        PROF. MEDIDA               :
CMT4 .        SONDA  SS-43               :
HDAT .        SAD 69                     :
FL   .        BASE SAD 69                :
OS1  .        RCI/GR                     :
OS2  .        CHECK SHOT                 :
OS3  .        GR/XMAC/HDIL               :
OS5  .        RCOR/GR                    :
LNAM .        ZDL/CN/XMAC/HDIL/EARTH IMAGER/RCI/RCOR/CHECK SHOT/GR :
TOOL .        ZDL/CN/XMAC/HDIL/EARTH IMAGER/RCI/RCOR/CHECK SHOT/GR :
LSOU .        PETROBRAS                  :
LSRV .        OH WIRELINE                :
LTYP .        RAW                        :
EPD  .M                0                 :
LDAT .        15/11/2004                 :
TRIP .                 4                 :
SON  .            786588                 :
CBDR .M             4277                 :
CBLO .        NR                         :
CBL1 .        NR                         :
STEM .DEGF    N/A                        :
BSAL .            254762                 :
BARI .        OFF                        :
DLAB .        12/11/2004                 :
MRT  .DEGF           292                 :
TSTR .        ZDL/CN/GR/TTRM             :
TSTG .        N/A                        :
STUS .        FINAL                      :
LCNM .        BAKER ATLAS                :
LCC  .               150                 :
NATI .        BRASIL                     :
OPMD .        OH.WIRELINE                :
PANA .        HERNANDEZ / LOCK           :
PCON .        BAKER ATLAS                :
R11  .        GR     5268.3 M / 4277.0 M :
R12  .        CN     5286.5 M / 5128.0 M (FERRAMENTA PERDEU LEITURA ACIMA DE 5128M) :
R13  .        ZDL    5292.0 M / 4277.0 M :
R15  .        10. PONTO FRACO UTILIZADO  10K :
R17  .        12. COORDENADAS BASE       :
R19  .        X   7292512.00 M           :
R21  .        MC  45 GRAUS               :
R23  .        13. CADASTRO ANP  86316021017 :
PVER .           4.10000                 :
WDFN .        /space/expusr/3-SPS-41D_RUN2/i77bf03_8spf.xtf :
OCT  .        i77bf                      :
OS4  .        EARTH IMAGER               :
R16  .        11. DECLINAÇÃO MAGNETICA  -20.9 GRAUS :
R20  .        Y    583936.00 M           :
#-----------------------------------------------------------------------------
~CURVE INFORMATION
#MNEM.UNIT   API CODE                                  DESCRIPTION
#---- -----  --------                                  -----------------------
DEPT .M                                                :DEPTH (BOREHOLE) {F10.4}
DEPT .M                                                : {F13.4}
BIT  .IN                                               : {F13.4}
DEPM .M                                                : {F13.4}
GR   .GAPI                                             : {F13.4}
SPD  .M/MN                                             : {F13.4}
TTEN .LBF                                              : {F13.4}
CAL  .IN                                               : {F13.4}
CALX .IN                                               : {F13.4}
HRD1 .HZ                                               : {F13.4}
HRD2 .HZ                                               : {F13.4}
PE   .B/E                                              : {F13.4}
SFT2 .HZ                                               : {F13.4}
SOFT .HZ                                               : {F13.4}
SSD  .HZ                                               : {F13.4}
ZCOR .G/C3                                             : {F13.4}
ZDEN .G/C3                                             : {F13.4}
CNC  .PU                                               : {F13.4}
CN   .PU                                               : {F13.4}
LSN  .HZ                                               : {F13.4}
SSN  .HZ                                               : {F13.4}
CNCF .PU                                               : {F13.4}
MMRK .MN                                               : {F13.4}
#-----------------------------------------------------------------------------
# DEPT       
#     DEPT         BIT          DEPM         GR           SPD          TTEN         
#     CAL          CALX         HRD1         HRD2         PE           SFT2         
#     SOFT         SSD          ZCOR         ZDEN         CNC          CN           
#     LSN          SSN          CNCF         MMRK         
~A  
# ...
5196.8400
   5196.8400       8.5000    5196.5470     100.3169       5.8987    7322.5001
      9.0537       9.0537     625.3848     834.3367       4.4840     523.1210
    398.9056    6729.2389      -0.0319       2.5521       9.8461      10.4413
   2454.0324    4312.6147       9.8461       0.0000
5196.6876
   5196.6876       8.5000    5196.3946      98.3825       5.8705    7364.7560
      9.0521       9.0524     658.1991     854.5036       4.7620     526.2201
    390.0265    6784.1445      -0.0377       2.5498       9.0511       9.4275
   2867.9774    4932.2726       9.0511       0.0000
5196.5352
   5196.5352       8.5000    5196.2422      94.2381       5.8656    7415.8555
      9.0533       9.0531     714.6364     916.2561       4.7092     610.9503
    425.7486    7148.7402      -0.0204       2.5290      10.4872      10.6130
   2739.3691    5175.2334      10.4872       0.0000
5196.3828
   5196.3828       8.5000    5196.0898      85.4611       5.8697    7426.7559
      9.0575       9.0549     742.2023     957.2240       4.7143     617.6127
    449.0926    7486.9873       0.0221       2.5133      14.2455      14.3341
   2203.9502    4900.5283      14.2455       0.0000
5196.2304
   5196.2304       8.5000    5195.9374      78.9400       5.9125    7382.5010
      9.0583       9.0583     780.8918    1000.9217       4.8325     576.0183
    453.1868    7472.6313       0.0178       2.4976      15.1883      15.8334
   1952.0790    4439.4403      15.1883       0.0000
5196.0780
   5196.0780       8.5000    5195.7841      80.1973       5.9030    7313.4267
      9.0596       9.0589     690.4525     923.5430       4.3428     570.4087
    448.8734    7034.1338       0.0010       2.5358      14.3866      14.9286
   1831.2234    4040.1162      14.3866       0.0000
5195.9256
   5195.9256       8.5000    5195.6317      82.9705       5.8956    7262.2957
      9.0606       9.0604     636.6530     800.7618       3.7596     533.7716
    427.1451    6652.4298      -0.0301       2.5800      14.9945      15.4053
   1724.7266    3849.3415      14.9945       0.0000
5195.7732
   5195.7732       8.5000    5195.4793      82.0068       5.8651    7233.2542
      9.0605       9.0600     637.5797     783.1565       3.8765     511.8308
    400.6269    6600.2612      -0.0415       2.5840      15.0167      15.6819
   1777.9217    3921.1400      15.0167       0.0000
5195.6208
   5195.6208       8.5000    5195.3278      81.8036       5.8565    7212.8772
      9.0600       9.0610     622.5989     770.8558       3.6112     526.8789
    420.8858    6638.4183      -0.0325       2.5859      14.2867      14.7476
   1813.5311    3957.3556      14.2867       0.0000
5195.4684
   5195.4684       8.5000    5195.1754      84.1946       5.8287    7200.9007
      9.0570       9.0584     634.1397     814.3888       4.2037     528.4869
    403.0684    6687.9096      -0.0366       2.5684      16.0930      16.4286
   1616.5988    3783.1362      16.0930       0.0000
5195.3160
   5195.3160       8.5000    5195.0230      86.0186       5.8088    7197.3902
      9.0554       9.0559     623.8448     785.3037       4.6169     525.5069
    368.4842    6699.2846      -0.0240       2.5767      16.3520      17.0344
   1550.2409    3609.0086      16.3520       0.0000
5195.1636
   5195.1636       8.5000    5194.8706      85.3835       5.8198    7198.9236
      9.0557       9.0558     601.3183     757.1555       4.5764     500.4145
    354.8697    6628.3316      -0.0230       2.5940      15.3191      15.8855
   1608.4955    3600.5809      15.3191       0.0000
5195.0112
   5195.0112       8.5000    5194.7182      83.3198       5.7703    7213.0034
      9.0532       9.0540     638.2892     730.7806       4.1854     502.7069
    369.5470    6619.0133      -0.0310       2.5930      15.4858      16.0012
   1641.8498    3691.4397      15.4858       0.0000
5194.8588
   5194.8588       8.5000    5194.5658      81.6458       5.7455    7238.7984
      9.0579       9.0553     615.1284     774.7799       4.2155     522.0612
    384.9129    6680.5147      -0.0245       2.5877      15.5026      16.1064
   1685.9118    3793.2517      15.5026       0.0000
5194.7064
   5194.7064       8.5000    5194.4134      80.5686       5.7714    7261.9976
      9.0599       9.0595     598.2530     795.4585       4.5469     505.1770
    369.3369    6677.2872      -0.0265       2.5872      14.4039      15.0224
   1770.2529    3841.4840      14.4039       0.3404
5194.5540
   5194.5540       8.5000    5194.2610      78.6937       5.7903    7275.9545
      9.0584       9.0590     572.1313     767.5016       4.6397     485.8468
    361.0321    6634.5377      -0.0178       2.6020      13.5216      14.1403
   1853.0560    3886.4881      13.5216       0.0012
5194.4016
   5194.4016       8.5000    5194.1086      75.3712       5.8258    7277.3901
      9.0569       9.0583     573.8449     768.2332       4.7363     498.0959
    355.8290    6605.5334      -0.0262       2.6041      12.7813      13.2921
   1937.5980    3960.7156      12.7813       0.0000
5194.2492
   5194.2492       8.5000    5193.9562      71.5059       5.8239    7276.5276
      9.0605       9.0569     562.1058     788.2419       5.3347     461.1272
    341.8863    6567.9656      -0.0291       2.6017      12.9903      13.4468
   1936.2651    4004.7585      12.9903       0.0000
5194.0968
   5194.0968       8.5000    5193.8038      69.7667       5.7959    7294.8458
      9.0645       9.0638     567.8336     791.0965       6.4791     451.8195
    297.6511    6583.6510      -0.0359       2.6002      12.6854      13.2338
   1982.3055    4037.2766      12.6854       0.0000
5193.9444
   5193.9444       8.5000    5193.6514      71.7622       5.7827    7327.1809
      9.0617       9.0635     571.5334     747.1808       5.7021     467.2019
    310.0152    6630.6728      -0.0155       2.6096      12.5980      13.0293
   2012.5464    4096.0462      12.5980       0.0000
5193.7920
   5193.7920       8.5000    5193.4990      76.9841       5.7774    7342.4277
      9.0617       9.0609     583.8629     723.7899       4.9944     457.8801
    325.7842    6605.1338      -0.0187       2.6101      13.8166      14.0814
   1922.0833    4125.3066      13.8166       0.0000
5193.6396
   5193.6396       8.5000    5193.3457      83.7659       5.7930    7332.7880
      9.0624       9.0623     586.7014     751.3539       4.9751     479.0715
    339.8216    6617.5010      -0.0227       2.5997      16.6271      16.9088
   1736.7778    4101.3770      16.6271       0.0000
5193.4872
   5193.4872       8.5000    5193.1933      89.4092       5.7848    -999.2500
      9.0612       9.0622     583.6311     758.1140       5.4425     479.3571
    320.5439    6555.1560      -0.0301       2.5983      18.0202      18.5008
   1655.0734    4063.5535      18.0202       0.0000
5193.3348
   5193.3348       8.5000    5193.0410      92.1651    -999.2500    -999.2500
      9.0603       9.0601     604.1774     760.4042       5.3637     468.9003
    324.1637    6532.9997      -0.0383       2.5905      17.8825      18.6275
   1647.3520    4013.0858      17.8825       0.0000
5193.1824
   5193.1824       8.5000    5193.0293      93.6821    -999.2500    -999.2500
      9.0610       9.0607     599.4812     786.3392       5.1928     466.5009
    345.1498    6479.1904      -0.0534       2.5826      16.3598      17.0532
   1674.4071    3908.3145      16.3598    -999.2500
5193.0300
   5193.0300    -999.2500    -999.2500      96.2133    -999.2500    -999.2500
   -999.2500       9.0621     618.2872     753.5004    -999.2500     484.1763
    336.5290    6631.7729      -0.0324    -999.2500      16.2725      16.3533
   1626.0576    3743.2228      16.2725    -999.2500
5192.8776
   5192.8776    -999.2500    -999.2500      96.7942    -999.2500    -999.2500
   -999.2500       9.0605     627.9244     722.5006    -999.2500     470.8305
    329.0627    6620.4144      -0.0218    -999.2500    -999.2500      16.7546
   1537.4040    3593.7860    -999.2500    -999.2500
5192.7252
   5192.7252    -999.2500    -999.2500      92.0982    -999.2500    -999.2500
   -999.2500       9.0629     615.8382     756.3836    -999.2500     468.1751
    326.7479    6573.1942      -0.0372    -999.2500    -999.2500      17.2742
   1548.3294    3596.3530    -999.2500    -999.2500
