~VERSION INFORMATION
VERS.           2.0   :CWLS Log ASCII Standard - VERSION 2.0
WRAP.           NO    :One Line per depth step
PROD.  Schlumberger   :LAS Producer
PROG.  DLIS to ASCII 2.3                               :LAS Program name and version
CREA.        2023/07/14 00:15                          :LAS Creation date {YYYY/MM/DD hh:mm}
DLIS_CREA.  2023-Jul-14 00:11                          :DLIS Creation date and time {YYYY-MMM-DD hh:mm}
SOURCE.     LIS_003.dlis                               :DLIS File Name
FILE-ID.     LIS   .003                                :File Identification Number
#--------------------------------------------------
~WELL INFORMATION
#MNEM.UNIT      DATA             DESCRIPTION
#---- ------ --------------   -----------------------------
STRT .M      5239.8168       :START DEPTH     
STOP .M      3827.6784       :STOP DEPTH     
STEP .M        -0.1524       :STEP     
NULL .          -999.25      :NULL VALUE
COMP .        PETROBRAS S.A.                           :COMPANY
WELL .        3-BRSA-293D-SPS                          :WELL
FLD  .        BS-400                                   :FIELD
LOC  .        BASE SAD 69:                             :LOCATION
CNTY .        SANTOS                                   :COUNTY
STAT .        BRASIL                                   :STATE
CTRY .        BRASIL                                   :COUNTRY
API  .                                                 :API NUMBER
UWI  .                                                 :UNIQUE WELL ID
DATE .        22/10/2004                               :LOG DATE
SRVC .        Schlumberger                             :SERVICE COMPANY
LATI .DEG                                              :LATITUDE
LONG .DEG                                              :LONGITUDE
GDAT .                                                 :GeoDetic Datum
#-----------------------------------------------------------------------------
~PARAMETER INFORMATION
#MNEM.UNIT    VALUE                      DESCRIPTION
#---- -----   --------------------       ------------------------
APD  .M               24                 :
BHT  .DEGF           260                 :
BLI  .M       5227.50000                 :
BS   .IN         8.50000                 :
CN   .        PETROBRAS S.A.             :
COUN .        SANTOS                     :
CS   .IN         9.62500                 :
DATE .        22/10/2004                 :
DFD  .LB/G      12.30000                 :
DFL  .C3               2                 :
DFPH .        N/A                        :
DFT  .        SINTETICO                  :
DFV  .S               87                 :
DMF  .        MESA ROTATIVA              :
EDF  .M               24                 :
EGL  .M             -500                 :
EKB  .        N/A                        :
ENGI .        HERNANDEZ/LOCK             :
FL1  .        X   7292392.00 M LAT 24 28 47.189 S :
FL2  .        Y    584087.00 M LON 44 10 12.698 W :
FL3  .        MC  45 GRAUS               :
FN   .        BS-400                     :
LMF  .        MESA ROTATIVA              :
LUL  .        MACAE                      :
MCSS .        PRENSA                     :
MCST .DEGF            80                 :
MFSS .        PRENSA                     :
MFST .DEGF            80                 :
MSS  .        LINHA DE FLUXO             :
MST  .DEGF            80                 :
PDAT .        NIVEL DO MAR               :
R1   .        01. APRESENTAÇÃO DE ACORDO COM REQUERIMENTO DO CLIENTE :
R2   .        02. TEMPERATURA MÁXIMA DO POÇO T1=T2= 260 DEGF @  5180 M :
R3   .        03. INICIO DA CIRCULAÇÃO  13 45 H 21/10/2004 :
R4   .        04. FINAL DA CIRCULAÇÃO   16 00 H 21/10/2004 :
R5   .        05. TEMPO TOTAL DE CIRCULAÇÃO  02 15 H :
R6   .        06. FLUIDO DE PERFURAÇÃO  SINTETICO (BR-MUL  BR-MI)  65% TEOR DO OLEO :
R7   .        07. SALINIDADE DA LAMA  266377 PPM NACL NA FASE DE AGUA :
R8   .        08. INCLINAÇÃO MÁXIMA DO POÇO  37.37 GRAUS @ 5100 M :
R9   .        09. PRIMEIRAS E ULTIMAS LEITURAS  :
RMB  .OHMM    > 10                       :
RMCS .OHMM    > 10                       :
RMFS .OHMM    > 10                       :
RMS  .OHMM    > 10                       :
RUN  .                 1                 :
STAT .        BRASIL                     :
TCS  .        16 00 H                    :
TDD  .M             5230                 :
TDL  .M             5231                 :
TLAB .        N/A                        :
TLI  .M             3850                 :
WITN .        ALCIDIO/VLADIMIR           :
WN   .        3-BRSA-293D-SPS            :
LUN  .              8808                 :
HIDE .        3-SPS-41D                  :
HID2 .        HIGH DEFINITION INDUCTION LOG :
HID3 .        X-MULTIPOLE ARRAY ACOUSTILOG :
HID4 .        GAMMA RAY LOG              :
HID5 .        TTRM SUB                   :
CLAB .        BACIA                      :
SLAB .        PAIS                       :
CMT1 .        ESC  1 1000                :
CMT2 .        PROF. MEDIDA               :
CMT4 .        SONDA  SS-43               :
HDAT .        SAD 69                     :
FL   .        BASE SAD 69                :
OS1  .        GR/CN/ZDL                  :
OS2  .        MREX/GR                    :
OS3  .        RCI/GR                     :
0S4  .        3DEX/GR                    :
OS5  .        SL/GR                      :
LNAM .        MREX/ZDL/CN/XMAC/HDIL/RCI/3DEX/SL/GR :
TOOL .        MREX/ZDL/CN/XMAC/HDIL/RCI/3DEX/SL/GR :
LSOU .        PETROBRAS                  :
LSRV .        OH WIRELINE                :
LTYP .        RAW                        :
EPD  .M                0                 :
LDAT .        22/10/2004                 :
TRIP .                 1                 :
SON  .            772317                 :
CBDR .M             4277                 :
CBLO .M             4277                 :
CBL1 .M             4277                 :
STEM .DEGF    N/A                        :
BSAL .            266377                 :
BARI .        OFF                        :
DLAB .        21/10/2004                 :
MRT  .DEGF           260                 :
TSTR .        HDIL/XMAC/GR/TTRM          :
TSTG .        N/A                        :
STUS .        FINAL                      :
LCNM .        BAKER ATLAS                :
LCC  .               150                 :
NATI .        BRASIL                     :
OPMD .        OH.WIRELINE                :
PANA .        HERNANDEZ/LOCK             :
PCON .        BAKER ATLAS                :
R11  .        SL     5196.0 M/4960.0 M   :
R12  .        GR     4960.0 M/4277.0 M   :
R13  .        XMAC   5202.0 M/3850.0 M   :
R14  .        HDIL   5227.5 M/4277.0 M   :
R15  .        3DEX   5217.0 M/4960.0 M   :
R17  .        10. PONTO FRACO UTILIZADO  10K :
R18  .        11. DECLINAÇÃO MAGNETICA  -20.9 GRAUS :
R19  .        12. COORDENADAS ARATU      :
R21  .        X   7292512.00 M           :
R22  .        Y    583936.00 M           :
R23  .        MC  45 GRAUS               :
R25  .        13. CADASTRO ANP  86316021017 :
PVER .           4.10000                 :
WDFN .        /space/expusr/3-SPS-41D/i77bf03_2spf.xtf :
OCT  .        i77bf                      :
#-----------------------------------------------------------------------------
~CURVE INFORMATION
#MNEM.UNIT   API CODE                                  DESCRIPTION
#---- -----  --------                                  -----------------------
DEPT .M                                                :DEPTH (BOREHOLE) {F10.4}
DEPT .M                                                : {F13.4}
DT   .US/F                                             : {F13.4}
SFN1 .US                                               : {F13.4}
SFN2 .US                                               : {F13.4}
SFN3 .US                                               : {F13.4}
SFN4 .US                                               : {F13.4}
TT   .MS                                               : {F13.4}
#-----------------------------------------------------------------------------
# 
#     DEPT        DEPT         DT           SFN1         SFN2         SFN3         SFN4         TT
#
~A  
# ...
 4312.7676    4312.7676      71.8445     776.0000     808.0000     845.3750     880.6250     203.6693
 4312.6152    4312.6152      71.4481     780.1250     809.7500     844.7500     879.7500     203.7050
 4312.4628    4312.4628      71.2919     780.8744     815.2499     847.7520     880.0003     203.7407
 4312.3104    4312.3104      71.4009     779.8764     815.0007     851.1263     880.5066     203.7764
 4312.1580    4312.1580      71.6427     781.3753     815.7507     852.5010     887.3758     203.8122
 4312.0056    4312.0056      71.8359     781.6256     816.2515     853.2519     888.0011     203.8482
 4311.8532    4311.8532      71.8525     781.9992     817.1232     854.3747     888.6255     203.8841
 4311.7008    4311.7008      71.6641     781.6265     816.2535     854.2505     888.8740     203.9197
 4311.5484    4311.5484      71.3286     783.7423     816.9973     854.1255     889.3732     203.9554
 4311.3960    4311.3960      70.9853     783.9992     818.4952     853.6266     888.2536     203.9909
 4311.2436    4311.2436      70.7666     783.5014     819.1232     855.2453     888.3746     204.0263
 4311.0912    4311.0912      70.7053     782.8766     818.7509     855.4994     888.8738     204.0616
 4310.9388    4310.9388      70.7472     782.8750     818.2511     855.6247     890.7460     204.0970
 4310.7864    4310.7864      70.8048     783.2493     818.6243     855.2507     891.1243     204.1324
 4310.6340    4310.6340      70.8526     782.6259     818.6250     855.3748     890.3760     204.1679
 4310.4816    4310.4816      70.9697     780.5022     816.6270     854.8755     889.8755     204.2034
 4310.3292    4310.3292      71.2504     780.7498     815.7506     854.5002     890.8744     204.2391
 4310.1768    4310.1768      71.7099     780.5000     815.1250     852.7500     888.7500     204.2749
 4310.0244    4310.0244      72.2611     781.0000     815.8750     853.3750     888.7500     204.3111
 4309.8720    4309.8720      72.7379     782.2505     817.3759     854.6254     890.1255     204.3474
 4309.7196    4309.7196      72.9911     783.2509     819.2509     855.5004     891.2506     204.3839
 4309.5672    4309.5672      72.9894     784.3774     820.3768     856.0031     892.0018     204.4205
 4309.4148    4309.4148      72.8032     786.3730     821.8740     858.6242     893.5002     204.4569
 4309.2624    4309.2624      72.5557     785.1262     821.2512     858.1250     893.6257     204.4932
 4309.1100    4309.1100      72.3633     785.7511     821.8761     858.1264     894.0011     204.5294
 4308.9576    4308.9576      72.2397     786.2481     822.3731     858.7477     894.4981     204.5653
 4308.8052    4308.8052      72.1116     787.7450     822.7487     858.8746     894.5000     204.6013
 4308.6528    4308.6528      71.9276     788.4978     823.2485     858.8750     894.5000     204.6373
 4308.5004    4308.5004      71.6961     789.8714     823.8734     859.7477     894.6247     204.6732
 4308.3480    4308.3480      71.4770     789.8750     824.1244     860.6230     895.1239     204.7089
 4308.1956    4308.1956      71.3467     789.7502     824.3745     861.4983     895.8736     204.7446
 4308.0432    4308.0432      71.3494     790.3741     824.4998     861.6248     895.9998     204.7803
 4307.8908    4307.8908      71.4627     790.9993     825.6237     862.1244     896.4994     204.8161
 4307.7384    4307.7384      71.6092     791.0000     826.1246     862.2499     896.3751     204.8519
 4307.5860    4307.5860      71.6951     791.4998     826.3749     862.8747     897.1247     204.8877
 4307.4336    4307.4336      71.6722     791.3750     827.0000     863.3750     898.5000     204.9236
 4307.2812    4307.2813      71.5872     790.7500     826.2500     863.6250     898.3750     204.9594
 4307.1288    4307.1288      71.5220     789.3747     824.0000     861.9999     897.4997     204.9952
 4306.9764    4306.9764      71.5148     789.0001     824.0001     861.8754     897.1250     205.0309
 4306.8240    4306.8240      71.5591     789.1252     824.1252     862.2502     897.1259     205.0667
 4306.6716    4306.6716      71.6613     789.2480     824.2482     862.3716     897.7468     205.1026
 4306.5192    4306.5192      71.8618     788.1250     823.2497     860.4986     896.0000     205.1385
 4306.3668    4306.3668      72.1732     788.1250     823.1255     859.8774     896.0000     205.1744
 4306.2144    4306.2144      72.5453     788.3741     823.9969     861.6189     896.0000     205.2107
 4306.0620    4306.0620      72.8611     789.2473     824.0000     861.7496     897.2461     205.2471
 4305.9096    4305.9096      73.0329     789.4993     824.4986     862.2486     897.7486     205.2837
 4305.7572    4305.7572      73.0605     789.3753     824.0012     861.8759     896.8771     205.3202
 4305.6048    4305.6048      72.9692     791.4957     826.3702     862.8730     898.7462     205.3567
 4305.4524    4305.4524      72.7729     791.8744     826.9990     863.3742     898.8748     205.3931
 4305.3000    4305.3000      72.5036     791.6253     826.6255     863.4998     898.2508     205.4294
 4305.1476    4305.1476      72.2468     791.9997     828.1236     863.9995     899.8735     205.4655
 4304.9952    4304.9952      72.1080     791.8751     827.3754     864.0000     899.6251     205.5016
 4304.8428    4304.8428      72.1363     791.3750     827.7500     864.0000     899.5000     205.5377
 4304.6904    4304.6904      72.3016     791.5000     826.3750     864.0000     899.7500     205.5738
 4304.5380    4304.5380      72.4174     792.7498     828.2499     864.0000     901.2496     205.6100
 4304.3856    4304.3856      72.1572     792.3747     828.1253     864.0002     900.6250     205.6461
 4304.2332    4304.2332      71.3323     792.0002     828.4998     864.2516     900.6261     205.6818
 4304.0808    4304.0808      70.1022     792.1283     828.3760     865.4992     901.4973     205.7169
 4303.9284    4303.9284      68.9956     794.1088     828.9845     864.9866     899.8623     205.7514
 4303.7760    4303.7760      68.6059     786.1568     821.4053     858.4013     893.6498     205.7854
 4303.6236    4303.6236      69.0873     786.1250     822.8696     860.1186     894.7459     205.8200
 4303.4712    4303.4712      70.0722     785.0037     821.7537     860.1250     895.6221     205.8550
 4303.3188    4303.3188      71.0292     785.9971     821.9993     859.5018     895.9989     205.8906
 4303.1664    4303.1664      71.6561     785.5013     822.1247     859.5000     895.5013     205.9264
 4303.0140    4303.0140      71.9279     784.1280     821.3766     859.3753     894.7516     205.9624
 4302.8616    4302.8616      71.9856     786.3710     821.9989     859.3750     895.3739     205.9984
 4302.7092    4302.7092      71.8997     785.6261     822.2496     859.0005     895.1254     206.0344
 4302.5568    4302.5568      71.6302     785.8747     821.6257     858.1259     894.5007     206.0702
 4302.4044    4302.4044      71.2501     785.3753     821.6250     857.1257     894.2502     206.1058
 4302.2520    4302.2520      70.8846     786.6250     821.6250     856.8750     893.5000     206.1413
 4302.0996    4302.0996      70.6019     784.7500     822.0000     856.8750     893.3750     206.1766
 4301.9472    4301.9472      70.4247     784.0004     819.0011     856.6255     892.2512     206.2118
 4301.7948    4301.7948      70.3390     784.8739     821.6217     857.8734     894.9969     206.2470
 4301.6424    4301.6424      70.3374     783.4985     817.4997     855.8737     891.1237     206.2822
 4301.4900    4301.4900      70.4483     782.2527     817.2481     854.7492     889.9979     206.3174
 4301.3376    4301.3376      70.6693     784.0107     816.0091     854.2493     888.6262     206.3528
 4301.1852    4301.1852      70.9127     789.6236     820.7562     853.8798     889.2472     206.3883
 4301.0328    4301.0328      71.0771     789.0023     823.4897     855.9921     888.0047     206.4236
 4300.8804    4300.8804      71.0716     789.3737     823.8737     860.3601     891.9864     206.4591
