~VERSION INFORMATION
VERS.           2.0   :CWLS Log ASCII Standard - VERSION 2.0
WRAP.           NO    :One Line per depth step
PROD.  Schlumberger   :LAS Producer
PROG.  DLIS to ASCII 2.3                               :LAS Program name and version
CREA.        2023/07/14 00:15                          :LAS Creation date {YYYY/MM/DD hh:mm}
DLIS_CREA.  2023-Jul-14 00:11                          :DLIS Creation date and time {YYYY-MMM-DD hh:mm}
SOURCE.     LIS_008.dlis                               :DLIS File Name
FILE-ID.     LIS   .001                                :File Identification Number
#--------------------------------------------------
~WELL INFORMATION
#MNEM.UNIT      DATA             DESCRIPTION
#---- ------ --------------   -----------------------------
STRT .M      5286.4512       :START DEPTH     
STOP .M      5066.6904       :STOP DEPTH     
STEP .M        -0.1524       :STEP     
NULL .          -999.25      :NULL VALUE
COMP .        PETROBRAS S.A.                           :COMPANY
WELL .        3-BRSA-293D-SPS                          :WELL
FLD  .        BS-400                                   :FIELD
LOC  .        BASE SAD 69:                             :LOCATION
CNTY .        SANTOS                                   :COUNTY
STAT .        BRASIL                                   :STATE
CTRY .        BRASIL                                   :COUNTRY
API  .                                                 :API NUMBER
UWI  .                                                 :UNIQUE WELL ID
DATE .        15/11/2004                               :LOG DATE
SRVC .        Schlumberger                             :SERVICE COMPANY
LATI .DEG                                              :LATITUDE
LONG .DEG                                              :LONGITUDE
GDAT .                                                 :GeoDetic Datum
#-----------------------------------------------------------------------------
~PARAMETER INFORMATION
#MNEM.UNIT    VALUE                      DESCRIPTION
#---- -----   --------------------       ------------------------
APD  .M               24                 :
BHT  .DEGF           260                 :
BLI  .M             5289                 :
BS   .IN         8.50000                 :
CN   .        PETROBRAS S.A.             :
COUN .        SANTOS                     :
CS   .IN         9.62500                 :
DATE .        15/11/2004                 :
DFD  .LB/G      12.30000                 :
DFL  .C3               2                 :
DFPH .        N/A                        :
DFT  .        SINTETICO                  :
DFV  .S               95                 :
DMF  .        MESA ROTATIVA              :
EDF  .M               24                 :
EGL  .M             -500                 :
EKB  .        N/A                        :
ENGI .        HERNANDEZ / LOCK           :
FL1  .        X   7292392.00 M LAT 24 28 47.189 S :
FL2  .        Y    584087.00 M LON 44 10 12.698 W :
FL3  .        MC  45 GRAUS               :
FN   .        BS-400                     :
LMF  .        MESA ROTATIVA              :
LUL  .        MACAE                      :
MCSS .        PRENSA                     :
MCST .DEGF            80                 :
MFSS .        PRENSA                     :
MFST .DEGF            80                 :
MSS  .        LINHA DE FLUXO             :
MST  .DEGF            80                 :
PDAT .        NIVEL DO MAR               :
R1   .        01. APRESENTAÇÃO DE ACORDO COM REQUERIMENTO DO CLIENTE :
R2   .        02. TEMPERATURA MÁXIMA DO POÇO T1=T2= 290 DEGF @  5275 M :
R3   .        03. INICIO DA CIRCULAÇÃO  12/11/2004 09 00 H :
R4   .        04. FINAL DA CIRCULAÇÃO   12/11/2004 18 00 H :
R5   .        05. TEMPO TOTAL DE CIRCULAÇÃO   09 00 H :
R6   .        06. FLUIDO DE PERFURAÇÃO  SINTETICO (BR-MUL  BR-MI)  60% TEOR DO OLEO :
R7   .        07. SALINIDADE DA LAMA  254762 PPM NACL NA FASE DE AGUA :
R8   .        08. INCLINAÇÃO MÁXIMA DO POÇO  37.37 GRAUS @ 5100 M :
R9   .        09. PRIMEIRAS E ULTIMAS LEITURAS  :
RMB  .OHMM    > 10                       :
RMCS .OHMM    > 10                       :
RMFS .OHMM    > 10                       :
RMS  .OHMM    >10                        :
RUN  .                 2                 :
STAT .        BRASIL                     :
TCS  .        18 00 H                    :
TDD  .M             5288                 :
TDL  .M             5293                 :
TLAB .        N/A                        :
TLI  .M             5000                 :
WITN .        ERNANI / ZE MARIA          :
WN   .        3-BRSA-293D-SPS            :
LUN  .              8808                 :
HIDE .        3-SPS-41D                  :
HID2 .        HIGH DEFINITION INDUCTION LOG :
HID3 .        X-MULTIPOLE ARRAY ACOUSTILOG :
HID4 .        GAMMA RAY LOG              :
HID5 .        TTRM SUB                   :
CLAB .        BACIA                      :
SLAB .        PAIS                       :
CMT1 .        ESC  1 200                 :
CMT2 .        PROF. MEDIDA               :
CMT4 .        SONDA  SS-43               :
HDAT .        SAD 69                     :
FL   .        BASE SAD 69                :
OS1  .        RCI/GR                     :
OS2  .        CHECK SHOT                 :
OS3  .        GR/CN/ZDL                  :
OS5  .        RCOR/GR                    :
LNAM .        ZDL/CN/XMAC/HDIL/EARTH IMAGER/RCI/RCOR/CHECK SHOT/GR :
TOOL .        ZDL/CN/XMAC/HDIL/EARTH IMAGER/RCI/RCOR/CHECK SHOT/GR :
LSOU .        PETROBRAS                  :
LSRV .        OH WIRELINE                :
LTYP .        RAW                        :
EPD  .M                0                 :
LDAT .        15/11/2004                 :
TRIP .                 3                 :
SON  .            786588                 :
CBDR .M             4277                 :
CBLO .        NR                         :
CBL1 .        NR                         :
STEM .DEGF    N/A                        :
BSAL .            254762                 :
BARI .        OFF                        :
DLAB .        12/11/2004                 :
MRT  .DEGF           290                 :
TSTR .        HDIL/XMAC/GR/TTRM          :
TSTG .        N/A                        :
STUS .        FINAL                      :
LCNM .        BAKER ATLAS                :
LCC  .               150                 :
NATI .        BRASIL                     :
OPMD .        OH.WIRELINE                :
PANA .        HERNANDEZ / LOCK           :
PCON .        BAKER ATLAS                :
R11  .        SL     5268.3 M / 5000.0 M :
R12  .        GR     5268.3 M / 5000.0 M :
R13  .        XMAC   5279.5 M / 5000.0 M :
R14  .        HDIL   5289.0 M / 5000.0 M :
R17  .        11. DECLINAÇÃO MAGNETICA  -20.9 GRAUS :
R18  .        12. COORDENADAS BASE       :
R21  .        Y    583936.00 M           :
R22  .        MC  45 GRAUS               :
PVER .           4.10000                 :
WDFN .        /space/expusr/3-SPS-41D_RUN2/i77bf01_2spf.xtf :
OCT  .        i77bf                      :
OS4  .        EARTH IMAGER               :
R16  .        10. PONTO FRACO UTILIZADO  10K :
R20  .        X   7292512.00 M           :
R24  .        13. CADASTRO ANP  86316021017 :
#-----------------------------------------------------------------------------
~CURVE INFORMATION
#MNEM.UNIT   API CODE                                  DESCRIPTION
#---- -----  --------                                  -----------------------
DEPT .M                                                :DEPTH (BOREHOLE) {F10.4}
DEPT .M                                                : {F13.4}
DT   .US/F                                             : {F13.4}
SFN1 .US                                               : {F13.4}
SFN2 .US                                               : {F13.4}
SFN3 .US                                               : {F13.4}
SFN4 .US                                               : {F13.4}
TT   .MS                                               : {F13.4}
#-----------------------------------------------------------------------------
# 
#     DEPT        DEPT         DT           SFN1         SFN2         SFN3         SFN4         TT
#
~A  
# ...
 5214.2136    5214.2136      55.0085     608.0000     632.0000     664.0000     691.0231      14.8203
 5214.0612    5214.0612      53.8141     608.0000     632.0000     664.0000     691.3734      14.8472
 5213.9088    5213.9088      53.5700     608.0000     632.0000     664.0000     691.7485      14.8740
 5213.7564    5213.7564      54.4316     608.0000     632.0000     664.0000     691.7500      14.9013
 5213.6040    5213.6040      56.2210     432.5596     632.0000     664.0000     691.2516      14.9294
 5213.4516    5213.4516      58.5551     607.5054     427.4515     664.0000     691.7486      14.9587
 5213.2992    5213.2992      61.0675     608.0000     631.4993     595.2931     692.1241      14.9892
 5213.1468    5213.1468      63.4458     600.3908     632.0000     663.8573     505.1382      15.0209
 5212.9944    5212.9944      65.4705     600.3750     687.9047     663.5009     692.3051      15.0537
 5212.8420    5212.8420      67.2106     341.9700     560.1707     592.0953     692.5002      15.0873
 5212.6896    5212.6896      68.8649     340.5011     567.9923     412.5482     751.9426      15.1217
 5212.5372    5212.5372      70.2641     620.5833     385.3587     672.7200     537.8775      15.1569
 5212.3848    5212.3848      70.7838     622.3750     576.0000     678.0000     537.7500      15.1923
 5212.2324    5212.2324      69.9768     622.3750     532.8750     684.2500     392.0000      15.2273
 5212.0800    5212.0800      68.0996     622.5001     652.2509     688.0000     640.0396      15.2614
 5211.9276    5211.9276      66.0051     622.7500     654.0004     688.0000     717.1252      15.2944
 5211.7752    5211.7752      64.5749     622.7502     654.5002     688.0003     717.3758      15.3267
 5211.6228    5211.6228      64.1463     622.8744     654.6244     688.2488     717.9970      15.3586
 5211.4704    5211.4704      64.5346     633.3286     654.5006     688.1256     718.2489      15.3908
 5211.3180    5211.3180      65.4317     651.6756     794.3063     688.3740     718.0010      15.4236
 5211.1656    5211.1656      66.4732     657.2297     682.4156     963.4833     717.8755      15.4568
 5211.0132    5211.0132      67.1057     656.8762     687.9801     717.0724    1027.8447      15.4904
 5210.8608    5210.8608      66.7633     662.9820     688.0000     724.1018     750.6963      15.5238
 5210.7084    5210.7084      65.3622     663.9974     691.1170     724.1250     753.7400      15.5565
 5210.5560    5210.5560      63.4990     665.2472     695.8645     726.6195     753.5006      15.5882
 5210.4036    5210.4036      62.0900     665.1252     690.8842     728.8709     759.9881      15.6193
 5210.2512    5210.2512      61.8378     664.7506     689.0028     721.3860     754.1336      15.6502
 5210.0988    5210.0988      62.7591     656.7588     688.0011     722.2490     755.8731      15.6816
 5209.9464    5209.9464      64.1875     663.9947     689.3740     725.3727     758.6230      15.7137
 5209.7940    5209.7939      65.4078     662.8750     690.8750     728.0000     760.0000      15.7464
 5209.6416    5209.6416      66.0411     664.7500     695.2500     726.8750     758.3750      15.7795
 5209.4892    5209.4893      66.0856     664.6250     696.5000     728.3750     758.6250      15.8125
 5209.3368    5209.3368      65.8202     664.2507     696.0000     731.3735     760.0019      15.8454
 5209.1844    5209.1844      65.5106     665.1238     696.0010     729.3754     762.4983      15.8782
 5209.0320    5209.0320      65.2750     664.0055     696.8707     729.7482     761.0073      15.9106
 5208.8796    5208.8796      65.1403     664.0000     692.7688     728.8790     760.1290      15.9432
 5208.7272    5208.7272      65.0916     663.8755     695.7374     728.5016     761.6187      15.9758
 5208.5748    5208.5748      65.1189     663.9995     695.9990     730.7414     760.3798      16.0084
 5208.4224    5208.4224      65.1679     663.5017     693.7578     729.0060     762.6172      16.0409
 5208.2700    5208.2700      65.1405     662.7523     693.8746     728.0031     760.0081      16.0735
 5208.1176    5208.1176      64.9586     664.8692     695.2463     729.2466     398.1076      16.1060
 5207.9652    5207.9652      64.6385     660.2608     693.7535     727.8782     404.3580      16.1383
 5207.8128    5207.8128      64.4281     662.9946     688.0113     726.0037     525.5110      16.1706
 5207.6604    5207.6604      64.5870     663.9984     691.6192     721.2576     422.0412      16.2029
 5207.5080    5207.5080      65.0976     666.9963     695.9946     728.7408     687.6725      16.2354
 5207.3556    5207.3556      65.6283     666.1258     696.7494     730.9981     422.8536      16.2683
 5207.2032    5207.2032      65.7983     670.8727     698.4991     735.9975     422.6250      16.3012
 5207.0508    5207.0508      65.5296     672.0000     700.7500     735.2500     598.6250      16.3340
 5206.8984    5206.8984      65.0105     667.0000     697.3750     735.1250     601.5000      16.3665
 5206.7460    5206.7460      64.5118     667.2490     697.7492     735.8735     645.6282      16.3987
 5206.5936    5206.5936      64.1728     665.6249     696.4995     733.4989     650.8684      16.4308
 5206.4412    5206.4412      64.0305     665.4980     695.9993     732.3708     644.0624      16.4629
 5206.2888    5206.2888      64.1606     664.0070     695.5023     729.2646     597.8416      16.4948
 5206.1364    5206.1364      64.5704     665.4935     696.2468     731.4903     645.1688      16.5270
 5205.9840    5205.9840      65.1974     670.3557     699.8607     735.9822     422.0105      16.5597
 5205.8316    5205.8316      65.8288     670.7487     699.1277     734.7545     395.0935      16.5926
 5205.6792    5205.6792      66.1790     669.2548     701.1186     735.9960     642.5777      16.6257
 5205.5268    5205.5268      66.1097     671.4936     698.1335     736.0000     440.5778      16.6588
 5205.3744    5205.3744      65.5977     666.2630     705.7312     736.2494     695.3672      16.6916
 5205.2220    5205.2220      64.8397     666.3747     693.7752     736.6242     603.3203      16.7240
 5205.0696    5205.0696      64.1087     667.1237     695.9961     728.0150     766.4664      16.7561
 5204.9172    5204.9172      63.4463     664.0043     697.1235     729.1235     758.1368      16.7878
 5204.7648    5204.7648      62.7905     664.0000     694.1280     729.7494     759.9981      16.8192
 5204.6124    5204.6124      62.1965     664.0000     695.9988     729.0005     762.8732      16.8503
 5204.4600    5204.4600      61.8684     663.0000     689.6250     728.0000     760.0000      16.8813
 5204.3076    5204.3076      61.9927     656.8750     688.0000     720.0000     753.1250      16.9123
 5204.1552    5204.1552      62.5322     656.0029     688.0005     724.8758     755.5017      16.9435
 5204.0028    5204.0028      63.1813     662.0001     689.1277     726.6224     758.9955      16.9751
 5203.8504    5203.8504      63.7003     662.1214     692.2456     723.6258     753.7479      17.0070
 5203.6980    5203.6980      64.2118     659.1394     688.6424     724.2470     752.0084      17.0389
 5203.5456    5203.5456      64.8698     663.9783     692.4828     725.8678     757.3511      17.0714
 5203.3932    5203.3932      65.5485     668.8551     697.4796     727.9913     758.9934      17.1042
 5203.2408    5203.2408      65.9327     671.8639     701.1115     735.4722     761.9889      17.1371
 5203.0884    5203.0884      65.7229     667.0163     703.2429     735.9983     767.2324      17.1700
 5202.9360    5202.9360      65.0163     670.4896     700.0097     737.3709     768.1224      17.2025
 5202.7836    5202.7836      64.2581     667.3831     698.6286     733.5101     768.8730      17.2347
 5202.6312    5202.6312      63.7962     664.0075     696.7542     734.7472     765.3828      17.2666
 5202.4788    5202.4788      63.7239     664.0000     692.2584     729.1355     760.0100      17.2984
 5202.3264    5202.3264      63.9924     662.3774     695.6199     728.0017     760.7489      17.3305
