~VERSION INFORMATION
VERS.           2.0   :CWLS Log ASCII Standard - VERSION 2.0
WRAP.           NO    :One Line per depth step
PROD.  Schlumberger   :LAS Producer
PROG.  DLIS to ASCII 2.3                               :LAS Program name and version
CREA.        2023/07/14 00:15                          :LAS Creation date {YYYY/MM/DD hh:mm}
DLIS_CREA.  2023-Jul-14 00:11                          :DLIS Creation date and time {YYYY-MMM-DD hh:mm}
SOURCE.     LIS_008.dlis                               :DLIS File Name
FILE-ID.     LIS   .001                                :File Identification Number
#--------------------------------------------------
~WELL INFORMATION
#MNEM.UNIT      DATA             DESCRIPTION
#---- ------ --------------   -----------------------------
STRT .M      5286.4512       :START DEPTH     
STOP .M      5066.6904       :STOP DEPTH     
STEP .M        -0.1524       :STEP     
NULL .          -999.25      :NULL VALUE
COMP .        PETROBRAS S.A.                           :COMPANY
WELL .        3-BRSA-293D-SPS                          :WELL
FLD  .        BS-400                                   :FIELD
LOC  .        BASE SAD 69:                             :LOCATION
CNTY .        SANTOS                                   :COUNTY
STAT .        BRASIL                                   :STATE
CTRY .        BRASIL                                   :COUNTRY
API  .                                                 :API NUMBER
UWI  .                                                 :UNIQUE WELL ID
DATE .        15/11/2004                               :LOG DATE
SRVC .        Schlumberger                             :SERVICE COMPANY
LATI .DEG                                              :LATITUDE
LONG .DEG                                              :LONGITUDE
GDAT .                                                 :GeoDetic Datum
#-----------------------------------------------------------------------------
~PARAMETER INFORMATION
#MNEM.UNIT    VALUE                      DESCRIPTION
#---- -----   --------------------       ------------------------
APD  .M               24                 :
BHT  .DEGF           260                 :
BLI  .M             5289                 :
BS   .IN         8.50000                 :
CN   .        PETROBRAS S.A.             :
COUN .        SANTOS                     :
CS   .IN         9.62500                 :
DATE .        15/11/2004                 :
DFD  .LB/G      12.30000                 :
DFL  .C3               2                 :
DFPH .        N/A                        :
DFT  .        SINTETICO                  :
DFV  .S               95                 :
DMF  .        MESA ROTATIVA              :
EDF  .M               24                 :
EGL  .M             -500                 :
EKB  .        N/A                        :
ENGI .        HERNANDEZ / LOCK           :
FL1  .        X   7292392.00 M LAT 24 28 47.189 S :
FL2  .        Y    584087.00 M LON 44 10 12.698 W :
FL3  .        MC  45 GRAUS               :
FN   .        BS-400                     :
LMF  .        MESA ROTATIVA              :
LUL  .        MACAE                      :
MCSS .        PRENSA                     :
MCST .DEGF            80                 :
MFSS .        PRENSA                     :
MFST .DEGF            80                 :
MSS  .        LINHA DE FLUXO             :
MST  .DEGF            80                 :
PDAT .        NIVEL DO MAR               :
R1   .        01. APRESENTAÇÃO DE ACORDO COM REQUERIMENTO DO CLIENTE :
R2   .        02. TEMPERATURA MÁXIMA DO POÇO T1=T2= 290 DEGF @  5275 M :
R3   .        03. INICIO DA CIRCULAÇÃO  12/11/2004 09 00 H :
R4   .        04. FINAL DA CIRCULAÇÃO   12/11/2004 18 00 H :
R5   .        05. TEMPO TOTAL DE CIRCULAÇÃO   09 00 H :
R6   .        06. FLUIDO DE PERFURAÇÃO  SINTETICO (BR-MUL  BR-MI)  60% TEOR DO OLEO :
R7   .        07. SALINIDADE DA LAMA  254762 PPM NACL NA FASE DE AGUA :
R8   .        08. INCLINAÇÃO MÁXIMA DO POÇO  37.37 GRAUS @ 5100 M :
R9   .        09. PRIMEIRAS E ULTIMAS LEITURAS  :
RMB  .OHMM    > 10                       :
RMCS .OHMM    > 10                       :
RMFS .OHMM    > 10                       :
RMS  .OHMM    >10                        :
RUN  .                 2                 :
STAT .        BRASIL                     :
TCS  .        18 00 H                    :
TDD  .M             5288                 :
TDL  .M             5293                 :
TLAB .        N/A                        :
TLI  .M             5000                 :
WITN .        ERNANI / ZE MARIA          :
WN   .        3-BRSA-293D-SPS            :
LUN  .              8808                 :
HIDE .        3-SPS-41D                  :
HID2 .        HIGH DEFINITION INDUCTION LOG :
HID3 .        X-MULTIPOLE ARRAY ACOUSTILOG :
HID4 .        GAMMA RAY LOG              :
HID5 .        TTRM SUB                   :
CLAB .        BACIA                      :
SLAB .        PAIS                       :
CMT1 .        ESC  1 200                 :
CMT2 .        PROF. MEDIDA               :
CMT4 .        SONDA  SS-43               :
HDAT .        SAD 69                     :
FL   .        BASE SAD 69                :
OS1  .        RCI/GR                     :
OS2  .        CHECK SHOT                 :
OS3  .        GR/CN/ZDL                  :
OS5  .        RCOR/GR                    :
LNAM .        ZDL/CN/XMAC/HDIL/EARTH IMAGER/RCI/RCOR/CHECK SHOT/GR :
TOOL .        ZDL/CN/XMAC/HDIL/EARTH IMAGER/RCI/RCOR/CHECK SHOT/GR :
LSOU .        PETROBRAS                  :
LSRV .        OH WIRELINE                :
LTYP .        RAW                        :
EPD  .M                0                 :
LDAT .        15/11/2004                 :
TRIP .                 3                 :
SON  .            786588                 :
CBDR .M             4277                 :
CBLO .        NR                         :
CBL1 .        NR                         :
STEM .DEGF    N/A                        :
BSAL .            254762                 :
BARI .        OFF                        :
DLAB .        12/11/2004                 :
MRT  .DEGF           290                 :
TSTR .        HDIL/XMAC/GR/TTRM          :
TSTG .        N/A                        :
STUS .        FINAL                      :
LCNM .        BAKER ATLAS                :
LCC  .               150                 :
NATI .        BRASIL                     :
OPMD .        OH.WIRELINE                :
PANA .        HERNANDEZ / LOCK           :
PCON .        BAKER ATLAS                :
R11  .        SL     5268.3 M / 5000.0 M :
R12  .        GR     5268.3 M / 5000.0 M :
R13  .        XMAC   5279.5 M / 5000.0 M :
R14  .        HDIL   5289.0 M / 5000.0 M :
R17  .        11. DECLINAÇÃO MAGNETICA  -20.9 GRAUS :
R18  .        12. COORDENADAS BASE       :
R21  .        Y    583936.00 M           :
R22  .        MC  45 GRAUS               :
PVER .           4.10000                 :
WDFN .        /space/expusr/3-SPS-41D_RUN2/i77bf01_2spf.xtf :
OCT  .        i77bf                      :
OS4  .        EARTH IMAGER               :
R16  .        10. PONTO FRACO UTILIZADO  10K :
R20  .        X   7292512.00 M           :
R24  .        13. CADASTRO ANP  86316021017 :
#-----------------------------------------------------------------------------
~CURVE INFORMATION
#MNEM.UNIT   API CODE                                  DESCRIPTION
#---- -----  --------                                  -----------------------
DEPT .M                                                :DEPTH (BOREHOLE) {F10.4}
DEPT .M                                                : {F13.4}
DT   .US/F                                             : {F13.4}
SFN1 .US                                               : {F13.4}
SFN2 .US                                               : {F13.4}
SFN3 .US                                               : {F13.4}
SFN4 .US                                               : {F13.4}
TT   .MS                                               : {F13.4}
#-----------------------------------------------------------------------------
# 
#     DEPT        DEPT         DT           SFN1         SFN2         SFN3         SFN4         TT
#
~A  
# ...
 5081.7780    5081.7780       0.2931     704.0000     735.7500     772.0016     805.7495       0.0000
 5081.6256    5081.6256       0.3488     704.0000     735.7500     772.0000     805.7500       0.0000
 5081.4732    5081.4732       0.3973     704.0000     735.7500     771.8754     805.6254       0.0000
 5081.3208    5081.3208       0.4363     704.0000     735.7500     771.8750     805.6250       0.0000
 5081.1684    5081.1684       0.4697     704.0000     735.8746     771.7504     805.5004       0.0000
 5081.0160    5081.0160       0.5382     704.0000     735.8750     771.9994     805.6247       0.0000
 5080.8636    5080.8636       0.6216     704.0000     735.8750     771.8753     805.5003       0.0000
 5080.7112    5080.7112       0.6841     704.0000     735.8750     771.8750     805.6248       0.0000
 5080.5588    5080.5588       0.7330     704.0000     735.7502     771.8750     805.5002       0.0000
 5080.4064    5080.4064       0.7905     704.0000     735.8749     771.8750     805.6249       0.0000
 5080.2540    5080.2540       0.8369     704.0000     735.7501     771.7501     805.6250       0.0000
 5080.1016    5080.1016       0.8863     704.0000     735.7500     771.8750     805.6250       0.0000
 5079.9492    5079.9492       0.9175     704.0000     735.6250     771.7500     805.6250       0.0000
 5079.7968    5079.7968       0.9068     704.0000     735.6251     771.7500     805.3751       0.0000
 5079.6444    5079.6444       0.8912     704.0000     735.7500     771.7500     805.5000       0.0000
 5079.4920    5079.4920       0.8567     704.0000     735.7500     771.7502     805.4998       0.0000
 5079.3396    5079.3396       0.8183     704.0000     735.7500     771.8744     805.3756       0.0000
 5079.1872    5079.1872       0.7888     704.0000     735.6256     771.7506     805.4994       0.0000
 5079.0348    5079.0348       0.7393     704.0000     735.7495     771.7500     805.6245       0.0000
 5078.8824    5078.8824       0.6633     704.0000     735.7500     771.6255     805.5005       0.0000
 5078.7300    5078.7300       0.5712     704.0000     735.8746     771.7496     805.6246       0.0000
 5078.5776    5078.5776       0.4744     704.0000     735.6257     771.8746     805.6250       0.0000
 5078.4252    5078.4252       0.4073     704.0000     735.7497     771.6256     805.7497       0.0000
 5078.2728    5078.2728       0.3685     704.0000     735.7500     771.5003     805.3758       0.0000
 5078.1204    5078.1204       0.3242     704.0000     735.7500     771.7495     805.6245       0.0000
 5077.9680    5077.9680       0.2756     704.0000     735.6252     771.7500     805.5002       0.0000
 5077.8156    5077.8156       0.0003     704.0000     735.6250     771.7500     805.5000       0.0000
 5077.6632    5077.6632       0.0000     704.0000     735.6250     771.7500     805.5000       0.0000
 5077.5108    5077.5107       0.0000     704.0000     735.6250     771.6250     805.5000       0.0000
 5077.3584    5077.3584       0.0000     704.0000     735.6250     771.6250     805.3750       0.0000
 5077.2060    5077.2061       0.0000     704.0000     735.7500     771.6250     805.5000       0.0000
 5077.0536    5077.0536       0.0000     704.0000     735.6250     771.6250     805.5000       0.0000
 5076.9012    5076.9012       0.0000     704.0000     735.6251     771.6250     805.5000       0.0000
 5076.7488    5076.7488       0.0000     704.0000     735.7494     771.6250     805.5000       0.0000
 5076.5964    5076.5964       0.0000     704.0000     735.6256     771.6250     805.3756       0.0000
 5076.4440    5076.4440       0.0000     704.0000     735.7495     771.6250     805.3750       0.0000
 5076.2916    5076.2916       0.0000     704.0000     735.7500     771.7495     805.3750       0.0000
 5076.1392    5076.1392       0.0000     704.0000     735.7500     771.5009     805.4996       0.0000
 5075.9868    5075.9868       0.0000     704.0000     735.6254     771.5000     805.3754       0.0000
 5075.8344    5075.8344       0.0000     704.0000     735.5003     771.3753     805.2503       0.0000
 5075.6820    5075.6820       0.0000     704.0000     735.6247     771.3750     805.4994       0.0000
 5075.5296    5075.5296       0.0000     704.0000     735.6250     771.3750     805.3752       0.0000
 5075.3772    5075.3772       0.0000     704.0000     735.6250     771.4998     805.4998       0.0669
 5075.2248    5075.2248       0.0000     704.0000     735.6250     771.3752     805.2503       0.0727
 5075.0724    5075.0724       0.0000     704.0000     735.6250     771.4999     805.4998       0.1973
 5074.9200    5074.9200       0.0000     704.0000     735.7499     771.5000     805.2501       0.3756
 5074.7676    5074.7676       0.0000     704.0000     735.7500     771.3750     805.3750       0.5958
 5074.6152    5074.6152    -999.2500     704.0000     735.6250     771.5000     805.3750    -999.2500
 5074.4628    5074.4628    -999.2500     704.0000     735.7499     771.6250     805.4999    -999.2500
 5074.3104    5074.3104    -999.2500     704.0000     735.6250     771.6250     805.3750    -999.2500
 5074.1580    5074.1580    -999.2500     704.0000     735.6252     771.6247     805.3750    -999.2500
 5074.0056    5074.0056    -999.2500     704.0000     735.7494     771.3762     805.3750    -999.2500
 5073.8532    5073.8532    -999.2500     704.0000     735.6255     771.4995     805.4995    -999.2500
 5073.7008    5073.7008    -999.2500     704.0000     735.6250     771.3755     805.3755    -999.2500
 5073.5484    5073.5484    -999.2500     704.0000     735.5005     771.4995     805.2505    -999.2500
 5073.3960    5073.3960    -999.2500     704.0000     735.6246     771.3754     805.1254    -999.2500
 5073.2436    5073.2436    -999.2500     704.0000     735.7496     771.3750     805.2496    -999.2500
 5073.0912    5073.0912    -999.2500     704.0000     735.6253     771.3750     805.2500    -999.2500
 5072.9388    5072.9388    -999.2500     704.0000     735.6250     771.4997     805.3747    -999.2500
 5072.7864    5072.7864    -999.2500     704.0000     735.6250     771.3752     805.1254    -999.2500
 5072.6340    5072.6340    -999.2500     704.0000     735.7498     771.3750     805.2498    -999.2500
 5072.4816    5072.4816    -999.2500     704.0000     735.7500     771.3750     805.2500    -999.2500
 5072.3292    5072.3292    -999.2500     704.0000     735.7500     771.3750     805.3749    -999.2500
 5072.1768    5072.1768    -999.2500     704.0000     735.6250     771.5000     805.2500    -999.2500
 5072.0244    5072.0244    -999.2500     704.0000     735.7500     771.2500     805.3750    -999.2500
 5071.8720    5071.8720    -999.2500     704.0000     735.7499     771.5000     805.2501    -999.2500
 5071.7196    5071.7196    -999.2500     704.0000     735.6251     771.5000     805.3749    -999.2500
 5071.5672    5071.5672    -999.2500     704.0000     735.7499     771.5000     805.2501    -999.2500
 5071.4148    5071.4148    -999.2500     704.0000     735.6256     771.5000     805.3744    -999.2500
 5071.2624    5071.2624    -999.2500     704.0000     735.6250     771.3756     805.2506    -999.2500
 5071.1100    5071.1100    -999.2500     703.8753     735.6250     771.2505     805.3745    -999.2500
 5070.9576    5070.9576    -999.2500     703.8750     735.5002     771.2500     805.3750    -999.2500
 5070.8052    5070.8052    -999.2500     703.7504     735.3754     770.8756     805.3750    -999.2500
 5070.6528    5070.6528    -999.2500     703.7500     735.3750     770.9996     805.0006    -999.2500
 5070.5004    5070.5004    -999.2500     703.7500     735.3750     770.8753     805.0000    -999.2500
 5070.3480    5070.3480    -999.2500     703.7500     735.3750     770.9997     805.0000    -999.2500
 5070.1956    5070.1956    -999.2500     703.8748     735.3750     770.8752     805.0000    -999.2500
 5070.0432    5070.0432    -999.2500     703.7502     735.3750     770.8750     804.8752    -999.2500
 5069.8908    5069.8908    -999.2500     703.7500     735.3750     770.8750     804.8750    -999.2500
