~VERSION INFORMATION
VERS.           2.0   :CWLS Log ASCII Standard - VERSION 2.0
WRAP.           NO    :One Line per depth step
PROD.  Schlumberger   :LAS Producer
PROG.  DLIS to ASCII 2.3                               :LAS Program name and version
CREA.        2023/07/14 00:15                          :LAS Creation date {YYYY/MM/DD hh:mm}
DLIS_CREA.  2023-Jul-14 00:11                          :DLIS Creation date and time {YYYY-MMM-DD hh:mm}
SOURCE.     LIS_011.dlis                               :DLIS File Name
FILE-ID.     LIS   .004                                :File Identification Number
#--------------------------------------------------
~WELL INFORMATION
#MNEM.UNIT      DATA             DESCRIPTION
#---- ------ --------------   -----------------------------
STRT .M      5300.3196       :START DEPTH     
STOP .M      4931.0544       :STOP DEPTH     
STEP .M        -0.1524       :STEP     
NULL .          -999.25      :NULL VALUE
COMP .        PETROBRAS S.A.                           :COMPANY
WELL .        3-BRSA-293D-SPS                          :WELL
FLD  .        BS-400                                   :FIELD
LOC  .        BASE SAD 69:                             :LOCATION
CNTY .        SANTOS                                   :COUNTY
STAT .        BRASIL                                   :STATE
CTRY .        BRASIL                                   :COUNTRY
API  .                                                 :API NUMBER
UWI  .                                                 :UNIQUE WELL ID
DATE .        15/11/2004                               :LOG DATE
SRVC .        Schlumberger                             :SERVICE COMPANY
LATI .DEG                                              :LATITUDE
LONG .DEG                                              :LONGITUDE
GDAT .                                                 :GeoDetic Datum
#-----------------------------------------------------------------------------
~PARAMETER INFORMATION
#MNEM.UNIT    VALUE                      DESCRIPTION
#---- -----   --------------------       ------------------------
APD  .M               24                 :
BHT  .DEGF           260                 :
BLI  .M             5289                 :
BS   .IN         8.50000                 :
CN   .        PETROBRAS S.A.             :
COUN .        SANTOS                     :
CS   .IN         9.62500                 :
DATE .        15/11/2004                 :
DFD  .LB/G      12.30000                 :
DFL  .C3               2                 :
DFPH .        N/A                        :
DFT  .        SINTETICO                  :
DFV  .S               95                 :
DMF  .        MESA ROTATIVA              :
EDF  .M               24                 :
EGL  .M             -500                 :
EKB  .        N/A                        :
ENGI .        HERNANDEZ / LOCK           :
FL1  .        X   7292392.00 M LAT 24 28 47.189 S :
FL2  .        Y    584087.00 M LON 44 10 12.698 W :
FL3  .        MC  45 GRAUS               :
FN   .        BS-400                     :
LMF  .        MESA ROTATIVA              :
LUL  .        MACAE                      :
MCSS .        PRENSA                     :
MCST .DEGF            80                 :
MFSS .        PRENSA                     :
MFST .DEGF            80                 :
MSS  .        LINHA DE FLUXO             :
MST  .DEGF            80                 :
PDAT .        NIVEL DO MAR               :
R1   .        01. APRESENTAÇÃO DE ACORDO COM REQUERIMENTO DO CLIENTE :
R2   .        02. TEMPERATURA MÁXIMA DO POÇO T1=T2= 290 DEGF @  5275 M :
R3   .        03. INICIO DA CIRCULAÇÃO  12/11/2004 09 00 H :
R4   .        04. FINAL DA CIRCULAÇÃO   12/11/2004 18 00 H :
R5   .        05. TEMPO TOTAL DE CIRCULAÇÃO   09 00 H :
R6   .        06. FLUIDO DE PERFURAÇÃO  SINTETICO (BR-MUL  BR-MI)  60% TEOR DO OLEO :
R7   .        07. SALINIDADE DA LAMA  254762 PPM NACL NA FASE DE AGUA :
R8   .        08. INCLINAÇÃO MÁXIMA DO POÇO  37.37 GRAUS @ 5100 M :
R9   .        09. PRIMEIRAS E ULTIMAS LEITURAS  :
RMB  .OHMM    > 10                       :
RMCS .OHMM    > 10                       :
RMFS .OHMM    > 10                       :
RMS  .OHMM    >10                        :
RUN  .                 2                 :
STAT .        BRASIL                     :
TCS  .        18 00 H                    :
TDD  .M             5288                 :
TDL  .M             5293                 :
TLAB .        N/A                        :
TLI  .M             5000                 :
WITN .        ERNANI / ZE MARIA          :
WN   .        3-BRSA-293D-SPS            :
LUN  .              8808                 :
HIDE .        3-SPS-41D                  :
HID2 .        HIGH DEFINITION INDUCTION LOG :
HID3 .        X-MULTIPOLE ARRAY ACOUSTILOG :
HID4 .        GAMMA RAY LOG              :
HID5 .        TTRM SUB                   :
CLAB .        BACIA                      :
SLAB .        PAIS                       :
CMT1 .        ESC  1 200                 :
CMT2 .        PROF. MEDIDA               :
CMT4 .        SONDA  SS-43               :
HDAT .        SAD 69                     :
FL   .        BASE SAD 69                :
OS1  .        RCI/GR                     :
OS2  .        CHECK SHOT                 :
OS3  .        GR/CN/ZDL                  :
OS5  .        RCOR/GR                    :
LNAM .        ZDL/CN/XMAC/HDIL/EARTH IMAGER/RCI/RCOR/CHECK SHOT/GR :
TOOL .        ZDL/CN/XMAC/HDIL/EARTH IMAGER/RCI/RCOR/CHECK SHOT/GR :
LSOU .        PETROBRAS                  :
LSRV .        OH WIRELINE                :
LTYP .        RAW                        :
EPD  .M                0                 :
LDAT .        15/11/2004                 :
TRIP .                 3                 :
SON  .            786588                 :
CBDR .M             4277                 :
CBLO .        NR                         :
CBL1 .        NR                         :
STEM .DEGF    N/A                        :
BSAL .            254762                 :
BARI .        OFF                        :
DLAB .        12/11/2004                 :
MRT  .DEGF           290                 :
TSTR .        HDIL/XMAC/GR/TTRM          :
TSTG .        N/A                        :
STUS .        FINAL                      :
LCNM .        BAKER ATLAS                :
LCC  .               150                 :
NATI .        BRASIL                     :
OPMD .        OH.WIRELINE                :
PANA .        HERNANDEZ / LOCK           :
PCON .        BAKER ATLAS                :
R11  .        SL     5268.3 M / 5000.0 M :
R12  .        GR     5268.3 M / 5000.0 M :
R13  .        XMAC   5279.5 M / 5000.0 M :
R14  .        HDIL   5289.0 M / 5000.0 M :
R17  .        11. DECLINAÇÃO MAGNETICA  -20.9 GRAUS :
R18  .        12. COORDENADAS BASE       :
R21  .        Y    583936.00 M           :
R22  .        MC  45 GRAUS               :
PVER .           4.10000                 :
WDFN .        /space/expusr/3-SPS-41D_RUN2/i77bf02_4spf.xtf :
OCT  .        i77bf                      :
OS4  .        EARTH IMAGER               :
R16  .        10. PONTO FRACO UTILIZADO  10K :
R20  .        X   7292512.00 M           :
R24  .        13. CADASTRO ANP  86316021017 :
#-----------------------------------------------------------------------------
~CURVE INFORMATION
#MNEM.UNIT   API CODE                                  DESCRIPTION
#---- -----  --------                                  -----------------------
DEPT .M                                                :DEPTH (BOREHOLE) {F10.4}
DEPT .M                                                : {F13.4}
BIT  .IN                                               : {F13.4}
GR   .GAPI                                             : {F13.4}
M2R1 .OHMM                                             : {F13.4}
M2R2 .OHMM                                             : {F13.4}
M2R3 .OHMM                                             : {F13.4}
M2R6 .OHMM                                             : {F13.4}
M2R9 .OHMM                                             : {F13.4}
M2RX .OHMM                                             : {F13.4}
SPD  .M/MN                                             : {F13.4}
TEN  .LBF                                              : {F13.4}
TTEN .LBF                                              : {F13.4}
#-----------------------------------------------------------------------------
# 
#     DEPT        DEPT         BIT          GR           M2R1         M2R2         M2R3         M2R6         M2R9         M2RX         SPD          TEN          TTEN
#
~A  
# ...
 5293.0044    5293.0044       8.5000    -999.2500       2.9658       4.5154       5.7280       6.4586       6.7792       7.0834       4.8279    1814.6419    7701.6375
 5292.8520    5292.8520       8.5000    -999.2500       2.9574       4.5066       5.7210       6.4512       6.7712       7.0769       4.8202    1797.4626    7717.1444
 5292.6996    5292.6996       8.5000    -999.2500       2.9483       4.4969       5.7117       6.4413       6.7607       7.0680       4.8196    1770.5387    7722.5555
 5292.5472    5292.5472       8.5000    -999.2500       2.9396       4.4878       5.7022       6.4313       6.7505       7.0593       4.8269    1736.2120    7719.9967
 5292.3948    5292.3948       8.5000    -999.2500       2.9372       4.4891       5.7053       6.4360       6.7559       7.0667       4.8382    1686.7213    7701.4263
 5292.2424    5292.2424       8.5000    -999.2500       2.9404       4.5003       5.7213       6.4559       6.7770       7.0903       4.8424    1624.5852    7669.0888
 5292.0900    5292.0900       8.5000    -999.2500       2.9397       4.5066       5.7319       6.4698       6.7916       7.1066       4.8411    1572.2324    7645.4388
 5291.9376    5291.9376       8.5000    -999.2500       2.9320       4.5023       5.7292       6.4685       6.7899       7.1053       4.8396    1542.7256    7643.9092
 5291.7852    5291.7852       8.5000    -999.2500       2.9256       4.4992       5.7267       6.4664       6.7869       7.1022       4.8327    1516.0508    7644.7344
 5291.6328    5291.6328       8.5000    -999.2500       2.9256       4.5037       5.7304       6.4694       6.7891       7.1041       4.8249    1475.3083    7630.8359
 5291.4804    5291.4804       8.5000    -999.2500       2.9272       4.5075       5.7276       6.4632       6.7812       7.0951       4.8288    1437.0741    7618.6330
 5291.3280    5291.3280       8.5000    -999.2500       2.9275       4.5040       5.7099       6.4377       6.7532       7.0649       4.8310    1421.0071    7627.8980
 5291.1756    5291.1756       8.5000    -999.2500       2.9300       4.4972       5.6835       6.4003       6.7130       7.0219       4.8211    1424.9379    7657.2431
 5291.0232    5291.0232       8.5000    -999.2500       2.9401       4.4969       5.6624       6.3671       6.6778       6.9844       4.8206    1429.0628    7687.3536
 5290.8708    5290.8708       8.5000    -999.2500       2.9626       4.5129       5.6604       6.3541       6.6644       6.9704       4.8355    1421.3872    7705.8149
 5290.7184    5290.7184       8.5000    -999.2500       2.9977       4.5470       5.6799       6.3645       6.6765       6.9838       4.8439    1402.6516    7712.7678
 5290.5660    5290.5660       8.5000    -999.2500       3.0397       4.5879       5.7056       6.3814       6.6962       7.0061       4.8415    1373.9307    7709.2096
 5290.4136    5290.4136       8.5000    -999.2500       3.0822       4.6178       5.7140       6.3792       6.6963       7.0090       4.8362    1331.0505    7690.7955
 5290.2612    5290.2612       8.5000    -999.2500       3.1264       4.6304       5.6962       6.3485       6.6663       6.9814       4.8256    1277.1606    7660.2690
 5290.1088    5290.1088       8.5000    -999.2500       3.1875       4.6434       5.6728       6.3129       6.6302       6.9481       4.8159    1224.9370    7630.5387
 5289.9564    5289.9564       8.5000    -999.2500       3.2810       4.6804       5.6726       6.3052       6.6215       6.9440       4.8168    1196.6420    7623.9956
 5289.8040    5289.8040       8.5000    -999.2500       3.3981       4.7290       5.6812       6.3107       6.6241       6.9516       4.8268    1205.0963    7654.0806
 5289.6516    5289.6516       8.5000    -999.2500       3.5046       4.7429       5.6472       6.2736       6.5786       6.9084       4.8313    1229.5814    7700.5829
 5289.4992    5289.4992       8.5000    -999.2500       3.6105       4.7447       5.6058       6.2342       6.5273       6.8579       4.8329    1234.8904    7728.1912
 5289.3468    5289.3468       8.5000    -999.2500       3.7846       4.8440       5.6950       6.3460       6.6309       6.9688       4.8344    1215.9022    7731.3465
 5289.1944    5289.1944       8.5000    -999.2500       4.0348       5.0781       5.9650       6.6658       6.9481       7.3024       4.8314    1194.2692    7731.4833
 5289.0420    5289.0420       8.5000    -999.2500       4.2050       5.2829       6.2264       6.9808       7.2567       7.6251       4.8200    1188.0903    7746.8379
 5288.8896    5288.8896       8.5000    -999.2500       4.1032       5.2301       6.2041       6.9778       7.2334       7.5966       4.8093    1189.1882    7769.4092
 5288.7372    5288.7372       8.5000    -999.2500       3.8318       5.0187       5.9987       6.7627       6.9916       7.3366       4.8089    1170.7924    7772.3123
 5288.5848    5288.5848       8.5000    -999.2500       3.6619       4.9623       5.9698       6.7356       6.9472       7.2819       4.8187    1118.0958    7740.1075
 5288.4324    5288.4324       8.5000    -999.2500       3.6115       5.0585       6.1072       6.8845       7.0873       7.4182       4.8300    1054.4613    7695.5197
 5288.2800    5288.2800       8.5000    -999.2500       3.4961       5.0031       6.0376       6.7890       6.9797       7.2932       4.8361    1018.2352    7677.0629
 5288.1276    5288.1276       8.5000    -999.2500       3.2548       4.6700       5.6103       6.2865       6.4582       6.7345       4.8365    1009.0447    7685.2476
 5287.9752    5287.9752       8.5000    -999.2500       3.0391       4.2958       5.1233       5.7192       5.8742       6.1114       4.8325    1002.2517    7696.0383
 5287.8228    5287.8228       8.5000    -999.2500       3.0021       4.1430       4.9031       5.4543       5.6033       5.8142       4.8267     996.1314    7707.7137
 5287.6704    5287.6704       8.5000    -999.2500       3.2125       4.3265       5.0905       5.6464       5.8029       6.0042       4.8200     996.5702    7725.9735
 5287.5180    5287.5180       8.5000    -999.2500       3.6487       4.8265       5.6651       6.2699       6.4459       6.6491       4.8136     981.6501    7728.9097
 5287.3656    5287.3656       8.5000    -999.2500       4.0523       5.3171       6.2468       6.9021       7.0962       7.2967       4.8143     940.9045    7705.4567
 5287.2132    5287.2132       8.5000    -999.2500       4.1044       5.3904       6.3485       7.0025       7.1953       7.3747       4.8322     905.4052    7686.5308
 5287.0608    5287.0608       8.5000    -999.2500       3.8824       5.1192       6.0425       6.6509       6.8245       6.9724       4.9270     891.4519    7688.7723
 5286.9084    5286.9084       8.5000    -999.2500       3.7155       4.9009       5.7872       6.3518       6.5028       6.6235       5.0501     887.5076    7700.8919
 5286.7560    5286.7560       8.5000    -999.2500       3.7960       4.9755       5.8648       6.4133       6.5450       6.6474       5.0519     890.4225    7719.8412
 5286.6036    5286.6036       8.5000    -999.2500       4.1640       5.3929       6.3331       6.8952       7.0093       7.1000       4.9355     892.4792    7738.0001
 5286.4512    5286.4512       8.5000    -999.2500       4.7022       6.0178       7.0327       7.6203       7.7121       7.7925       4.8554     877.7306    7739.2529
 5286.2988    5286.2988       8.5000    -999.2500       5.1636       6.5836       7.6552       8.2533       8.3140       8.3808       4.8504     849.0706    7726.1621
 5286.1464    5286.1464       8.5000    -999.2500       5.4009       6.9689       8.0576       8.6545       8.6787       8.7280       4.8561     824.2076    7716.4154
 5285.9940    5285.9940       8.5000    -999.2500       5.3136       7.0399       8.1163       8.6704       8.6582       8.6873       4.8589     802.1599    7709.0960
 5285.8416    5285.8416       8.5000    -999.2500       4.8623       6.6325       7.6342       8.1079       8.0668       8.0744       4.8590     774.2250    7695.3907
