~VERSION INFORMATION
VERS.           2.0   :CWLS Log ASCII Standard - VERSION 2.0
WRAP.           YES   :Multiple lines per depth step
PROD.  Schlumberger   :LAS Producer
PROG.  DLIS to ASCII 2.3                               :LAS Program name and version
CREA.        2023/07/14 00:15                          :LAS Creation date {YYYY/MM/DD hh:mm}
DLIS_CREA.  2023-Jul-14 00:11                          :DLIS Creation date and time {YYYY-MMM-DD hh:mm}
SOURCE.     LIS_012.dlis                               :DLIS File Name
FILE-ID.     LIS   .001                                :File Identification Number
#--------------------------------------------------
~WELL INFORMATION
#MNEM.UNIT      DATA             DESCRIPTION
#---- ------ --------------   -----------------------------
STRT .M      5265.1152       :START DEPTH     
STOP .M      5185.4100       :STOP DEPTH     
STEP .M        -0.1524       :STEP     
NULL .          -999.25      :NULL VALUE
COMP .        PETROBRAS S.A.                           :COMPANY
WELL .        3-BRSA-293D-SPS                          :WELL
FLD  .        BS-400                                   :FIELD
LOC  .        BASE SAD 69:                             :LOCATION
CNTY .        SANTOS                                   :COUNTY
STAT .        BRASIL                                   :STATE
CTRY .        BRASIL                                   :COUNTRY
API  .                                                 :API NUMBER
UWI  .                                                 :UNIQUE WELL ID
DATE .        15/11/2004                               :LOG DATE
SRVC .        Schlumberger                             :SERVICE COMPANY
LATI .DEG                                              :LATITUDE
LONG .DEG                                              :LONGITUDE
GDAT .                                                 :GeoDetic Datum
#-----------------------------------------------------------------------------
~PARAMETER INFORMATION
#MNEM.UNIT    VALUE                      DESCRIPTION
#---- -----   --------------------       ------------------------
APD  .M               24                 :
BHT  .DEGF           260                 :
BLI  .M             5289                 :
BS   .IN         8.50000                 :
CN   .        PETROBRAS S.A.             :
COUN .        SANTOS                     :
CS   .IN         9.62500                 :
DATE .        15/11/2004                 :
DFD  .LB/G      12.30000                 :
DFL  .C3               2                 :
DFPH .        N/A                        :
DFT  .        SINTETICO                  :
DFV  .S               95                 :
DMF  .        MESA ROTATIVA              :
EDF  .M               24                 :
EGL  .M             -500                 :
EKB  .        N/A                        :
ENGI .        HERNANDEZ / LOCK           :
FL1  .        X   7292392.00 M LAT 24 28 47.189 S :
FL2  .        Y    584087.00 M LON 44 10 12.698 W :
FL3  .        MC  45 GRAUS               :
FN   .        BS-400                     :
LMF  .        MESA ROTATIVA              :
LUL  .        MACAE                      :
MCSS .        PRENSA                     :
MCST .DEGF            80                 :
MFSS .        PRENSA                     :
MFST .DEGF            80                 :
MSS  .        LINHA DE FLUXO             :
MST  .DEGF            80                 :
PDAT .        NIVEL DO MAR               :
R1   .        01. APRESENTAÇÃO DE ACORDO COM REQUERIMENTO DO CLIENTE :
R2   .        02. TEMPERATURA MÁXIMA DO POÇO T1=T2= 292 DEGF @  5277 M :
R3   .        03. INICIO DA CIRCULAÇÃO  12/11/2004 09 00 H :
R4   .        04. FINAL DA CIRCULAÇÃO   12/11/2004 18 00 H :
R5   .        05. TEMPO TOTAL DE CIRCULAÇÃO   09 00 H :
R6   .        06. FLUIDO DE PERFURAÇÃO  SINTETICO (BR-MUL  BR-MI)  60% TEOR DO OLEO :
R7   .        07. SALINIDADE DA LAMA  254762 PPM NACL NA FASE DE AGUA :
R8   .        08. INCLINAÇÃO MÁXIMA DO POÇO  37.37 GRAUS @ 5100 M :
R9   .        09. PRIMEIRAS E ULTIMAS LEITURAS  :
RMB  .OHMM    > 10                       :
RMCS .OHMM    > 10                       :
RMFS .OHMM    > 10                       :
RMS  .OHMM    >10                        :
RUN  .                 2                 :
STAT .        BRASIL                     :
TCS  .        18 00 H                    :
TDD  .M             5288                 :
TDL  .M             5293                 :
TLAB .        N/A                        :
TLI  .M             4277                 :
WITN .        ERNANI / ZE MARIA          :
WN   .        3-BRSA-293D-SPS            :
LUN  .              8808                 :
HIDE .        3-SPS-41D                  :
HID2 .        COMPENSATED Z-DENSILOG     :
HID3 .        COMPENSATED NEUTRON LOG    :
HID4 .        GAMMA RAY LOG              :
HID5 .        TTRM SUB                   :
CLAB .        BACIA                      :
SLAB .        PAIS                       :
CMT1 .        ESC  1 1000                :
CMT2 .        PROF. MEDIDA               :
CMT4 .        SONDA  SS-43               :
HDAT .        SAD 69                     :
FL   .        BASE SAD 69                :
OS1  .        RCI/GR                     :
OS2  .        CHECK SHOT                 :
OS3  .        GR/XMAC/HDIL               :
OS5  .        RCOR/GR                    :
LNAM .        ZDL/CN/XMAC/HDIL/EARTH IMAGER/RCI/RCOR/CHECK SHOT/GR :
TOOL .        ZDL/CN/XMAC/HDIL/EARTH IMAGER/RCI/RCOR/CHECK SHOT/GR :
LSOU .        PETROBRAS                  :
LSRV .        OH WIRELINE                :
LTYP .        RAW                        :
EPD  .M                0                 :
LDAT .        15/11/2004                 :
TRIP .                 4                 :
SON  .            786588                 :
CBDR .M             4277                 :
CBLO .        NR                         :
CBL1 .        NR                         :
STEM .DEGF    N/A                        :
BSAL .            254762                 :
BARI .        OFF                        :
DLAB .        12/11/2004                 :
MRT  .DEGF           292                 :
TSTR .        ZDL/CN/GR/TTRM             :
TSTG .        N/A                        :
STUS .        FINAL                      :
LCNM .        BAKER ATLAS                :
LCC  .               150                 :
NATI .        BRASIL                     :
OPMD .        OH.WIRELINE                :
PANA .        HERNANDEZ / LOCK           :
PCON .        BAKER ATLAS                :
R11  .        GR     5268.3 M / 4277.0 M :
R12  .        CN     5286.5 M / 5128.0 M (FERRAMENTA PERDEU LEITURA ACIMA DE 5128M) :
R13  .        ZDL    5292.0 M / 4277.0 M :
R15  .        10. PONTO FRACO UTILIZADO  10K :
R17  .        12. COORDENADAS BASE       :
R19  .        X   7292512.00 M           :
R21  .        MC  45 GRAUS               :
R23  .        13. CADASTRO ANP  86316021017 :
PVER .           4.10000                 :
WDFN .        /space/expusr/3-SPS-41D_RUN2/i77bf03_8spf.xtf :
OCT  .        i77bf                      :
OS4  .        EARTH IMAGER               :
R16  .        11. DECLINAÇÃO MAGNETICA  -20.9 GRAUS :
R20  .        Y    583936.00 M           :
#-----------------------------------------------------------------------------
~CURVE INFORMATION
#MNEM.UNIT   API CODE                                  DESCRIPTION
#---- -----  --------                                  -----------------------
DEPT .M                                                :DEPTH (BOREHOLE) {F10.4}
DEPT .M                                                : {F13.4}
BIT  .IN                                               : {F13.4}
DEPM .M                                                : {F13.4}
GR   .GAPI                                             : {F13.4}
SPD  .M/MN                                             : {F13.4}
TTEN .LBF                                              : {F13.4}
CAL  .IN                                               : {F13.4}
CALX .IN                                               : {F13.4}
HRD1 .HZ                                               : {F13.4}
HRD2 .HZ                                               : {F13.4}
PE   .B/E                                              : {F13.4}
SFT2 .HZ                                               : {F13.4}
SOFT .HZ                                               : {F13.4}
SSD  .HZ                                               : {F13.4}
ZCOR .G/C3                                             : {F13.4}
ZDEN .G/C3                                             : {F13.4}
CNC  .PU                                               : {F13.4}
CN   .PU                                               : {F13.4}
LSN  .HZ                                               : {F13.4}
SSN  .HZ                                               : {F13.4}
CNCF .PU                                               : {F13.4}
MMRK .MN                                               : {F13.4}
#-----------------------------------------------------------------------------
# DEPT       
#     DEPT         BIT          DEPM         GR           SPD          TTEN         
#     CAL          CALX         HRD1         HRD2         PE           SFT2         
#     SOFT         SSD          ZCOR         ZDEN         CNC          CN           
#     LSN          SSN          CNCF         MMRK         
~A  
# ...
5226.7104
   5226.7104       8.5000    5226.4174      80.9896       6.2788    7494.8354
      9.0666       9.0675     601.0274     704.2137       4.9413     457.9931
    315.6656    6571.5287      -0.0198       2.6168      13.3248      13.9072
   1804.4235    3766.7182      13.3248       0.0000
5226.5580
   5226.5580       8.5000    5226.2650      81.7519       6.2878    7432.0141
      9.0631       9.0652     578.3119     696.4695       4.3152     477.8299
    342.2895    6506.6247      -0.0238       2.6212      14.9624      15.1508
   1707.4479    3811.3312      14.9624       0.0000
5226.4056
   5226.4056       8.5000    5226.1126      83.0198       6.2674    7359.1243
      9.0628       9.0628     594.5137     727.4256       4.1767     461.2924
    367.3380    6456.8188      -0.0417       2.6068      15.5626      16.2596
   1708.1656    3849.3617      15.5626       0.0000
5226.2532
   5226.2532       8.5000    5225.9602      83.4266       6.1896    7334.2516
      9.0632       9.0628     602.9068     752.2669       4.6976     452.4398
    347.8843    6519.6165      -0.0422       2.5952      14.9898      15.5186
   1762.7098    3909.9234      14.9898       0.0000
5226.1008
   5226.1008       8.5000    5225.8078      83.7013       6.1593    7349.5006
      9.0640       9.0640     580.8827     775.3466       4.7795     472.1472
    358.7009    6517.3042      -0.0407       2.5943      14.6132      15.1673
   1800.0166    3941.7701      14.6132       0.0000
5225.9484
   5225.9484       8.5000    5225.6554      84.1883       6.1783    7380.9004
      9.0592       9.0616     582.7246     754.9372       5.4949     467.9040
    320.1839    6573.9579      -0.0318       2.6018      14.8894      15.4041
   1794.5359    3971.3645      14.8894       0.0000
5225.7960
   5225.7960       8.5000    5225.5030      83.5575       6.1775    7421.1745
      9.0574       9.0587     549.9210     722.8703       6.0552     443.7926
    284.4325    6535.0935      -0.0163       2.6198      14.5646      15.1006
   1821.8131    3991.8944      14.5646       0.0000
5225.6436
   5225.6436       8.5000    5225.3506      82.1235       6.2111    7444.9893
      9.0568       9.0554     574.9236     738.7366       4.8375     457.9614
    340.1915    6550.9395      -0.0328       2.6124      14.6688      15.1727
   1760.3506    3902.0059      14.6688       0.0000
5225.4912
   5225.4912       8.5000    5225.1982      83.1146       6.2388    7441.0176
      9.0607       9.0603     585.3705     699.6940       4.5222     459.1365
    335.2583    6649.6738      -0.0074       2.6209      15.8038      16.1449
   1614.6978    3727.8770      15.8038       0.0000
5225.3388
   5225.3388       8.5000    5225.0449      87.0786       6.2116    7431.5044
      9.0523       9.0569     557.4833     745.8855       5.1327     433.4460
    327.0008    6550.8009      -0.0214       2.6185      15.5127      16.3112
   1642.2167    3683.3192      15.5127       0.0000
5225.1864
   5225.1864       8.5000    5224.8925      90.7063       6.1823    7406.6233
      9.0530       9.0506     539.4142     796.3903       5.1527     443.9114
    349.4337    6507.8732      -0.0375       2.6103      13.6122      14.1861
   1793.0356    3769.6638      13.6122       0.0000
5225.0340
   5225.0340       8.5000    5224.7401      91.3694       6.2094    7344.5632
      9.0600       9.0569     553.4871     746.0489       5.1395     472.2331
    329.0659    6571.9430      -0.0255       2.6210      13.7089      14.1588
   1831.7152    3876.5880      13.7089       0.0000
5224.8816
   5224.8816       8.5000    5224.5877      89.9875       6.1489    7278.9362
      9.0603       9.0608     570.7410     723.4029       5.1020     464.5508
    324.0522    6610.5021      -0.0138       2.6235      14.4192      14.8670
   1839.1542    3992.7782      14.4192       0.0000
5224.7292
   5224.7292       8.5000    5224.4362      88.7133       6.1140    7255.5678
      9.0579       9.0590     580.2454     736.8934       5.5242     463.6555
    308.4122    6617.2850      -0.0197       2.6154      15.0032      15.4105
   1842.3323    4094.7978      15.0032       0.3395
5224.5768
   5224.5768       8.5000    5224.2838      85.9724       6.1451    7264.5415
      9.0561       9.0573     585.2189     724.2583       5.2187     436.2500
    318.8094    6601.3452      -0.0181       2.6178      16.3006      16.7336
   1760.2881    4107.6713      16.3006       0.0025
5224.4244
   5224.4244       8.5000    5224.1314      78.5082       6.1387    7276.0709
      9.0573       9.0557     575.0575     723.5849       5.2087     442.3738
    316.8222    6614.6693      -0.0162       2.6214      16.4286      17.1264
   1730.0212    4023.7575      16.4286       0.0000
5224.2720
   5224.2720       8.5000    5223.9790      69.3512       6.1169    7282.2717
      9.0599       9.0594     580.1304     745.6696       5.2210     480.0299
    325.3417    6624.4253      -0.0213       2.6100      12.9096      13.9176
   2065.2938    4147.3995      12.9096       0.0000
5224.1196
   5224.1196       8.5000    5223.8266      63.6451       6.0953    7301.5394
      9.0564       9.0591     601.6513     824.8772       5.2405     482.7740
    355.9613    6805.9140      -0.0198       2.5776       9.7090      10.2711
   2590.9667    4566.0084       9.7090       0.0000
5223.9672
   5223.9672       8.5000    5223.6742      61.4332       6.0881    7343.9339
      9.0551       9.0537     653.5034     861.3217       5.2276     512.1942
    371.1268    6782.0722      -0.0319       2.5507       9.8432      10.1923
   2764.8375    4978.0785       9.8432       0.0000
5223.8148
   5223.8148       8.5000    5223.5218      60.3590       6.1271    7381.3366
      9.0605       9.0590     630.4357     884.6646       5.0836     529.1030
    406.5763    6825.9675      -0.0300       2.5445       9.4486       9.9354
   2886.7999    5133.7371       9.4486       0.0000
5223.6624
   5223.6624       8.5000    5223.3694      60.0692       6.1922    7380.1534
      9.0584       9.0591     671.4889     905.4358       5.1827     542.1412
    393.9940    6852.7240      -0.0357       2.5294       9.5352       9.8597
   2775.0427    5021.2849       9.5352       0.0000
5223.5100
   5223.5100       8.5000    5223.2170      61.9770       6.1601    7343.5362
      9.0609       9.0593     679.4980     875.5331       5.2673     534.7988
    383.4273    6872.4215      -0.0289       2.5303      10.0015      10.3441
   2537.1129    4721.2154      10.0015       0.0000
5223.3576
   5223.3576       8.5000    5223.0646      67.5237       6.1624    7298.7568
      9.0750       9.0655     698.0472     887.0710       6.1245     528.4551
    347.0324    6761.1768      -0.0426       2.5229      11.8724      12.0882
   2116.0078    4294.3731      11.8724       0.0000
5223.2052
   5223.2052       8.5000    5222.9122      75.1052       6.1440    7259.9889
      9.0735       9.0796     658.3668     852.0022       6.0362     508.2940
    338.9718    6751.8506      -0.0426       2.5411      12.1169      12.6839
   1959.5774    3950.2952      12.1169       0.0000
5223.0528
   5223.0528       8.5000    5222.7598      81.0845       6.1416    7235.9078
      9.0615       9.0647     642.9147     817.5820       5.4428     508.0304
    349.5928    6805.1875      -0.0161       2.5534      11.7950      12.2648
   1946.8498    3844.6165      11.7950       0.0000
5222.9004
   5222.9004       8.5000    5222.6064      84.6466       6.0914    7236.0449
      9.0629       9.0622     626.3988     844.1558       5.4484     511.5247
    356.6036    6589.7393      -0.0484       2.5524      11.7746      12.2096
   1944.1714    3837.8325      11.7746       0.0000
5222.7480
   5222.7480       8.5000    5222.4541      87.0009       6.0586    7270.9541
      9.0604       9.0617     621.2831     843.6115       5.1123     486.1519
    374.4909    6683.7568      -0.0413       2.5564      12.2612      12.6432
   1909.4746    3845.6362      12.2612       0.0000
5222.5956
   5222.5956       8.5000    5222.3017      88.0303       6.0212    7331.0988
      9.0710       9.0635     607.6739     793.2252       5.0057     484.6244
    353.6615    6593.2625      -0.0348       2.5759      13.3159      13.7017
   1858.1070    3888.5071      13.3159       0.0000
