~VERSION INFORMATION
VERS.           2.0   :CWLS Log ASCII Standard - VERSION 2.0
WRAP.           NO    :One Line per depth step
PROD.  Schlumberger   :LAS Producer
PROG.  DLIS to ASCII 2.3                               :LAS Program name and version
CREA.        2023/07/14 00:15                          :LAS Creation date {YYYY/MM/DD hh:mm}
DLIS_CREA.  2023-Jul-14 00:11                          :DLIS Creation date and time {YYYY-MMM-DD hh:mm}
SOURCE.     LIS_003.dlis                               :DLIS File Name
FILE-ID.     LIS   .003                                :File Identification Number
#--------------------------------------------------
~WELL INFORMATION
#MNEM.UNIT      DATA             DESCRIPTION
#---- ------ --------------   -----------------------------
STRT .M      5239.8168       :START DEPTH     
STOP .M      3827.6784       :STOP DEPTH     
STEP .M        -0.1524       :STEP     
NULL .          -999.25      :NULL VALUE
COMP .        PETROBRAS S.A.                           :COMPANY
WELL .        3-BRSA-293D-SPS                          :WELL
FLD  .        BS-400                                   :FIELD
LOC  .        BASE SAD 69:                             :LOCATION
CNTY .        SANTOS                                   :COUNTY
STAT .        BRASIL                                   :STATE
CTRY .        BRASIL                                   :COUNTRY
API  .                                                 :API NUMBER
UWI  .                                                 :UNIQUE WELL ID
DATE .        22/10/2004                               :LOG DATE
SRVC .        Schlumberger                             :SERVICE COMPANY
LATI .DEG                                              :LATITUDE
LONG .DEG                                              :LONGITUDE
GDAT .                                                 :GeoDetic Datum
#-----------------------------------------------------------------------------
~PARAMETER INFORMATION
#MNEM.UNIT    VALUE                      DESCRIPTION
#---- -----   --------------------       ------------------------
APD  .M               24                 :
BHT  .DEGF           260                 :
BLI  .M       5227.50000                 :
BS   .IN         8.50000                 :
CN   .        PETROBRAS S.A.             :
COUN .        SANTOS                     :
CS   .IN         9.62500                 :
DATE .        22/10/2004                 :
DFD  .LB/G      12.30000                 :
DFL  .C3               2                 :
DFPH .        N/A                        :
DFT  .        SINTETICO                  :
DFV  .S               87                 :
DMF  .        MESA ROTATIVA              :
EDF  .M               24                 :
EGL  .M             -500                 :
EKB  .        N/A                        :
ENGI .        HERNANDEZ/LOCK             :
FL1  .        X   7292392.00 M LAT 24 28 47.189 S :
FL2  .        Y    584087.00 M LON 44 10 12.698 W :
FL3  .        MC  45 GRAUS               :
FN   .        BS-400                     :
LMF  .        MESA ROTATIVA              :
LUL  .        MACAE                      :
MCSS .        PRENSA                     :
MCST .DEGF            80                 :
MFSS .        PRENSA                     :
MFST .DEGF            80                 :
MSS  .        LINHA DE FLUXO             :
MST  .DEGF            80                 :
PDAT .        NIVEL DO MAR               :
R1   .        01. APRESENTAÇÃO DE ACORDO COM REQUERIMENTO DO CLIENTE :
R2   .        02. TEMPERATURA MÁXIMA DO POÇO T1=T2= 260 DEGF @  5180 M :
R3   .        03. INICIO DA CIRCULAÇÃO  13 45 H 21/10/2004 :
R4   .        04. FINAL DA CIRCULAÇÃO   16 00 H 21/10/2004 :
R5   .        05. TEMPO TOTAL DE CIRCULAÇÃO  02 15 H :
R6   .        06. FLUIDO DE PERFURAÇÃO  SINTETICO (BR-MUL  BR-MI)  65% TEOR DO OLEO :
R7   .        07. SALINIDADE DA LAMA  266377 PPM NACL NA FASE DE AGUA :
R8   .        08. INCLINAÇÃO MÁXIMA DO POÇO  37.37 GRAUS @ 5100 M :
R9   .        09. PRIMEIRAS E ULTIMAS LEITURAS  :
RMB  .OHMM    > 10                       :
RMCS .OHMM    > 10                       :
RMFS .OHMM    > 10                       :
RMS  .OHMM    > 10                       :
RUN  .                 1                 :
STAT .        BRASIL                     :
TCS  .        16 00 H                    :
TDD  .M             5230                 :
TDL  .M             5231                 :
TLAB .        N/A                        :
TLI  .M             3850                 :
WITN .        ALCIDIO/VLADIMIR           :
WN   .        3-BRSA-293D-SPS            :
LUN  .              8808                 :
HIDE .        3-SPS-41D                  :
HID2 .        HIGH DEFINITION INDUCTION LOG :
HID3 .        X-MULTIPOLE ARRAY ACOUSTILOG :
HID4 .        GAMMA RAY LOG              :
HID5 .        TTRM SUB                   :
CLAB .        BACIA                      :
SLAB .        PAIS                       :
CMT1 .        ESC  1 1000                :
CMT2 .        PROF. MEDIDA               :
CMT4 .        SONDA  SS-43               :
HDAT .        SAD 69                     :
FL   .        BASE SAD 69                :
OS1  .        GR/CN/ZDL                  :
OS2  .        MREX/GR                    :
OS3  .        RCI/GR                     :
0S4  .        3DEX/GR                    :
OS5  .        SL/GR                      :
LNAM .        MREX/ZDL/CN/XMAC/HDIL/RCI/3DEX/SL/GR :
TOOL .        MREX/ZDL/CN/XMAC/HDIL/RCI/3DEX/SL/GR :
LSOU .        PETROBRAS                  :
LSRV .        OH WIRELINE                :
LTYP .        RAW                        :
EPD  .M                0                 :
LDAT .        22/10/2004                 :
TRIP .                 1                 :
SON  .            772317                 :
CBDR .M             4277                 :
CBLO .M             4277                 :
CBL1 .M             4277                 :
STEM .DEGF    N/A                        :
BSAL .            266377                 :
BARI .        OFF                        :
DLAB .        21/10/2004                 :
MRT  .DEGF           260                 :
TSTR .        HDIL/XMAC/GR/TTRM          :
TSTG .        N/A                        :
STUS .        FINAL                      :
LCNM .        BAKER ATLAS                :
LCC  .               150                 :
NATI .        BRASIL                     :
OPMD .        OH.WIRELINE                :
PANA .        HERNANDEZ/LOCK             :
PCON .        BAKER ATLAS                :
R11  .        SL     5196.0 M/4960.0 M   :
R12  .        GR     4960.0 M/4277.0 M   :
R13  .        XMAC   5202.0 M/3850.0 M   :
R14  .        HDIL   5227.5 M/4277.0 M   :
R15  .        3DEX   5217.0 M/4960.0 M   :
R17  .        10. PONTO FRACO UTILIZADO  10K :
R18  .        11. DECLINAÇÃO MAGNETICA  -20.9 GRAUS :
R19  .        12. COORDENADAS ARATU      :
R21  .        X   7292512.00 M           :
R22  .        Y    583936.00 M           :
R23  .        MC  45 GRAUS               :
R25  .        13. CADASTRO ANP  86316021017 :
PVER .           4.10000                 :
WDFN .        /space/expusr/3-SPS-41D/i77bf03_2spf.xtf :
OCT  .        i77bf                      :
#-----------------------------------------------------------------------------
~CURVE INFORMATION
#MNEM.UNIT   API CODE                                  DESCRIPTION
#---- -----  --------                                  -----------------------
DEPT .M                                                :DEPTH (BOREHOLE) {F10.4}
DEPT .M                                                : {F13.4}
DT   .US/F                                             : {F13.4}
SFN1 .US                                               : {F13.4}
SFN2 .US                                               : {F13.4}
SFN3 .US                                               : {F13.4}
SFN4 .US                                               : {F13.4}
TT   .MS                                               : {F13.4}
#-----------------------------------------------------------------------------
# 
#     DEPT        DEPT         DT           SFN1         SFN2         SFN3         SFN4         TT
#
~A  
# ...
 3855.2628    3855.2628      53.3413     685.2473     709.6251     737.6241     765.9987     299.5761
 3855.1104    3855.1104      53.2346     686.1250     712.0000     736.0000     763.3750     299.6027
 3854.9580    3854.9580      53.2205     680.6250     706.6250     736.0000     760.8750     299.6293
 3854.8056    3854.8056      53.3914     683.6250     709.0008     736.0001     763.8748     299.6561
 3854.6532    3854.6532      53.7659     683.6260     711.0006     736.1257     763.4997     299.6829
 3854.5008    3854.5008      54.1754     684.8711     711.7497     736.9997     763.1246     299.7101
 3854.3484    3854.3484      54.4888     681.5004     711.4964     736.7508     762.7534     299.7373
 3854.1960    3854.1960      54.6142     681.7497     709.1281     737.2493     764.9971     299.7646
 3854.0436    3854.0436      54.4418     685.6214     711.8724     737.2500     767.9972     299.7918
 3853.8912    3853.8912      54.2895     684.8754     709.7512     736.5004     763.5026     299.8190
 3853.7388    3853.7388      55.2709     686.0000     712.0000     737.0000     765.1250     299.8466
 3853.5864    3853.5864      58.7878     684.5000     711.0000     736.0000     350.2500     299.8760
 3853.4340    3853.4340      64.9874     681.5046     705.0985     733.7211     758.6387     299.9085
 3853.2816    3853.2816      71.7376     690.1376     656.0654     680.0555     784.0000     299.9444
 3853.1292    3853.1292      75.5701     703.9802     727.9837     741.0469     783.9081     299.9822
 3852.9768    3852.9768      74.2022     688.4992     715.2514     679.7038     712.0956     300.0193
 3852.8244    3852.8244      68.5085     688.0006     716.1240     499.7141     770.1809     300.0534
 3852.6720    3852.6720      61.6122     688.0000     714.0017     310.5302     768.5014     300.0843
 3852.5196    3852.5196      56.5014     688.4998     719.7474     743.8043     772.4982     300.1125
 3852.3672    3852.3672      54.1633     690.8750     717.3750     744.0000     768.6250     300.1396
 3852.2148    3852.2148      53.7625     690.0000     716.8750     743.0000     712.0000     300.1665
 3852.0624    3852.0624      54.0157     691.8747     718.6259     744.0008     487.0169     300.1935
 3851.9100    3851.9100      54.1983     691.3733     720.0000     745.2523     512.9068     300.2206
 3851.7576    3851.7576      54.2366     689.7509     719.9995     747.4976     665.3815     300.2478
 3851.6052    3851.6052      54.2468     690.3741     719.6255     745.7525     490.7516     300.2748
 3851.4528    3851.4528      54.3337     690.9993     718.6261     744.0019     773.0718     300.3020
 3851.3004    3851.3004      54.5685     689.7509     718.6250     744.3747     770.6269     300.3293
 3851.1480    3851.1479      54.8636     691.7500     720.0000     746.0000     772.8750     300.3568
 3850.9956    3850.9956      55.0463     690.0000     720.0000     750.1250     775.7500     300.3843
 3850.8432    3850.8432      55.0515     690.3744     718.3753     746.8738     775.9991     300.4118
 3850.6908    3850.6908      54.9409     688.9985     719.1244     744.0018     773.8744     300.4393
 3850.5384    3850.5384      54.7908     686.9971     718.3691     746.3756     773.1270     300.4667
 3850.3860    3850.3860      54.6407     684.4994     713.2481     746.8707     774.8763     300.4940
 3850.2336    3850.2336      54.5273     684.1255     712.0016     744.0038     775.7488     300.5212
 3850.0812    3850.0812      54.4731     684.4996     711.2507     739.7541     768.6318     300.5484
 3849.9288    3849.9288      54.4541     686.1240     711.3749     738.0010     768.0004     300.5757
 3849.7764    3849.7764      54.3968     687.8750     712.0000     739.5000     768.0000     300.6028
 3849.6240    3849.6240      54.2281     688.0000     712.0000     742.7500     768.0000     300.6299
 3849.4716    3849.4716      53.9768     687.9997     712.0000     743.8744     768.0000     300.6569
 3849.3192    3849.3192      53.7543     687.3756     712.0000     742.7503     768.0000     300.6839
 3849.1668    3849.1668      53.6550     687.9989     712.0000     743.1218     768.0000     300.7107
 3849.0144    3849.0144      53.6801     687.1262     712.0000     740.6272     767.9996     300.7375
 3848.8620    3848.8620      53.7287     687.8741     712.0000     741.9983     767.7503     300.7643
 3848.7096    3848.7096      53.7398     687.9999     712.0000     742.9992     767.9998     300.7912
 3848.5572    3848.5572      53.7786     688.0000     712.6247     742.3753     768.0000     300.8180
 3848.4048    3848.4048      53.9566     688.0000     713.3750     742.5000     768.0000     300.8450
 3848.2524    3848.2524      54.2880     682.5000     710.6250     738.6250     767.2500     300.8722
 3848.1000    3848.1000      54.6401     684.8770     711.6256     738.2531     767.5003     300.8995
 3847.9476    3847.9476      54.7850     687.9996     712.6256     743.1256     768.0003     300.9269
 3847.7952    3847.7952      54.5883     687.6255     713.2483     743.7478     768.2498     300.9542
 3847.6428    3847.6428      54.2134     687.9995     712.0018     742.1274     768.1252     300.9812
 3847.4904    3847.4904      53.9746     687.6254     713.8730     741.8753     768.0001     301.0082
 3847.3380    3847.3380      54.0996     687.1254     715.6237     743.6237     767.1256     301.0353
 3847.1856    3847.1855      54.5829     686.5000     712.0000     741.0000     767.8750     301.0626
 3847.0332    3847.0332      55.1671     688.0000     713.3750     743.3750     768.3750     301.0901
 3846.8808    3846.8809      55.5634     688.0000     714.6250     744.0000     769.2500     301.1179
 3846.7284    3846.7284      55.6549     689.8747     715.0014     744.0000     769.9998     301.1458
 3846.5760    3846.5760      55.5123     689.5006     716.8754     744.0013     769.7506     301.1736
 3846.4236    3846.4236      55.2886     689.9970     717.2474     745.1233     770.2507     301.2012
 3846.2712    3846.2712      55.0817     688.0027     715.5023     744.0015     770.7493     301.2287
 3846.1188    3846.1188      54.9115     691.2468     715.6249     744.2498     771.6242     301.2561
 3845.9664    3845.9664      54.7851     689.3761     716.9992     744.0002     769.7511     301.2836
 3845.8140    3845.8140      54.7273     689.6250     717.6250     745.6250     770.2500     301.3110
 3845.6616    3845.6616      54.7704     688.0000     714.5000     744.0000     771.0000     301.3383
 3845.5092    3845.5092      54.8730     689.1250     715.7504     744.0000     771.3746     301.3658
 3845.3568    3845.3568      54.8837     689.1238     716.4981     744.0000     770.6238     301.3932
 3845.2044    3845.2044      54.6874     687.7512     714.3725     744.0000     769.2520     301.4206
 3845.0520    3845.0520      54.3816     688.7488     712.3780     743.9976     770.8722     301.4478
 3844.8996    3844.8996      54.1245     688.0009     714.2477     742.5018     769.1271     301.4748
 3844.7472    3844.7472      53.9888     688.0000     714.3749     742.9996     768.0010     301.5018
 3844.5948    3844.5948      54.0177     689.1245     715.4995     743.9995     769.8741     301.5288
 3844.4424    3844.4424      54.1584     687.0000     714.7500     743.5000     769.7500     301.5559
 3844.2900    3844.2900      54.3613     686.1250     713.0000     743.1250     769.0000     301.5831
 3844.1376    3844.1376    -999.2500     680.6279     709.5012     737.8768     767.6255    -999.2500
 3843.9852    3843.9852    -999.2500     685.2478     711.3733     740.7460     768.3731    -999.2500
 3843.8328    3843.8328    -999.2500     682.9983     709.6255     736.7519     766.5005    -999.2500
 3843.6804    3843.6804    -999.2500     681.7518     709.9994     738.1230     766.8744    -999.2500
 3843.5280    3843.5280    -999.2500     682.4992     709.3757     737.3758     766.9999    -999.2500
 3843.3756    3843.3756    -999.2500     683.9989     709.6248     736.8754     766.6253    -999.2500
