~VERSION INFORMATION
VERS.           2.0   :CWLS Log ASCII Standard - VERSION 2.0
WRAP.           NO    :One Line per depth step
PROD.  Schlumberger   :LAS Producer
PROG.  DLIS to ASCII 2.3                               :LAS Program name and version
CREA.        2023/07/14 00:15                          :LAS Creation date {YYYY/MM/DD hh:mm}
DLIS_CREA.  2023-Jul-14 00:11                          :DLIS Creation date and time {YYYY-MMM-DD hh:mm}
SOURCE.     LIS_001.dlis                               :DLIS File Name
FILE-ID.     LIS   .001                                :File Identification Number
#--------------------------------------------------
~WELL INFORMATION
#MNEM.UNIT      DATA             DESCRIPTION
#---- ------ --------------   -----------------------------
STRT .M      5244.5412       :START DEPTH     
STOP .M      5059.0704       :STOP DEPTH     
STEP .M        -0.1524       :STEP     
NULL .          -999.25      :NULL VALUE
COMP .        PETROBRAS S.A.                           :COMPANY
WELL .        3-BRSA-293D-SPS                          :WELL
FLD  .        BS-400                                   :FIELD
LOC  .        BASE SAD 69:                             :LOCATION
CNTY .        SANTOS                                   :COUNTY
STAT .        BRASIL                                   :STATE
CTRY .        BRASIL                                   :COUNTRY
API  .                                                 :API NUMBER
UWI  .                                                 :UNIQUE WELL ID
DATE .        22/10/2004                               :LOG DATE
SRVC .        Schlumberger                             :SERVICE COMPANY
LATI .DEG                                              :LATITUDE
LONG .DEG                                              :LONGITUDE
GDAT .                                                 :GeoDetic Datum
#-----------------------------------------------------------------------------
~PARAMETER INFORMATION
#MNEM.UNIT    VALUE                      DESCRIPTION
#---- -----   --------------------       ------------------------
APD  .M               24                 :
BHT  .DEGF           260                 :
BLI  .M       5227.50000                 :
BS   .IN         8.50000                 :
CN   .        PETROBRAS S.A.             :
COUN .        SANTOS                     :
CS   .IN         9.62500                 :
DATE .        22/10/2004                 :
DFD  .LB/G      12.30000                 :
DFL  .C3               2                 :
DFPH .        N/A                        :
DFT  .        SINTETICO                  :
DFV  .S               87                 :
DMF  .        MESA ROTATIVA              :
EDF  .M               24                 :
EGL  .M             -500                 :
EKB  .        N/A                        :
ENGI .        HERNANDEZ/LOCK             :
FL1  .        X   7292392.00 M LAT 24 28 47.189 S :
FL2  .        Y    584087.00 M LON 44 10 12.698 W :
FL3  .        MC  45 GRAUS               :
FN   .        BS-400                     :
LMF  .        MESA ROTATIVA              :
LUL  .        MACAE                      :
MCSS .        PRENSA                     :
MCST .DEGF            80                 :
MFSS .        PRENSA                     :
MFST .DEGF            80                 :
MSS  .        LINHA DE FLUXO             :
MST  .DEGF            80                 :
PDAT .        NIVEL DO MAR               :
R1   .        01. APRESENTAÇÃO DE ACORDO COM REQUERIMENTO DO CLIENTE :
R2   .        02. TEMPERATURA MÁXIMA DO POÇO T1=T2= 260 DEGF @  5180 M :
R3   .        03. INICIO DA CIRCULAÇÃO  13 45 H 21/10/2004 :
R4   .        04. FINAL DA CIRCULAÇÃO   16 00 H 21/10/2004 :
R5   .        05. TEMPO TOTAL DE CIRCULAÇÃO  02 15 H :
R6   .        06. FLUIDO DE PERFURAÇÃO  SINTETICO (BR-MUL  BR-MI)  65% TEOR DO OLEO :
R7   .        07. SALINIDADE DA LAMA  266377 PPM NACL NA FASE DE AGUA :
R8   .        08. INCLINAÇÃO MÁXIMA DO POÇO  37.37 GRAUS @ 5100 M :
R9   .        09. PRIMEIRAS E ULTIMAS LEITURAS  :
RMB  .OHMM    > 10                       :
RMCS .OHMM    > 10                       :
RMFS .OHMM    > 10                       :
RMS  .OHMM    > 10                       :
RUN  .                 1                 :
STAT .        BRASIL                     :
TCS  .        16 00 H                    :
TDD  .M             5230                 :
TDL  .M             5231                 :
TLAB .        N/A                        :
TLI  .M             3850                 :
WITN .        ALCIDIO/VLADIMIR           :
WN   .        3-BRSA-293D-SPS            :
LUN  .              8808                 :
HIDE .        3-SPS-41D                  :
HID2 .        HIGH DEFINITION INDUCTION LOG :
HID3 .        X-MULTIPOLE ARRAY ACOUSTILOG :
HID4 .        GAMMA RAY LOG              :
HID5 .        TTRM SUB                   :
CLAB .        BACIA                      :
SLAB .        PAIS                       :
CMT1 .        ESC  1 1000                :
CMT2 .        PROF. MEDIDA               :
CMT4 .        SONDA  SS-43               :
HDAT .        SAD 69                     :
FL   .        BASE SAD 69                :
OS1  .        GR/CN/ZDL                  :
OS2  .        MREX/GR                    :
OS3  .        RCI/GR                     :
0S4  .        3DEX/GR                    :
OS5  .        SL/GR                      :
LNAM .        MREX/ZDL/CN/XMAC/HDIL/RCI/3DEX/SL/GR :
TOOL .        MREX/ZDL/CN/XMAC/HDIL/RCI/3DEX/SL/GR :
LSOU .        PETROBRAS                  :
LSRV .        OH WIRELINE                :
LTYP .        RAW                        :
EPD  .M                0                 :
LDAT .        22/10/2004                 :
TRIP .                 1                 :
SON  .            772317                 :
CBDR .M             4277                 :
CBLO .M             4277                 :
CBL1 .M             4277                 :
STEM .DEGF    N/A                        :
BSAL .            266377                 :
BARI .        OFF                        :
DLAB .        21/10/2004                 :
MRT  .DEGF           260                 :
TSTR .        HDIL/XMAC/GR/TTRM          :
TSTG .        N/A                        :
STUS .        FINAL                      :
LCNM .        BAKER ATLAS                :
LCC  .               150                 :
NATI .        BRASIL                     :
OPMD .        OH.WIRELINE                :
PANA .        HERNANDEZ/LOCK             :
PCON .        BAKER ATLAS                :
R11  .        SL     5196.0 M/4960.0 M   :
R12  .        GR     4960.0 M/4277.0 M   :
R13  .        XMAC   5202.0 M/3850.0 M   :
R14  .        HDIL   5227.5 M/4277.0 M   :
R15  .        3DEX   5217.0 M/4960.0 M   :
R17  .        10. PONTO FRACO UTILIZADO  10K :
R18  .        11. DECLINAÇÃO MAGNETICA  -20.9 GRAUS :
R19  .        12. COORDENADAS ARATU      :
R21  .        X   7292512.00 M           :
R22  .        Y    583936.00 M           :
R23  .        MC  45 GRAUS               :
R25  .        13. CADASTRO ANP  86316021017 :
PVER .           4.10000                 :
WDFN .        /space/expusr/3-SPS-41D/i77bf02_2spf.xtf :
OCT  .        i77bf                      :
#-----------------------------------------------------------------------------
~CURVE INFORMATION
#MNEM.UNIT   API CODE                                  DESCRIPTION
#---- -----  --------                                  -----------------------
DEPT .M                                                :DEPTH (BOREHOLE) {F10.4}
DEPT .M                                                : {F13.4}
DT   .US/F                                             : {F13.4}
SFN1 .US                                               : {F13.4}
SFN2 .US                                               : {F13.4}
SFN3 .US                                               : {F13.4}
SFN4 .US                                               : {F13.4}
TT   .MS                                               : {F13.4}
#-----------------------------------------------------------------------------
# 
#     DEPT        DEPT         DT           SFN1         SFN2         SFN3         SFN4         TT
#
~A  
# ...
 5148.2244    5148.2244      72.6013     734.5021     768.0036     808.0014     843.7519      14.8332
 5148.0720    5148.0720      72.8616     736.0000     770.6274     809.0000     845.1252      14.8697
 5147.9196    5147.9196      72.9463     736.0018     771.9915     809.0003     845.2529      14.9061
 5147.7672    5147.7672      73.1683     736.8778     768.0273     809.1278     846.6287      14.9427
 5147.6148    5147.6148      73.7935     737.9964     778.9850     810.2471     848.1221      14.9797
 5147.4624    5147.4624      74.8311     736.7492     773.7399     809.2504     847.1157      15.0171
 5147.3100    5147.3100      76.0295     736.5107     770.6397     809.3875     844.2808      15.0551
 5147.1576    5147.1576      76.9703     739.4927     774.7400     812.8665     852.8540      15.0934
 5147.0052    5147.0052      77.2782     740.9969     776.8706     815.9935     852.7503      15.1320
 5146.8528    5146.8528      76.8100     742.9966     778.3724     816.6239     852.7500      15.1704
 5146.7004    5146.7004      75.7481     746.2456     780.2475     818.4975     855.9956      15.2083
 5146.5480    5146.5480      74.4903     744.0022     782.4978     819.9985     856.0000      15.2456
 5146.3956    5146.3956      73.4474     745.1243     778.8772     820.7495     856.0000      15.2823
 5146.2432    5146.2432      72.8460     745.3750     780.7500     816.5000     856.0000      15.3188
 5146.0908    5146.0908      72.6509     750.8750     783.0000     817.5000     850.7500      15.3551
 5145.9384    5145.9384      72.6759     751.9987     786.9985     823.4997     856.0006      15.3914
 5145.7860    5145.7860      72.7407     749.3740     784.0000     823.0002     857.1260      15.4278
 5145.6336    5145.6336      72.7561     748.2514     783.9992     823.2488     858.2488      15.4642
 5145.4812    5145.4812      72.6753     749.3760     783.3760     822.2492     857.2500      15.5006
 5145.3288    5145.3288      72.6194     749.9983     784.0000     821.7507     857.2475      15.5369
 5145.1764    5145.1764      72.8726     749.1318     784.0000     822.1276     856.0000      15.5733
 5145.0240    5145.0240      73.4053     751.9942     784.0000     823.2449     856.0000      15.6101
 5144.8716    5144.8716      73.8915     749.8623     784.0031     821.3850     856.0081      15.6470
 5144.7192    5144.7192      73.8905     745.7843     785.0296     824.6611     858.6842      15.6840
 5144.5668    5144.5668      73.1625     755.7243     793.6028     835.0980     875.8307      15.7203
 5144.4144    5144.4144      72.1378     736.1685     776.0390     816.0424     855.4204      15.7564
 5144.2620    5144.2620      71.5867     740.3672     776.0000     816.3743     855.9988      15.7922
 5144.1096    5144.1096      71.8435     738.5028     775.6256     816.0006     854.6270      15.8282
 5143.9572    5143.9572      72.5766     738.0006     774.3764     814.6265     851.1289      15.8645
 5143.8048    5143.8048      73.2195     741.7472     776.6233     815.9990     853.1235      15.9011
 5143.6524    5143.6523      73.3815     743.0000     774.7500     814.6250     848.0000      15.9378
 5143.5000    5143.5000      73.1299     743.1250     776.0000     813.8750     849.6250      15.9744
 5143.3476    5143.3477      72.8525     743.0000     776.2500     816.0000     848.3750      16.0108
 5143.1952    5143.1952      72.7530     742.8750     776.3749     816.0000     853.3748      16.0472
 5143.0428    5143.0428      72.9278     742.8750     776.2501     816.0000     853.1254      16.0837
 5142.8904    5142.8904      73.4087     742.8750     776.3750     816.0000     853.5004      16.1204
 5142.7380    5142.7380      74.0218     742.8748     776.3750     816.0000     853.7498      16.1574
 5142.5856    5142.5856      74.4560     742.7500     776.3753     816.0000     853.6250      16.1947
 5142.4332    5142.4332      74.5248     742.7506     776.4997     816.0000     853.6247      16.2319
 5142.2808    5142.2808      74.3323     743.1558     776.3739     816.0000     853.4993      16.2691
 5142.1284    5142.1284      73.8575     795.5527     776.1771     815.9959     853.2525      16.3061
 5141.9760    5141.9760      72.8916     736.1614     829.4802     814.7534     853.9980      16.3423
 5141.8236    5141.8236      71.4676     742.6094     773.7565     867.1267     848.0141      16.3780
 5141.6712    5141.6712      70.0996     742.9993     776.7438     813.8559     905.5109      16.4131
 5141.5188    5141.5188      69.6868     736.0113     764.8941     800.6461     768.3464      16.4479
 5141.3664    5141.3664      70.7942     728.0099     760.0061     801.4989     348.6462      16.4834
 5141.2140    5141.2140      72.8796     742.3625     775.9861     811.3664     349.4988      16.5198
 5141.0616    5141.0616      74.7073     740.2511     775.6252     817.9967     350.1247      16.5572
 5140.9092    5140.9092      75.4606     736.0000     774.5000     813.2500     672.0000      16.5949
 5140.7568    5140.7568      75.1224     736.0000     770.6250     810.2500     848.0000      16.6325
 5140.6044    5140.6044      74.1606     739.3757     774.3756     811.8756     848.5000      16.6696
 5140.4520    5140.4520      73.1271     740.4999     775.3750     812.8743     848.4995      16.7062
 5140.2996    5140.2996      72.1724     740.3706     775.3701     812.1206     847.9953      16.7423
 5140.1472    5140.1472      71.2890     737.1211     771.7476     808.8735     844.4998      16.7779
 5139.9948    5139.9948      70.6703     734.8719     770.3701     808.0018     844.3750      16.8133
 5139.8424    5139.8424      70.3407     733.3361     767.9841     808.8551     844.3729      16.8485
 5139.6900    5139.6900      70.1284     717.4394     761.4055     800.6576     843.3999      16.8835
 5139.5376    5139.5376      69.9391     696.0255     728.0255     768.0255     808.0004      16.9185
 5139.3852    5139.3852      69.8005     703.9655     735.9814     775.9845     808.1179      16.9534
 5139.2328    5139.2328      69.8238     694.2740     730.7629     771.6358     806.1299      16.9881
 5139.0804    5139.0804      70.1227     689.5100     728.0058     319.8316     351.3379      17.0232
 5138.9280    5138.9280      70.6372     695.9887     725.6291     767.2169     807.2021      17.0585
 5138.7756    5138.7756      71.0203     703.3649     287.3532     760.1358     804.2552      17.0941
 5138.6232    5138.6232      70.7550     696.0074     735.5484     767.9921     800.0043      17.1295
 5138.4708    5138.4708      69.4109     697.9987     731.0032     775.9949     350.9108      17.1642
 5138.3184    5138.3184      67.1468     700.1250     736.2500     776.0000     808.0000      17.1978
 5138.1660    5138.1660      64.9203     464.0000     728.0000     769.0000     692.6250      17.2302
 5138.0136    5138.0136      63.9293     506.4624     368.1698     759.0033     341.7544      17.2622
 5137.8612    5137.8612      64.7797     691.6276     728.0036     766.0017     351.1244      17.2946
 5137.7088    5137.7088      66.9606     694.7458     732.2447     767.9968     350.9192      17.3281
 5137.5564    5137.5564      69.2391     691.2504     727.8734     765.3760     800.0000      17.3627
 5137.4040    5137.4040      70.6412     691.5012     726.8750     765.9968     800.0000      17.3981
 5137.2516    5137.2516      70.9773     692.1212     726.8756     764.3753     799.9974      17.4336
 5137.0992    5137.0992      70.6347     690.4956     725.9453     764.4976     798.8777      17.4689
 5136.9468    5136.9468      70.0535     688.8803     288.5395     763.6239     799.8731      17.5039
 5136.7944    5136.7944      69.4026     690.7433     423.2854     761.7434     799.2432      17.5386
 5136.6420    5136.6420      68.7454     725.2847     287.6047     321.7753     797.2552      17.5728
 5136.4896    5136.4896      68.2620     725.0008     758.9381     664.8501     353.0001      17.6070
 5136.3372    5136.3372      68.1562     724.5009     760.0000     536.2433     868.4039      17.6410
