~VERSION INFORMATION
VERS.           2.0   :CWLS Log ASCII Standard - VERSION 2.0
WRAP.           NO    :One Line per depth step
PROD.  Schlumberger   :LAS Producer
PROG.  DLIS to ASCII 2.3                               :LAS Program name and version
CREA.        2023/07/14 00:15                          :LAS Creation date {YYYY/MM/DD hh:mm}
DLIS_CREA.  2023-Jul-14 00:11                          :DLIS Creation date and time {YYYY-MMM-DD hh:mm}
SOURCE.     LIS_003.dlis                               :DLIS File Name
FILE-ID.     LIS   .003                                :File Identification Number
#--------------------------------------------------
~WELL INFORMATION
#MNEM.UNIT      DATA             DESCRIPTION
#---- ------ --------------   -----------------------------
STRT .M      5239.8168       :START DEPTH     
STOP .M      3827.6784       :STOP DEPTH     
STEP .M        -0.1524       :STEP     
NULL .          -999.25      :NULL VALUE
COMP .        PETROBRAS S.A.                           :COMPANY
WELL .        3-BRSA-293D-SPS                          :WELL
FLD  .        BS-400                                   :FIELD
LOC  .        BASE SAD 69:                             :LOCATION
CNTY .        SANTOS                                   :COUNTY
STAT .        BRASIL                                   :STATE
CTRY .        BRASIL                                   :COUNTRY
API  .                                                 :API NUMBER
UWI  .                                                 :UNIQUE WELL ID
DATE .        22/10/2004                               :LOG DATE
SRVC .        Schlumberger                             :SERVICE COMPANY
LATI .DEG                                              :LATITUDE
LONG .DEG                                              :LONGITUDE
GDAT .                                                 :GeoDetic Datum
#-----------------------------------------------------------------------------
~PARAMETER INFORMATION
#MNEM.UNIT    VALUE                      DESCRIPTION
#---- -----   --------------------       ------------------------
APD  .M               24                 :
BHT  .DEGF           260                 :
BLI  .M       5227.50000                 :
BS   .IN         8.50000                 :
CN   .        PETROBRAS S.A.             :
COUN .        SANTOS                     :
CS   .IN         9.62500                 :
DATE .        22/10/2004                 :
DFD  .LB/G      12.30000                 :
DFL  .C3               2                 :
DFPH .        N/A                        :
DFT  .        SINTETICO                  :
DFV  .S               87                 :
DMF  .        MESA ROTATIVA              :
EDF  .M               24                 :
EGL  .M             -500                 :
EKB  .        N/A                        :
ENGI .        HERNANDEZ/LOCK             :
FL1  .        X   7292392.00 M LAT 24 28 47.189 S :
FL2  .        Y    584087.00 M LON 44 10 12.698 W :
FL3  .        MC  45 GRAUS               :
FN   .        BS-400                     :
LMF  .        MESA ROTATIVA              :
LUL  .        MACAE                      :
MCSS .        PRENSA                     :
MCST .DEGF            80                 :
MFSS .        PRENSA                     :
MFST .DEGF            80                 :
MSS  .        LINHA DE FLUXO             :
MST  .DEGF            80                 :
PDAT .        NIVEL DO MAR               :
R1   .        01. APRESENTAÇÃO DE ACORDO COM REQUERIMENTO DO CLIENTE :
R2   .        02. TEMPERATURA MÁXIMA DO POÇO T1=T2= 260 DEGF @  5180 M :
R3   .        03. INICIO DA CIRCULAÇÃO  13 45 H 21/10/2004 :
R4   .        04. FINAL DA CIRCULAÇÃO   16 00 H 21/10/2004 :
R5   .        05. TEMPO TOTAL DE CIRCULAÇÃO  02 15 H :
R6   .        06. FLUIDO DE PERFURAÇÃO  SINTETICO (BR-MUL  BR-MI)  65% TEOR DO OLEO :
R7   .        07. SALINIDADE DA LAMA  266377 PPM NACL NA FASE DE AGUA :
R8   .        08. INCLINAÇÃO MÁXIMA DO POÇO  37.37 GRAUS @ 5100 M :
R9   .        09. PRIMEIRAS E ULTIMAS LEITURAS  :
RMB  .OHMM    > 10                       :
RMCS .OHMM    > 10                       :
RMFS .OHMM    > 10                       :
RMS  .OHMM    > 10                       :
RUN  .                 1                 :
STAT .        BRASIL                     :
TCS  .        16 00 H                    :
TDD  .M             5230                 :
TDL  .M             5231                 :
TLAB .        N/A                        :
TLI  .M             3850                 :
WITN .        ALCIDIO/VLADIMIR           :
WN   .        3-BRSA-293D-SPS            :
LUN  .              8808                 :
HIDE .        3-SPS-41D                  :
HID2 .        HIGH DEFINITION INDUCTION LOG :
HID3 .        X-MULTIPOLE ARRAY ACOUSTILOG :
HID4 .        GAMMA RAY LOG              :
HID5 .        TTRM SUB                   :
CLAB .        BACIA                      :
SLAB .        PAIS                       :
CMT1 .        ESC  1 1000                :
CMT2 .        PROF. MEDIDA               :
CMT4 .        SONDA  SS-43               :
HDAT .        SAD 69                     :
FL   .        BASE SAD 69                :
OS1  .        GR/CN/ZDL                  :
OS2  .        MREX/GR                    :
OS3  .        RCI/GR                     :
0S4  .        3DEX/GR                    :
OS5  .        SL/GR                      :
LNAM .        MREX/ZDL/CN/XMAC/HDIL/RCI/3DEX/SL/GR :
TOOL .        MREX/ZDL/CN/XMAC/HDIL/RCI/3DEX/SL/GR :
LSOU .        PETROBRAS                  :
LSRV .        OH WIRELINE                :
LTYP .        RAW                        :
EPD  .M                0                 :
LDAT .        22/10/2004                 :
TRIP .                 1                 :
SON  .            772317                 :
CBDR .M             4277                 :
CBLO .M             4277                 :
CBL1 .M             4277                 :
STEM .DEGF    N/A                        :
BSAL .            266377                 :
BARI .        OFF                        :
DLAB .        21/10/2004                 :
MRT  .DEGF           260                 :
TSTR .        HDIL/XMAC/GR/TTRM          :
TSTG .        N/A                        :
STUS .        FINAL                      :
LCNM .        BAKER ATLAS                :
LCC  .               150                 :
NATI .        BRASIL                     :
OPMD .        OH.WIRELINE                :
PANA .        HERNANDEZ/LOCK             :
PCON .        BAKER ATLAS                :
R11  .        SL     5196.0 M/4960.0 M   :
R12  .        GR     4960.0 M/4277.0 M   :
R13  .        XMAC   5202.0 M/3850.0 M   :
R14  .        HDIL   5227.5 M/4277.0 M   :
R15  .        3DEX   5217.0 M/4960.0 M   :
R17  .        10. PONTO FRACO UTILIZADO  10K :
R18  .        11. DECLINAÇÃO MAGNETICA  -20.9 GRAUS :
R19  .        12. COORDENADAS ARATU      :
R21  .        X   7292512.00 M           :
R22  .        Y    583936.00 M           :
R23  .        MC  45 GRAUS               :
R25  .        13. CADASTRO ANP  86316021017 :
PVER .           4.10000                 :
WDFN .        /space/expusr/3-SPS-41D/i77bf03_2spf.xtf :
OCT  .        i77bf                      :
#-----------------------------------------------------------------------------
~CURVE INFORMATION
#MNEM.UNIT   API CODE                                  DESCRIPTION
#---- -----  --------                                  -----------------------
DEPT .M                                                :DEPTH (BOREHOLE) {F10.4}
DEPT .M                                                : {F13.4}
DT   .US/F                                             : {F13.4}
SFN1 .US                                               : {F13.4}
SFN2 .US                                               : {F13.4}
SFN3 .US                                               : {F13.4}
SFN4 .US                                               : {F13.4}
TT   .MS                                               : {F13.4}
#-----------------------------------------------------------------------------
# 
#     DEPT        DEPT         DT           SFN1         SFN2         SFN3         SFN4         TT
#
~A  
# ...
 4216.4508    4216.4508      73.8779     838.7490     876.4882     912.4961     949.2367     226.4614
 4216.2984    4216.2984      73.9162     839.1236     875.3791     913.4964     949.6236     226.4984
 4216.1460    4216.1460      74.0467     839.9972     875.1258     912.5032     950.4972     226.5354
 4215.9936    4215.9936      74.1684     840.7479     877.4932     913.8711     950.8739     226.5725
 4215.8412    4215.8412      74.2036     841.7475     877.6247     914.7478     950.5009     226.6096
 4215.6888    4215.6888      74.1292     842.3737     878.3734     915.4984     951.7473     226.6467
 4215.5364    4215.5364      73.9410     843.6228     879.3732     917.2469     951.9996     226.6837
 4215.3840    4215.3840      73.5727     843.6250     879.9991     918.4983     953.7476     226.7205
 4215.2316    4215.2316      72.9048     844.7489     880.0000     919.1244     954.7490     226.7570
 4215.0792    4215.0792      71.8114     843.3759     879.6252     917.8758     953.8756     226.7929
 4214.9268    4214.9268      70.2781     845.8750     880.3750     918.6250     954.0000     226.8281
 4214.7744    4214.7744      68.5249     845.0000     881.0000     918.3750     953.6250     226.8623
 4214.6220    4214.6220      66.9280     844.1248     881.1247     920.0001     954.7513     226.8958
 4214.4696    4214.4696      65.8110     843.6244     880.4995     920.1241     957.6243     226.9287
 4214.3172    4214.3172      65.2866     842.8734     879.8731     918.9972     956.7463     226.9614
 4214.1648    4214.1648      65.2291     841.5002     878.2506     916.6250     953.6242     226.9940
 4214.0124    4214.0124      65.3544     841.6269     878.6265     916.6272     953.1255     227.0267
 4213.8600    4213.8600      65.4256     842.6261     879.3736     917.7477     953.3744     227.0594
 4213.7076    4213.7076      65.3574     843.1231     878.7523     916.7537     953.1259     227.0919
 4213.5552    4213.5552      65.1280     842.6267     879.8712     916.9992     952.6267     227.1245
 4213.4028    4213.4028      64.7806     843.1235     879.8750     918.3709     952.5004     227.1569
 4213.2504    4213.2504      64.4647     844.9951     880.8724     919.9957     956.4895     227.1891
 4213.0980    4213.0980      64.3001     845.0000     881.7480     919.7506     955.2528     227.2213
 4212.9456    4212.9456      64.2851     843.7524     880.1281     918.7519     954.2519     227.2534
 4212.7932    4212.7932      64.3308     844.6237     879.8754     918.5004     954.7492     227.2856
 4212.6408    4212.6408      64.3672     846.1233     883.3710     918.9994     956.2483     227.3178
 4212.4884    4212.4884      64.4075     848.4981     885.7481     921.6230     957.7488     227.3500
 4212.3360    4212.3360      64.3555     848.1252     885.2502     924.1240     958.3747     227.3822
 4212.1836    4212.1836      63.8594     845.6250     885.1250     923.3750     959.2500     227.4142
 4212.0312    4212.0313      62.5448     697.2500     797.1250     822.8750     853.1250     227.4454
 4211.8788    4211.8788      60.5203     699.7474     727.9950     759.9944     783.9962     227.4757
 4211.7264    4211.7264      58.5041     696.0000     720.8749     752.0000     778.4992     227.5050
 4211.5740    4211.5740      57.2843     696.0000     720.7545     752.0000     777.7484     227.5336
 4211.4216    4211.4216      57.0390     696.0000     723.8730     752.0000     776.6379     227.5622
 4211.2692    4211.2692      57.2365     696.0000     722.7505     752.0000     783.7500     227.5908
 4211.1168    4211.1168      57.2569     696.0000     722.9990     752.0000     783.7500     227.6192
 4210.9644    4210.9644      56.9113     696.0000     725.6158     752.0000     781.6324     227.6477
 4210.8120    4210.8120      56.4290     699.2398     726.2480     753.4953     783.9926     227.6759
 4210.6596    4210.6596      56.0915     702.6157     727.9952     754.1233     784.0000     227.7040
 4210.5072    4210.5072      55.9619     703.9967     728.0000     757.4919     784.0000     227.7320
 4210.3548    4210.3548      55.9229     703.8753     728.0000     754.2566     784.0000     227.7600
 4210.2024    4210.2024      55.8667     702.5023     728.0000     757.9938     784.0000     227.7879
 4210.0500    4210.0500      55.7876     696.0083     727.6255     754.7542     784.0000     227.8158
 4209.8976    4209.8976      55.7400     703.9927     725.2522     758.3717     858.1822     227.8437
 4209.7452    4209.7452      55.8829     704.0000     727.9985     821.2158     852.0034     227.8716
 4209.5928    4209.5928      56.3901     703.1250     728.0000     755.5000     851.2500     227.8998
 4209.4404    4209.4404      57.2270     696.2500     728.0000     759.2500     853.5000     227.9284
 4209.2880    4209.2880      58.1611     696.0000     727.4958     318.9945     784.1302     227.9575
 4209.1356    4209.1356      58.9329     696.0000     720.0003     752.1249     350.7797     227.9870
 4208.9832    4208.9832      59.3948     695.9982     720.3745     752.0000     783.9966     228.0167
 4208.8308    4208.8308      59.6477     694.7477     720.0000     752.0000     781.4812     228.0466
 4208.6784    4208.6784      59.9532     767.8530     720.0000     752.1385     844.8875     228.0766
 4208.5260    4208.5260      60.3829     695.9967     720.0000     819.7124     850.8395     228.1068
 4208.3736    4208.3736      60.7526     694.6300     720.0000     752.2449     784.2417     228.1370
 4208.2212    4208.2212      60.8867     695.8709     720.0000     819.9028     845.4240     228.1674
 4208.0688    4208.0688      60.7677     695.2518     720.3739     820.8728     850.3613     228.1978
 4207.9164    4207.9164      60.6277     694.1278     788.0787     819.3788     845.0136     228.2281
 4207.7640    4207.7640      60.8200     759.8581     787.7511     818.5019     845.1247     228.2586
 4207.6116    4207.6116      61.4115     760.0000     787.6252     818.8743     845.6241     228.2893
 4207.4592    4207.4592      62.1133     759.3759     787.6250     818.2509     845.5002     228.3203
 4207.3068    4207.3068      62.5974     763.7454     788.6240     819.2490     845.5000     228.3517
 4207.1544    4207.1544      62.7109     765.1241     789.3745     819.8746     850.1219     228.3830
 4207.0020    4207.0020      62.5504     764.8750     789.2500     820.5000     851.3750     228.4143
 4206.8496    4206.8496      62.3557     758.1250     788.1250     819.6250     845.8750     228.4455
 4206.6972    4206.6972      62.3484     763.1219     788.1244     819.8744     851.4991     228.4767
 4206.5448    4206.5448      62.6913     755.8752     786.7497     818.5002     849.3751     228.5080
 4206.3924    4206.3924      63.4991     756.1249     786.3693     818.7499     849.6323     228.5398
 4206.2400    4206.2400      64.7688     756.0012     781.5087     818.6254     962.6223     228.5722
 4206.0876    4206.0876      66.3092     756.7479     787.1260     818.8755     960.8764     228.6054
 4205.9352    4205.9352      67.8695     755.6256     787.6233     819.1258     961.6287     228.6393
 4205.7828    4205.7828      69.2734     755.8741     786.8778     819.4986     963.2439     228.6737
 4205.6304    4205.6304      70.4572     749.1479     786.5013     819.3754     964.2466     228.7090
 4205.4780    4205.4780      71.3183     749.0004     781.6398     818.8765     965.6208     228.7446
 4205.3256    4205.3256      71.7232     749.3740     781.1263     818.6257     967.9937     228.7805
 4205.1732    4205.1732      71.6028     754.7377     781.6239     818.6250     966.7529     228.8163
 4205.0208    4205.0208      71.0946     754.7500     786.7402     819.2488     966.0014     228.8519
 4204.8684    4204.8684      70.5467     749.1337     781.3833     819.2500     966.0000     228.8872
 4204.7160    4204.7160      70.2596     754.8682     781.4999     819.0003     966.2497     228.9223
 4204.5636    4204.5636      70.2611     749.2546     781.0004     819.0000     966.1251     228.9575
