~VERSION INFORMATION
VERS.           2.0   :CWLS Log ASCII Standard - VERSION 2.0
WRAP.           NO    :One Line per depth step
PROD.  Schlumberger   :LAS Producer
PROG.  DLIS to ASCII 2.3                               :LAS Program name and version
CREA.        2023/07/14 00:15                          :LAS Creation date {YYYY/MM/DD hh:mm}
DLIS_CREA.  2023-Jul-14 00:11                          :DLIS Creation date and time {YYYY-MMM-DD hh:mm}
SOURCE.     LIS_001.dlis                               :DLIS File Name
FILE-ID.     LIS   .001                                :File Identification Number
#--------------------------------------------------
~WELL INFORMATION
#MNEM.UNIT      DATA             DESCRIPTION
#---- ------ --------------   -----------------------------
STRT .M      5244.5412       :START DEPTH     
STOP .M      5059.0704       :STOP DEPTH     
STEP .M        -0.1524       :STEP     
NULL .          -999.25      :NULL VALUE
COMP .        PETROBRAS S.A.                           :COMPANY
WELL .        3-BRSA-293D-SPS                          :WELL
FLD  .        BS-400                                   :FIELD
LOC  .        BASE SAD 69:                             :LOCATION
CNTY .        SANTOS                                   :COUNTY
STAT .        BRASIL                                   :STATE
CTRY .        BRASIL                                   :COUNTRY
API  .                                                 :API NUMBER
UWI  .                                                 :UNIQUE WELL ID
DATE .        22/10/2004                               :LOG DATE
SRVC .        Schlumberger                             :SERVICE COMPANY
LATI .DEG                                              :LATITUDE
LONG .DEG                                              :LONGITUDE
GDAT .                                                 :GeoDetic Datum
#-----------------------------------------------------------------------------
~PARAMETER INFORMATION
#MNEM.UNIT    VALUE                      DESCRIPTION
#---- -----   --------------------       ------------------------
APD  .M               24                 :
BHT  .DEGF           260                 :
BLI  .M       5227.50000                 :
BS   .IN         8.50000                 :
CN   .        PETROBRAS S.A.             :
COUN .        SANTOS                     :
CS   .IN         9.62500                 :
DATE .        22/10/2004                 :
DFD  .LB/G      12.30000                 :
DFL  .C3               2                 :
DFPH .        N/A                        :
DFT  .        SINTETICO                  :
DFV  .S               87                 :
DMF  .        MESA ROTATIVA              :
EDF  .M               24                 :
EGL  .M             -500                 :
EKB  .        N/A                        :
ENGI .        HERNANDEZ/LOCK             :
FL1  .        X   7292392.00 M LAT 24 28 47.189 S :
FL2  .        Y    584087.00 M LON 44 10 12.698 W :
FL3  .        MC  45 GRAUS               :
FN   .        BS-400                     :
LMF  .        MESA ROTATIVA              :
LUL  .        MACAE                      :
MCSS .        PRENSA                     :
MCST .DEGF            80                 :
MFSS .        PRENSA                     :
MFST .DEGF            80                 :
MSS  .        LINHA DE FLUXO             :
MST  .DEGF            80                 :
PDAT .        NIVEL DO MAR               :
R1   .        01. APRESENTAÇÃO DE ACORDO COM REQUERIMENTO DO CLIENTE :
R2   .        02. TEMPERATURA MÁXIMA DO POÇO T1=T2= 260 DEGF @  5180 M :
R3   .        03. INICIO DA CIRCULAÇÃO  13 45 H 21/10/2004 :
R4   .        04. FINAL DA CIRCULAÇÃO   16 00 H 21/10/2004 :
R5   .        05. TEMPO TOTAL DE CIRCULAÇÃO  02 15 H :
R6   .        06. FLUIDO DE PERFURAÇÃO  SINTETICO (BR-MUL  BR-MI)  65% TEOR DO OLEO :
R7   .        07. SALINIDADE DA LAMA  266377 PPM NACL NA FASE DE AGUA :
R8   .        08. INCLINAÇÃO MÁXIMA DO POÇO  37.37 GRAUS @ 5100 M :
R9   .        09. PRIMEIRAS E ULTIMAS LEITURAS  :
RMB  .OHMM    > 10                       :
RMCS .OHMM    > 10                       :
RMFS .OHMM    > 10                       :
RMS  .OHMM    > 10                       :
RUN  .                 1                 :
STAT .        BRASIL                     :
TCS  .        16 00 H                    :
TDD  .M             5230                 :
TDL  .M             5231                 :
TLAB .        N/A                        :
TLI  .M             3850                 :
WITN .        ALCIDIO/VLADIMIR           :
WN   .        3-BRSA-293D-SPS            :
LUN  .              8808                 :
HIDE .        3-SPS-41D                  :
HID2 .        HIGH DEFINITION INDUCTION LOG :
HID3 .        X-MULTIPOLE ARRAY ACOUSTILOG :
HID4 .        GAMMA RAY LOG              :
HID5 .        TTRM SUB                   :
CLAB .        BACIA                      :
SLAB .        PAIS                       :
CMT1 .        ESC  1 1000                :
CMT2 .        PROF. MEDIDA               :
CMT4 .        SONDA  SS-43               :
HDAT .        SAD 69                     :
FL   .        BASE SAD 69                :
OS1  .        GR/CN/ZDL                  :
OS2  .        MREX/GR                    :
OS3  .        RCI/GR                     :
0S4  .        3DEX/GR                    :
OS5  .        SL/GR                      :
LNAM .        MREX/ZDL/CN/XMAC/HDIL/RCI/3DEX/SL/GR :
TOOL .        MREX/ZDL/CN/XMAC/HDIL/RCI/3DEX/SL/GR :
LSOU .        PETROBRAS                  :
LSRV .        OH WIRELINE                :
LTYP .        RAW                        :
EPD  .M                0                 :
LDAT .        22/10/2004                 :
TRIP .                 1                 :
SON  .            772317                 :
CBDR .M             4277                 :
CBLO .M             4277                 :
CBL1 .M             4277                 :
STEM .DEGF    N/A                        :
BSAL .            266377                 :
BARI .        OFF                        :
DLAB .        21/10/2004                 :
MRT  .DEGF           260                 :
TSTR .        HDIL/XMAC/GR/TTRM          :
TSTG .        N/A                        :
STUS .        FINAL                      :
LCNM .        BAKER ATLAS                :
LCC  .               150                 :
NATI .        BRASIL                     :
OPMD .        OH.WIRELINE                :
PANA .        HERNANDEZ/LOCK             :
PCON .        BAKER ATLAS                :
R11  .        SL     5196.0 M/4960.0 M   :
R12  .        GR     4960.0 M/4277.0 M   :
R13  .        XMAC   5202.0 M/3850.0 M   :
R14  .        HDIL   5227.5 M/4277.0 M   :
R15  .        3DEX   5217.0 M/4960.0 M   :
R17  .        10. PONTO FRACO UTILIZADO  10K :
R18  .        11. DECLINAÇÃO MAGNETICA  -20.9 GRAUS :
R19  .        12. COORDENADAS ARATU      :
R21  .        X   7292512.00 M           :
R22  .        Y    583936.00 M           :
R23  .        MC  45 GRAUS               :
R25  .        13. CADASTRO ANP  86316021017 :
PVER .           4.10000                 :
WDFN .        /space/expusr/3-SPS-41D/i77bf02_2spf.xtf :
OCT  .        i77bf                      :
#-----------------------------------------------------------------------------
~CURVE INFORMATION
#MNEM.UNIT   API CODE                                  DESCRIPTION
#---- -----  --------                                  -----------------------
DEPT .M                                                :DEPTH (BOREHOLE) {F10.4}
DEPT .M                                                : {F13.4}
DT   .US/F                                             : {F13.4}
SFN1 .US                                               : {F13.4}
SFN2 .US                                               : {F13.4}
SFN3 .US                                               : {F13.4}
SFN4 .US                                               : {F13.4}
TT   .MS                                               : {F13.4}
#-----------------------------------------------------------------------------
# 
#     DEPT        DEPT         DT           SFN1         SFN2         SFN3         SFN4         TT
#
~A  
# ...
 5160.2640    5160.2640      74.2036     719.7500     756.7452     797.8610     834.8812      11.9061
 5160.1116    5160.1116      74.4218     719.9996     753.2562     792.0105     832.0051      11.9433
 5159.9592    5159.9592      75.2392     720.3745     750.3791     784.0113     883.3023      11.9809
 5159.8068    5159.8068      76.1088     714.6310     809.0635     785.9979     834.8009      12.0190
 5159.6544    5159.6544      76.1948     719.9964     752.0387     845.8345     839.2470      12.0571
 5159.5020    5159.5020      75.2881     724.0000     750.3750     786.6250     825.8750      12.0948
 5159.3496    5159.3496      73.9744     717.3750     760.0000     796.2500     828.0000      12.1317
 5159.1972    5159.1972      72.9795     720.8755     756.2494     795.2491     829.3773      12.1683
 5159.0448    5159.0448      72.5848     722.0042     754.7532     793.1252     834.7478      12.2046
 5158.8924    5158.8924      72.4983     727.2493     758.7515     793.3787     831.9993      12.2408
 5158.7400    5158.7400      72.3116     726.6271     760.0000     796.5054     831.3760      12.2770
 5158.5876    5158.5876      72.1115     728.0000     760.0041     799.9974     832.0000      12.3131
 5158.4352    5158.4352      72.1375     727.9997     762.1239     798.6301     832.0000      12.3491
 5158.2828    5158.2828      72.3700     727.8747     761.6207     800.8767     832.0208      12.3853
 5158.1304    5158.1304      72.6634     727.7587     760.0234     801.5121     839.8727      12.4217
 5157.9780    5157.9780      72.8393     730.6170     767.7281     805.4844     839.1237      12.4581
 5157.8256    5157.8256      72.8515     728.2563     761.2672     800.8872     838.7510      12.4943
 5157.6732    5157.6732      72.8377     726.0051     760.0029     800.0020     834.6344      12.5308
 5157.5208    5157.5208      72.9251     727.9962     761.3724     800.2495     837.6192      12.5672
 5157.3684    5157.3684      73.1398     729.2481     763.4967     799.7508     832.6327      12.6038
 5157.2160    5157.2160      73.5301     732.9956     763.1254     799.9997     832.0007      12.6406
 5157.0636    5157.0636      74.0939     733.0000     767.9960     802.8727     836.3715      12.6777
 5156.9112    5156.9112      74.6241     735.7488     768.0000     807.9977     839.9984      12.7150
 5156.7588    5156.7588      74.8081     736.0000     768.5000     808.0000     844.6250      12.7524
 5156.6064    5156.6064      74.4440     741.3750     775.5000     811.5000     848.0000      12.7896
 5156.4540    5156.4540      73.6246     743.8735     776.6246     815.8751     848.0021      12.8265
 5156.3016    5156.3016      72.7618     741.6231     775.9987     815.9960     851.1215      12.8629
 5156.1492    5156.1492      72.2965     739.7505     774.7518     812.1282     847.7504      12.8990
 5155.9968    5155.9968      72.2826     740.1250     775.9982     814.3723     847.9965      12.9352
 5155.8444    5155.8444      72.4528     740.1212     774.9965     812.8710     846.0043      12.9714
 5155.6920    5155.6920      72.5809     738.3938     773.3819     811.0126     848.0044      13.0077
 5155.5396    5155.5396      72.6246     745.8552     776.1326     815.9982     849.7561      13.0440
 5155.3872    5155.3872      72.6889     738.9935     778.7246     815.3706     851.8576      13.0804
 5155.2348    5155.2348      72.9502     737.0055     770.8968     814.0038     846.5149      13.1167
 5155.0824    5155.0824      73.4470     741.4891     775.9876     812.5036     848.7446      13.1534
 5154.9300    5154.9300      73.9425     742.9969     778.2454     815.9928     851.9933      13.1904
 5154.7776    5154.7776      74.2450     737.1349     776.0038     816.0000     851.0017      13.2275
 5154.6252    5154.6252      74.3370     743.2420     776.0000     816.0000     855.7438      13.2647
 5154.4728    5154.4728      74.2643     743.9993     779.8713     819.3718     856.7491      13.3018
 5154.3204    5154.3204      74.0822     739.1278     776.0022     816.0019     853.3769      13.3389
 5154.1680    5154.1680      73.7171     736.5000     775.2500     816.0000     849.0000      13.3758
 5154.0156    5154.0156      73.0394     741.3750     776.1250     816.7500     856.0000      13.4123
 5153.8632    5153.8632      72.3774     739.9993     775.2503     814.8737     851.3732      13.4485
 5153.7108    5153.7108      72.7728     738.7475     775.8682     812.3711     847.9932      13.4849
 5153.5584    5153.5584      74.9804     736.0059     768.3860     808.0091     840.5107      13.5224
 5153.4060    5153.4060      78.4807     740.6238     776.9973     815.1256     848.8762      13.5617
 5153.2536    5153.2536      81.5756     739.8833     775.3778     815.5023     849.6393      13.6025
 5153.1012    5153.1012      82.4088     743.9952     776.7518     816.6235     856.7375      13.6437
 5152.9488    5152.9488      80.5752     741.9986     777.4856     815.9873     851.4859      13.6840
 5152.7964    5152.7964      77.4504     741.4945     772.2617     811.3812     846.3929      13.7227
 5152.6440    5152.6440      74.8073     739.7413     775.9909     813.3776     852.1107      13.7601
 5152.4916    5152.4916      73.3940     737.2563     773.3817     814.1231     848.0105      13.7966
 5152.3392    5152.3392      72.8459     738.1231     775.1212     812.6283     848.0000      13.8331
 5152.1868    5152.1868      72.4809     736.1286     770.8827     809.6304     847.2514      13.8693
 5152.0344    5152.0344      71.8854     733.3790     769.6268     808.0024     843.7551      13.9053
 5151.8820    5151.8820      71.2100     735.1231     768.0018     808.0000     842.7511      13.9409
 5151.7296    5151.7296      70.7342     730.5033     768.0000     806.2512     841.3760      13.9763
 5151.5772    5151.5771      70.6561     728.0000     762.7500     803.1250     837.7500      14.0116
 5151.4248    5151.4248      71.0993     721.6250     760.0000     799.2500     832.3750      14.0472
 5151.2724    5151.2724      72.0305     728.0014     760.0023     800.3746     837.9995      14.0832
 5151.1200    5151.1200      73.3486     731.6238     765.7514     799.2563     836.7521      14.1199
 5150.9676    5150.9676      74.7851     730.0000     767.6254     807.4993     839.5026      14.1573
 5150.8152    5150.8152      76.1199     729.9947     768.0000     806.8746     841.7496      14.1954
 5150.6628    5150.6628      77.3230     726.5136     768.0877     806.6203     841.5005      14.2340
 5150.5104    5150.5104      78.3453     733.7410     814.6450     804.1143     841.7461      14.2732
 5150.3580    5150.3580      79.1195     729.8912     767.9582     799.3560     840.1095      14.3128
 5150.2056    5150.2056      79.5453     783.5754     752.0242     792.1485     881.7452      14.3526
 5150.0532    5150.0532      79.3933     725.2500     760.1508     800.0192     838.3804      14.3923
 5149.9008    5149.9008      78.4896     725.2500     767.8543     805.7346     839.9957      14.4313
 5149.7484    5149.7484      77.0474     725.7488     767.8750     805.2512     840.0000      14.4698
 5149.5960    5149.5960      75.5101     727.9956     767.9998     805.0005     840.0000      14.5076
 5149.4436    5149.4436      74.2502     732.3681     768.0000     805.0000     840.0000      14.5447
 5149.2912    5149.2912      73.4052     731.7508     768.0000     803.7515     840.0000      14.5815
 5149.1388    5149.1388      72.7198     731.9998     768.0000     806.1230     840.6245      14.6178
 5148.9864    5148.9864      71.9749     728.8765     767.2504     804.1259     840.0003      14.6538
 5148.8340    5148.8340      71.3425     735.6250     768.0000     807.8750     841.2500      14.6895
 5148.6816    5148.6816      71.1433     736.0000     768.0000     802.7500     840.0000      14.7251
 5148.5292    5148.5292      71.4599     733.2494     768.0000     804.5022     839.3754      14.7609
 5148.3768    5148.3768      72.0637     732.2523     768.0000     808.0000     840.0038      14.7969
