~VERSION INFORMATION
VERS.           2.0   :CWLS Log ASCII Standard - VERSION 2.0
WRAP.           YES   :Multiple lines per depth step
PROD.  Schlumberger   :LAS Producer
PROG.  DLIS to ASCII 2.3                               :LAS Program name and version
CREA.        2023/07/14 00:15                          :LAS Creation date {YYYY/MM/DD hh:mm}
DLIS_CREA.  2023-Jul-14 00:11                          :DLIS Creation date and time {YYYY-MMM-DD hh:mm}
SOURCE.     LIS_012.dlis                               :DLIS File Name
FILE-ID.     LIS   .001                                :File Identification Number
#--------------------------------------------------
~WELL INFORMATION
#MNEM.UNIT      DATA             DESCRIPTION
#---- ------ --------------   -----------------------------
STRT .M      5265.1152       :START DEPTH     
STOP .M      5185.4100       :STOP DEPTH     
STEP .M        -0.1524       :STEP     
NULL .          -999.25      :NULL VALUE
COMP .        PETROBRAS S.A.                           :COMPANY
WELL .        3-BRSA-293D-SPS                          :WELL
FLD  .        BS-400                                   :FIELD
LOC  .        BASE SAD 69:                             :LOCATION
CNTY .        SANTOS                                   :COUNTY
STAT .        BRASIL                                   :STATE
CTRY .        BRASIL                                   :COUNTRY
API  .                                                 :API NUMBER
UWI  .                                                 :UNIQUE WELL ID
DATE .        15/11/2004                               :LOG DATE
SRVC .        Schlumberger                             :SERVICE COMPANY
LATI .DEG                                              :LATITUDE
LONG .DEG                                              :LONGITUDE
GDAT .                                                 :GeoDetic Datum
#-----------------------------------------------------------------------------
~PARAMETER INFORMATION
#MNEM.UNIT    VALUE                      DESCRIPTION
#---- -----   --------------------       ------------------------
APD  .M               24                 :
BHT  .DEGF           260                 :
BLI  .M             5289                 :
BS   .IN         8.50000                 :
CN   .        PETROBRAS S.A.             :
COUN .        SANTOS                     :
CS   .IN         9.62500                 :
DATE .        15/11/2004                 :
DFD  .LB/G      12.30000                 :
DFL  .C3               2                 :
DFPH .        N/A                        :
DFT  .        SINTETICO                  :
DFV  .S               95                 :
DMF  .        MESA ROTATIVA              :
EDF  .M               24                 :
EGL  .M             -500                 :
EKB  .        N/A                        :
ENGI .        HERNANDEZ / LOCK           :
FL1  .        X   7292392.00 M LAT 24 28 47.189 S :
FL2  .        Y    584087.00 M LON 44 10 12.698 W :
FL3  .        MC  45 GRAUS               :
FN   .        BS-400                     :
LMF  .        MESA ROTATIVA              :
LUL  .        MACAE                      :
MCSS .        PRENSA                     :
MCST .DEGF            80                 :
MFSS .        PRENSA                     :
MFST .DEGF            80                 :
MSS  .        LINHA DE FLUXO             :
MST  .DEGF            80                 :
PDAT .        NIVEL DO MAR               :
R1   .        01. APRESENTAÇÃO DE ACORDO COM REQUERIMENTO DO CLIENTE :
R2   .        02. TEMPERATURA MÁXIMA DO POÇO T1=T2= 292 DEGF @  5277 M :
R3   .        03. INICIO DA CIRCULAÇÃO  12/11/2004 09 00 H :
R4   .        04. FINAL DA CIRCULAÇÃO   12/11/2004 18 00 H :
R5   .        05. TEMPO TOTAL DE CIRCULAÇÃO   09 00 H :
R6   .        06. FLUIDO DE PERFURAÇÃO  SINTETICO (BR-MUL  BR-MI)  60% TEOR DO OLEO :
R7   .        07. SALINIDADE DA LAMA  254762 PPM NACL NA FASE DE AGUA :
R8   .        08. INCLINAÇÃO MÁXIMA DO POÇO  37.37 GRAUS @ 5100 M :
R9   .        09. PRIMEIRAS E ULTIMAS LEITURAS  :
RMB  .OHMM    > 10                       :
RMCS .OHMM    > 10                       :
RMFS .OHMM    > 10                       :
RMS  .OHMM    >10                        :
RUN  .                 2                 :
STAT .        BRASIL                     :
TCS  .        18 00 H                    :
TDD  .M             5288                 :
TDL  .M             5293                 :
TLAB .        N/A                        :
TLI  .M             4277                 :
WITN .        ERNANI / ZE MARIA          :
WN   .        3-BRSA-293D-SPS            :
LUN  .              8808                 :
HIDE .        3-SPS-41D                  :
HID2 .        COMPENSATED Z-DENSILOG     :
HID3 .        COMPENSATED NEUTRON LOG    :
HID4 .        GAMMA RAY LOG              :
HID5 .        TTRM SUB                   :
CLAB .        BACIA                      :
SLAB .        PAIS                       :
CMT1 .        ESC  1 1000                :
CMT2 .        PROF. MEDIDA               :
CMT4 .        SONDA  SS-43               :
HDAT .        SAD 69                     :
FL   .        BASE SAD 69                :
OS1  .        RCI/GR                     :
OS2  .        CHECK SHOT                 :
OS3  .        GR/XMAC/HDIL               :
OS5  .        RCOR/GR                    :
LNAM .        ZDL/CN/XMAC/HDIL/EARTH IMAGER/RCI/RCOR/CHECK SHOT/GR :
TOOL .        ZDL/CN/XMAC/HDIL/EARTH IMAGER/RCI/RCOR/CHECK SHOT/GR :
LSOU .        PETROBRAS                  :
LSRV .        OH WIRELINE                :
LTYP .        RAW                        :
EPD  .M                0                 :
LDAT .        15/11/2004                 :
TRIP .                 4                 :
SON  .            786588                 :
CBDR .M             4277                 :
CBLO .        NR                         :
CBL1 .        NR                         :
STEM .DEGF    N/A                        :
BSAL .            254762                 :
BARI .        OFF                        :
DLAB .        12/11/2004                 :
MRT  .DEGF           292                 :
TSTR .        ZDL/CN/GR/TTRM             :
TSTG .        N/A                        :
STUS .        FINAL                      :
LCNM .        BAKER ATLAS                :
LCC  .               150                 :
NATI .        BRASIL                     :
OPMD .        OH.WIRELINE                :
PANA .        HERNANDEZ / LOCK           :
PCON .        BAKER ATLAS                :
R11  .        GR     5268.3 M / 4277.0 M :
R12  .        CN     5286.5 M / 5128.0 M (FERRAMENTA PERDEU LEITURA ACIMA DE 5128M) :
R13  .        ZDL    5292.0 M / 4277.0 M :
R15  .        10. PONTO FRACO UTILIZADO  10K :
R17  .        12. COORDENADAS BASE       :
R19  .        X   7292512.00 M           :
R21  .        MC  45 GRAUS               :
R23  .        13. CADASTRO ANP  86316021017 :
PVER .           4.10000                 :
WDFN .        /space/expusr/3-SPS-41D_RUN2/i77bf03_8spf.xtf :
OCT  .        i77bf                      :
OS4  .        EARTH IMAGER               :
R16  .        11. DECLINAÇÃO MAGNETICA  -20.9 GRAUS :
R20  .        Y    583936.00 M           :
#-----------------------------------------------------------------------------
~CURVE INFORMATION
#MNEM.UNIT   API CODE                                  DESCRIPTION
#---- -----  --------                                  -----------------------
DEPT .M                                                :DEPTH (BOREHOLE) {F10.4}
DEPT .M                                                : {F13.4}
BIT  .IN                                               : {F13.4}
DEPM .M                                                : {F13.4}
GR   .GAPI                                             : {F13.4}
SPD  .M/MN                                             : {F13.4}
TTEN .LBF                                              : {F13.4}
CAL  .IN                                               : {F13.4}
CALX .IN                                               : {F13.4}
HRD1 .HZ                                               : {F13.4}
HRD2 .HZ                                               : {F13.4}
PE   .B/E                                              : {F13.4}
SFT2 .HZ                                               : {F13.4}
SOFT .HZ                                               : {F13.4}
SSD  .HZ                                               : {F13.4}
ZCOR .G/C3                                             : {F13.4}
ZDEN .G/C3                                             : {F13.4}
CNC  .PU                                               : {F13.4}
CN   .PU                                               : {F13.4}
LSN  .HZ                                               : {F13.4}
SSN  .HZ                                               : {F13.4}
CNCF .PU                                               : {F13.4}
MMRK .MN                                               : {F13.4}
#-----------------------------------------------------------------------------
# DEPT       
#     DEPT         BIT          DEPM         GR           SPD          TTEN         
#     CAL          CALX         HRD1         HRD2         PE           SFT2         
#     SOFT         SSD          ZCOR         ZDEN         CNC          CN           
#     LSN          SSN          CNCF         MMRK         
~A  
# ...
5248.0464
   5248.0464       8.5000    5247.7534      49.7984       5.9794    7453.3151
      8.7495       8.7519     551.8710     754.1859       4.9964     444.4797
    335.7417    6093.0043      -0.0951       2.5869       9.9851      10.3880
   2782.7680    5011.8897       9.9851       0.0000
5247.8940
   5247.8940       8.5000    5247.6010      56.9224       5.9934    7500.4930
      8.7499       8.7474     491.1324     633.2636       4.6508     391.6051
    299.5099    6009.4739      -0.0584       2.6445      10.9509      10.9141
   2521.3786    4882.9795      10.9509       0.0000
5247.7416
   5247.7416       8.5000    5247.4486      76.1324       6.0311    7522.5877
      8.7589       8.7542     468.2841     588.9337       5.3371     361.9439
    252.7735    5998.3749      -0.0578       2.6679      14.6785      14.6225
   1957.5987    4407.3546      14.6785       0.0000
5247.5892
   5247.5892       8.5000    5247.2962      98.1475       6.1114    7508.4523
      8.7752       8.7663     604.0970     748.1118       5.4291     468.8547
    317.3367    6541.8464      -0.0566       2.5769      16.8764      17.0254
   1647.6116    3944.3573      16.8764       0.0000
5247.4368
   5247.4368       8.5000    5247.1438     105.8680       6.1246    7460.2755
      8.7834       8.7813     639.1399     816.6884       4.6890     511.6802
    382.1029    6697.3357      -0.0325       2.5476      16.9113      17.5998
   1658.0646    3840.3473      16.9113       0.0000
5247.2844
   5247.2844       8.5000    5246.9914      96.7410       6.1035    7401.4167
      8.7807       8.7823     646.6834     825.2237       4.4748     530.1862
    393.5351    6596.5200      -0.0489       2.5535      13.4289      14.0296
   2048.4011    4177.3369      13.4289       0.0000
5247.1320
   5247.1320       8.5000    5246.8390      84.6553       6.0451    7363.6868
      8.7785       8.7794     623.1347     785.3615       4.3434     519.2228
    385.1601    6708.2424      -0.0310       2.5760      12.5209      12.8561
   2253.0606    4513.8138      12.5209       0.0000
5246.9796
   5246.9796       8.5000    5246.6866      79.6449       5.9744    7363.2778
      8.7763       8.7774     596.8388     786.9700       4.2697     480.8376
    387.7191    6688.1242      -0.0165       2.5921      12.4603      12.7612
   2267.5825    4577.9509      12.4603       0.0000
5246.8272
   5246.8271       8.5000    5246.5332      79.9595       5.9889    7395.5146
      8.7758       8.7756     581.9415     748.6622       4.2505     501.7310
    369.1940    6639.4238      -0.0204       2.6126      12.8517      13.1074
   2183.7622    4492.8320      12.8517       0.0000
5246.6748
   5246.6748       8.5000    5246.3809      80.7191       6.0042    7442.0322
      8.7854       8.7788     591.2761     729.1056       4.2539     504.1077
    368.7201    6737.3242      -0.0066       2.6183      13.4500      13.6928
   2080.4736    4380.4063      13.4500       0.0000
5246.5224
   5246.5224       8.5000    5246.2285      80.8917       6.0050    7476.5669
      8.7953       8.7919     618.5285     709.5303       4.2463     476.9545
    340.8386    6739.3250      -0.0008       2.6173      14.3060      14.5934
   1969.0195    4274.7889      14.3060       0.0000
5246.3700
   5246.3700       8.5000    5246.0761      81.3818       6.0411    7469.4449
      8.7941       8.7958     636.0456     689.6270       4.2355     483.1260
    344.6539    6684.6008      -0.0115       2.6162      14.1366      14.5124
   1936.3109    4168.3416      14.1366       0.0000
5246.2176
   5246.2176       8.5000    5245.9237      81.6331       6.0755    7413.0528
      8.7914       8.7924     594.8941     722.3679       4.2216     501.6855
    359.7367    6663.3031      -0.0102       2.6145      14.0063      14.3803
   1916.8219    4097.0733      14.0063       0.0000
5246.0652
   5246.0652       8.5000    5245.7713      80.8324       6.0881    7344.6212
      8.7881       8.7902     618.0717     730.7718       4.3076     513.1414
    358.7308    6583.3466      -0.0274       2.6017      13.7876      14.0990
   1917.9326    4068.9260      13.7876       0.0000
5245.9128
   5245.9128       8.5000    5245.6198      80.1492       6.0461    7327.9206
      8.7869       8.7867     624.4719     766.9648       4.8621     474.4546
    349.4866    6566.0016      -0.0403       2.5851      14.1461      14.4802
   1884.4794    4047.2844      14.1461       0.0000
5245.7604
   5245.7604       8.5000    5245.4674      82.1471       5.9578    7377.8648
      8.7861       8.7868     587.2716     796.0386       5.4103     460.6866
    339.5167    6519.8005      -0.0437       2.5839      13.8224      14.1829
   1906.2539    4039.4298      13.8224       0.0000
5245.6080
   5245.6080       8.5000    5245.3150      89.2310       5.9766    7434.1238
      8.7888       8.7870     563.6640     824.7347       5.4827     461.3530
    344.6688    6551.9617      -0.0447       2.5829      14.0047      14.3107
   1893.9702    4046.3156      14.0047       0.0000
5245.4556
   5245.4556       8.5000    5245.1626      97.3893       6.0792    7433.8613
      8.7854       8.7882     580.9366     788.4417       5.1841     458.9909
    350.2620    6608.4367      -0.0310       2.5871      14.0043      14.3597
   1892.4913    4039.6862      14.0043       0.0000
5245.3032
   5245.3032       8.5000    5245.0102      98.6748       6.1752    7393.0083
      8.7867       8.7840     618.5439     766.5530       5.2923     460.0055
    324.5079    6588.5669      -0.0354       2.5863      13.5523      13.9708
   1911.7598    4018.6745      13.5523       0.0000
5245.1508
   5245.1508       8.5000    5244.8578      91.8482       6.1088    7363.4031
      8.7935       8.7916     586.6330     742.8412       5.1362     460.9558
    330.1517    6630.8288      -0.0217       2.6037      13.5089      13.6551
   1870.8230    3945.3871      13.5089       0.0000
5244.9984
   5244.9984       8.5000    5244.7054      84.0557       6.0911    7366.5361
      8.7894       8.7913     573.2118     756.6808       5.1253     461.4217
    334.3953    6668.7458      -0.0146       2.6070      16.5102      16.7904
   1712.8374    3970.4414      16.5102       0.0000
5244.8460
   5244.8460       8.5000    5244.5530      79.7701       6.0455    7391.8847
      8.7939       8.7909     581.0273     758.8834       5.3724     460.8965
    326.1129    6644.0498      -0.0175       2.6049      13.0067      13.7162
   2025.9394    4102.6249      13.0067       0.0000
5244.6936
   5244.6936       8.5000    5244.4006      78.0869       6.0306    7428.6192
      8.7937       8.7953     555.4110     779.4875       5.7348     466.8684
    320.8253    6613.7501      -0.0236       2.6065      12.6772      12.9119
   2075.9605    4215.6710      12.6772       0.0000
5244.5412
   5244.5412       8.5000    5244.2482      78.2676       6.0470    7461.7690
      8.7880       8.7898     561.0215     819.7326       5.8699     469.5688
    330.4116    6692.0113      -0.0238       2.5935      12.8827      13.2165
   2086.0455    4266.8678      12.8827       0.0000
5244.3888
   5244.3888       8.5000    5244.0949      81.5630       6.0810    7467.7667
      8.7888       8.7887     604.8849     797.6580       5.1454     471.0412
    352.7622    6652.7244      -0.0265       2.5865      12.9954      13.3256
   2077.3520    4275.6533      12.9954       0.0000
5244.2364
   5244.2364       8.5000    5243.9425      89.3751       6.1283    7438.9922
      8.7899       8.7884     611.1914     738.5851       4.7519     465.2027
    342.0069    6580.1626      -0.0312       2.6012      12.3314      12.6985
   2089.6215    4207.7491      12.3314       0.0000
5244.0840
   5244.0840       8.5000    5243.7910      99.5795       6.1229    7401.7002
      8.7915       8.7917     607.9083     729.6313       4.6669     458.4156
    343.2984    6606.8428      -0.0227       2.6050      14.8154      14.6076
   1808.2090    4052.5645      14.8154       0.0000
5243.9316
   5243.9316       8.5000    5243.6387     107.0752       6.0904    7382.3535
      8.7847       8.7882     595.1385     730.0386       4.7629     478.3958
    337.9940    6544.7744      -0.0298       2.6073      18.6807      18.9604
   1551.9521    3881.4399      18.6807       0.0000
