~VERSION INFORMATION
VERS.           2.0   :CWLS Log ASCII Standard - VERSION 2.0
WRAP.           NO    :One Line per depth step
PROD.  Schlumberger   :LAS Producer
PROG.  DLIS to ASCII 2.3                               :LAS Program name and version
CREA.        2023/07/14 00:15                          :LAS Creation date {YYYY/MM/DD hh:mm}
DLIS_CREA.  2023-Jul-14 00:11                          :DLIS Creation date and time {YYYY-MMM-DD hh:mm}
SOURCE.     LIS_005.dlis                               :DLIS File Name
FILE-ID.     LIS   .001                                :File Identification Number
#--------------------------------------------------
~WELL INFORMATION
#MNEM.UNIT      DATA             DESCRIPTION
#---- ------ --------------   -----------------------------
STRT .M      5238.7500       :START DEPTH     
STOP .M      5087.2644       :STOP DEPTH     
STEP .M        -0.1524       :STEP     
NULL .          -999.25      :NULL VALUE
COMP .        PETROBRAS S.A.                           :COMPANY
WELL .        3-BRSA-293D-SPS                          :WELL
FLD  .        BS-400                                   :FIELD
LOC  .        BASE SAD 69:                             :LOCATION
CNTY .        SANTOS                                   :COUNTY
STAT .        BRASIL                                   :STATE
CTRY .        SANTOS                                   :COUNTRY
API  .                                                 :API NUMBER
UWI  .                                                 :UNIQUE WELL ID
DATE .        23/10/2004                               :LOG DATE
SRVC .        Schlumberger                             :SERVICE COMPANY
LATI .DEG                                              :LATITUDE
LONG .DEG                                              :LONGITUDE
GDAT .                                                 :GeoDetic Datum
#-----------------------------------------------------------------------------
~PARAMETER INFORMATION
#MNEM.UNIT    VALUE                      DESCRIPTION
#---- -----   --------------------       ------------------------
APD  .M               24                 :
BHT  .DEGF           280                 :
BLI  .M             5230                 :
BS   .IN         8.50000                 :
CN   .        PETROBRAS S.A.             :
COUN .        SANTOS                     :
CS   .IN         9.62500                 :
DATE .        23/10/2004                 :
DFD  .LB/G      12.30000                 :
DFL  .C3               2                 :
DFPH .        N/A                        :
DFT  .        SINTETICO                  :
DFV  .S               87                 :
DMF  .        MESA ROTATIVA              :
EDF  .M               24                 :
EGL  .M             -500                 :
EKB  .        N/A                        :
ENGI .        HERNANDEZ/LOCK             :
FL1  .        X   7292392.00 M LAT 24 28 47.189 S :
FL2  .        Y    584087.00 M LON 44 10 12.698 W :
FL3  .        MC  45 GRAUS               :
FN   .        BS-400                     :
LMF  .        MESA ROTATIVA              :
LUL  .        MACAE                      :
MCSS .        PRENSA                     :
MCST .DEGF            80                 :
MFSS .        PRENSA                     :
MFST .DEGF            80                 :
MSS  .        LINHA DE FLUXO             :
MST  .DEGF            80                 :
PDAT .        NIVEL DO MAR               :
R1   .        01. APRESENTAÇÃO DE ACORDO COM REQUERIMENTO DO CLIENTE :
R2   .        02. TEMPERATURA MÁXIMA DO POÇO T1=T2= 260 DEGF @  5180 M :
R3   .        03. INICIO DA CIRCULAÇÃO  13 45 H 21/10/2004 :
R4   .        04. FINAL DA CIRCULAÇÃO   16 00 H 21/10/2004 :
R5   .        05. TEMPO TOTAL DE CIRCULAÇÃO  02 15 H :
R6   .        06. FLUIDO DE PERFURAÇÃO  SINTETICO (BR-MUL  BR-MI)  65% TEOR DO OLEO :
R7   .        07. SALINIDADE DA LAMA  266377 PPM NACL NA FASE DE AGUA :
R8   .        08. INCLINAÇÃO MÁXIMA DO POÇO  37.37 GRAUS @ 5100 M :
R9   .        09. PRIMEIRAS E ULTIMAS LEITURAS  :
RMB  .OHMM    > 10                       :
RMCS .OHMM    > 10                       :
RMFS .OHMM    > 10                       :
RMS  .OHMM    > 10                       :
RUN  .                 1                 :
STAT .        BRASIL                     :
TCS  .        16 00 H                    :
TDD  .M             5230                 :
TDL  .M             5231                 :
TLAB .        N/A                        :
TLI  .M             4277                 :
WITN .        ALCIDIO/VLADIMIR           :
WN   .        3-BRSA-293D-SPS            :
LUN  .              8808                 :
HIDE .        3-SPS-41D                  :
HID2 .        COMPENSATED Z-DENSILOG     :
HID3 .        COMPENSATED NEUTRON LOG    :
HID4 .        GAMMA RAY LOG              :
HID5 .        TTRM SUB                   :
CLAB .        BACIA                      :
SLAB .        PAIS                       :
CMT1 .        ESC  1 1000                :
CMT2 .        PROF. MEDIDA               :
CMT4 .        SONDA  SS-43               :
HDAT .        SAD 69                     :
FL   .        BASE SAD 69                :
OS1  .        HDIL/XMAC/SL/GR            :
OS3  .        MREX/GR                    :
OS5  .        SL/GR                      :
LNAM .        MREX/ZDL/CN/XMAC/HDIL/3DEX/RCI/SL/GR :
TOOL .        MREX/ZDL/CN/XMAC/HDIL/3DEX/RCI/SL/GR :
LSOU .        PETROBRAS                  :
LSRV .        OH WIRELINE                :
LTYP .        RAW                        :
EPD  .M                0                 :
LDAT .        23/10/2004                 :
TRIP .                 1                 :
SON  .            772317                 :
CBDR .M             4277                 :
CBLO .M             4277                 :
CBL1 .M             4277                 :
STEM .DEGF    N/A                        :
BSAL .            266377                 :
BARI .        OFF                        :
DLAB .        21/10/2004                 :
MRT  .DEGF           280                 :
TSTR .        ZDL/CN/GR/TTRM             :
TSTG .        N/A                        :
STUS .        FINAL                      :
LCNM .        BAKER ATLAS                :
LCC  .               150                 :
NATI .        SANTOS                     :
OPMD .        OH.WIRELINE                :
PANA .        HERNANDEZ/LOCK             :
PCON .        BAKER ATLAS                :
R11  .        GR     5222.5 M/4277.0 M   :
R12  .        ZDL    5230.0 M/4277.0 M   :
R13  .        CN     5224.0 M/4277.0 M   :
R15  .        10. PONTO FRACO UTILIZADO  10K :
R17  .        12. DECLINAÇÃO MAGNETICA  -20.9 GRAUS :
R18  .        13. COORDENADAS BASE       :
R21  .        Y    583936.00 M           :
R22  .        MC  45 GRAUS               :
PVER .           4.10000                 :
WDFN .        /space/expusr/3-SPS-41D/i77bf06_8spf.xtf :
OCT  .        i77bf                      :
0S2  .        3DEX/GR                    :
OS4  .        RCI/GR                     :
R16  .        11. CNC CORREGIDO PELO CALIPER E SALINIDADE  PRESENTADO MATRIZ CARBONATO :
R20  .        X   7292512.00 M           :
R24  .        14. CADASTRO ANP  86316021017 :
#-----------------------------------------------------------------------------
~CURVE INFORMATION
#MNEM.UNIT   API CODE                                  DESCRIPTION
#---- -----  --------                                  -----------------------
DEPT .M                                                :DEPTH (BOREHOLE) {F10.4}
DEPT .M                                                : {F13.4}
BIT  .IN                                               : {F13.4}
GR   .GAPI                                             : {F13.4}
TEN  .LBF                                              : {F13.4}
TTEN .LBF                                              : {F13.4}
CAL  .IN                                               : {F13.4}
CALX .IN                                               : {F13.4}
HRD1 .HZ                                               : {F13.4}
HRD2 .HZ                                               : {F13.4}
PE   .B/E                                              : {F13.4}
SFT2 .HZ                                               : {F13.4}
SOFT .HZ                                               : {F13.4}
SSD  .HZ                                               : {F13.4}
ZCOR .G/C3                                             : {F13.4}
ZDEN .G/C3                                             : {F13.4}
#-----------------------------------------------------------------------------
# 
#     DEPT        DEPT         BIT          GR           TEN          TTEN         CAL          CALX         HRD1         HRD2         PE           SFT2         SOFT         SSD          ZCOR         ZDEN
#
~A  
# ...
 5173.3704    5173.3704       8.5000      55.4047    -119.8867    6305.8199       8.7502       8.7502     930.2158    1218.7242       3.7574     783.2007     636.8999    7030.3858      -0.0342       2.3959
 5173.2180    5173.2180       8.5000      57.4571    -106.5273    6317.3230       8.7370       8.7370    1013.3724    1331.4263       3.7509     864.8706     694.7310    7272.0589      -0.0273       2.3582
 5173.0656    5173.0656       8.5000      60.2491     -98.3334    6323.8276       8.7282       8.7282    1086.3584    1443.1656       3.7677     938.3262     749.8092    7440.1662      -0.0272       2.3273
 5172.9132    5172.9132       8.5000      61.6618     -99.6461    6320.8635       8.7242       8.7242    1139.3300    1528.6958       3.7726     979.6778     793.3853    7521.1358      -0.0318       2.3057
 5172.7608    5172.7608       8.5000      61.2519    -110.2950    6308.4330       8.7217       8.7217    1174.4206    1572.2527       3.7691     985.1771     811.9016    7538.1164      -0.0376       2.2942
 5172.6084    5172.6084       8.5000      61.0833    -119.9145    6296.8541       8.7177       8.7177    1191.2427    1582.2146       3.7971     972.2989     809.3995    7525.3155      -0.0417       2.2910
 5172.4560    5172.4560       8.5000      62.2449    -113.6656    6301.1624       8.7110       8.7110    1191.3314    1569.0399       3.8035     960.1276     802.9709    7499.8018      -0.0435       2.2935
 5172.3036    5172.3036       8.5000      62.9313     -97.8901    6315.2677       8.7040       8.7040    1185.5598    1541.8704       3.6856     966.3016     806.0214    7457.2947      -0.0454       2.2987
 5172.1512    5172.1512       8.5000      62.1954     -94.4000    6317.2895       8.6984       8.6984    1177.6265    1508.0727       3.4823     980.3639     815.6151    7419.9171      -0.0458       2.3043
 5171.9988    5171.9988       8.5000      61.2785    -102.0918    6308.0588       8.6928       8.6928    1168.1235    1476.8037       3.3134     978.9630     820.8149    7426.9991      -0.0408       2.3087
 5171.8464    5171.8464       8.5000      62.0213    -100.0440    6308.4687       8.6861       8.6861    1161.5403    1450.3207       3.2138     968.1393     818.0191    7472.4010      -0.0319       2.3122
 5171.6940    5171.6940       8.5000      65.3901     -90.1969    6316.7767       8.6804       8.6804    1155.7276    1421.8691       3.1561     957.8338     812.9089    7476.6302      -0.0279       2.3172
 5171.5416    5171.5416       8.5000      71.1763     -88.5892    6316.9402       8.6786       8.6786    1127.5602    1379.9820       3.1385     934.2669     793.6341    7364.7945      -0.0340       2.3287
 5171.3892    5171.3892       8.5000      75.6624     -89.0172    6315.0383       8.6795       8.6795    1068.6483    1323.9935       3.2265     891.3781     748.4035    7186.9062      -0.0433       2.3466
 5171.2368    5171.2368       8.5000      74.4228     -82.9833    6319.6241       8.6804       8.6804    1026.7570    1282.1417       3.4189     859.4196     700.1791    7092.6941      -0.0456       2.3588
 5171.0844    5171.0844       8.5000      68.8831     -80.3718    6320.8784       8.6806       8.6806    1044.1781    1294.0183       3.5718     863.6093     689.4807    7091.4322      -0.0492       2.3535
 5170.9320    5170.9320       8.5000      64.7349     -87.4539    6312.4257       8.6813       8.6813    1089.5682    1345.5282       3.6491     888.0065     710.7961    7089.7179      -0.0603       2.3380
 5170.7796    5170.7796       8.5000      64.2921     -97.3556    6301.0281       8.6821       8.6821    1102.9187    1379.3451       3.7551     894.7093     718.0314    7091.7290      -0.0653       2.3303
 5170.6272    5170.6272       8.5000      65.0183    -108.0744    6288.6296       8.6827       8.6827    1061.9805    1359.7216       3.9225     862.1239     688.3599    7078.3897      -0.0603       2.3396
 5170.4748    5170.4748       8.5000      64.8575    -113.6500    6281.2238       8.6822       8.6822     995.0979    1298.6111       4.0226     806.4310     645.9793    7002.2868      -0.0554       2.3587
 5170.3224    5170.3224       8.5000      64.7481    -100.3212    6292.8155       8.6801       8.6801     972.3082    1267.2005       4.0175     787.1000     631.2428    6992.3585      -0.0502       2.3655
 5170.1700    5170.1700       8.5000      65.6479     -77.3047    6314.4207       8.6779       8.6779    1028.8363    1325.6919       4.0030     839.2656     663.6083    7133.6738      -0.0457       2.3473
 5170.0176    5170.0176       8.5000      67.4967     -73.4469    6317.0467       8.6772       8.6772    1106.8488    1419.8955       3.9918     909.7049     710.8365    7245.4316      -0.0507       2.3227
 5169.8652    5169.8652       8.5000      70.2532     -90.6079    6298.4677       8.6776       8.6776    1123.6678    1439.9123       3.9661     924.3217     722.7792    7165.8960      -0.0646       2.3184
 5169.7128    5169.7128       8.5000      73.1273    -103.8005    6283.5567       8.6786       8.6786    1067.8903    1372.0800       3.8811     885.7206     698.5768    7018.4801      -0.0699       2.3378
 5169.5604    5169.5604       8.5000      73.5811    -103.0277    6282.5108       8.6787       8.6787    1001.0100    1301.8619       3.7186     849.2011     679.8259    6985.4206      -0.0586       2.3606
 5169.4080    5169.4080       8.5000      70.2847     -95.4275    6288.3666       8.6766       8.6766     987.9373    1289.3044       3.5216     850.3325     695.1081    7093.4686      -0.0418       2.3667
 5169.2556    5169.2556       8.5000      65.1426     -82.0642    6300.2261       8.6744       8.6744    1038.6212    1332.6632       3.3599     882.9401     735.9328    7251.3574      -0.0329       2.3544
 5169.1032    5169.1032       8.5000      62.4714     -63.9131    6317.2561       8.6740       8.6740    1092.1212    1367.0950       3.2249     914.0469     769.0851    7335.3668      -0.0324       2.3429
 5168.9508    5168.9508       8.5000      64.2945     -51.5248    6328.8547       8.6750       8.6750    1089.6289    1340.3937       3.0546     922.7555     775.1193    7290.1747      -0.0347       2.3474
 5168.7984    5168.7984       8.5000      67.9991     -53.8231    6325.7877       8.6757       8.6757    1060.7945    1287.9913       2.8582     916.4122     773.1705    7217.5128      -0.0345       2.3596
 5168.6460    5168.6460       8.5000      70.0225     -66.6737    6311.9265       8.6764       8.6764    1060.3037    1269.7427       2.7447     910.2492     780.3748    7242.5437      -0.0293       2.3640
 5168.4936    5168.4936       8.5000      70.4961     -82.0797    6295.2107       8.6779       8.6779    1071.5414    1285.9342       2.7611     910.5156     787.7138    7298.1734      -0.0255       2.3612
 5168.3412    5168.3412       8.5000      70.9060     -92.8567    6282.9098       8.6792       8.6792    1066.3595    1307.1906       2.8844     915.9567     779.7176    7284.1599      -0.0291       2.3591
 5168.1888    5168.1888       8.5000      71.6008     -95.6844    6278.4932       8.6797       8.6797    1059.7884    1318.0918       3.0376     921.9025     763.6969    7242.8223      -0.0347       2.3594
 5168.0364    5168.0364       8.5000      72.5357     -93.7167    6278.9191       8.6812       8.6812    1048.8202    1302.7371       3.1262     908.0988     745.5311    7200.6861      -0.0370       2.3657
 5167.8840    5167.8840       8.5000      72.7738     -93.1320    6278.0028       8.6838       8.6838    1003.3207    1253.5527       3.2089     857.3275     711.5239    7072.3663      -0.0421       2.3814
 5167.7316    5167.7316       8.5000      71.6765     -94.9376    6274.6831       8.6859       8.6859     958.8009    1214.9628       3.3935     807.2974     668.1244    6953.0990      -0.0473       2.3936
 5167.5792    5167.5792       8.5000      71.1446     -93.0415    6275.0540       8.6855       8.6855     975.8088    1245.3244       3.5582     815.2900     661.4089    7024.1781      -0.0439       2.3857
