~VERSION INFORMATION
VERS.           2.0   :CWLS Log ASCII Standard - VERSION 2.0
WRAP.           NO    :One Line per depth step
PROD.  Schlumberger   :LAS Producer
PROG.  DLIS to ASCII 2.3                               :LAS Program name and version
CREA.        2023/07/14 00:15                          :LAS Creation date {YYYY/MM/DD hh:mm}
DLIS_CREA.  2023-Jul-14 00:11                          :DLIS Creation date and time {YYYY-MMM-DD hh:mm}
SOURCE.     LIS_006.dlis                               :DLIS File Name
FILE-ID.     LIS   .002                                :File Identification Number
#--------------------------------------------------
~WELL INFORMATION
#MNEM.UNIT      DATA             DESCRIPTION
#---- ------ --------------   -----------------------------
STRT .M      5238.7500       :START DEPTH     
STOP .M      5087.2644       :STOP DEPTH     
STEP .M        -0.1524       :STEP     
NULL .          -999.25      :NULL VALUE
COMP .        Petrobras S.A.                           :COMPANY
WELL .        3-SPS-41D                                :WELL
FLD  .        MEXILHOES                                :FIELD
LOC  .                                                 :LOCATION
CNTY .                                                 :COUNTY
STAT .                                                 :STATE
CTRY .                                                 :COUNTRY
API  .                                                 :API NUMBER
UWI  .                                                 :UNIQUE WELL ID
DATE .                                                 :LOG DATE
SRVC .        Schlumberger                             :SERVICE COMPANY
LATI .DEG                                              :LATITUDE
LONG .DEG                                              :LONGITUDE
GDAT .                                                 :GeoDetic Datum
#-----------------------------------------------------------------------------
~PARAMETER INFORMATION
#MNEM.UNIT    VALUE                      DESCRIPTION
#---- -----   --------------------       ------------------------
CN   .        Petrobras S.A.             :
FN   .        MEXILHOES                  :
WN   .        3-SPS-41D                  :
LCC  .               150                 :
WDFN .        /space/expusr/3-SPS-41D/i77bf06_8spf.xtf :
OCT  .        i77bf                      :
RUN  .                                   :RUN NUMBER
PDAT .                                   :Permanent Datum
EPD  .                                   :Elevation of Permanent Datum above Mean Sea Level
LMF  .                                   :Logging Measured From (Name of Logging Elevation Reference)
APD  .                                   :Elevation of Depth Reference (LMF) above Permanent Datum
#-----------------------------------------------------------------------------
~CURVE INFORMATION
#MNEM.UNIT   API CODE                                  DESCRIPTION
#---- -----  --------                                  -----------------------
DEPT .M                                                :DEPTH (BOREHOLE) {F10.4}
DEPT .M                                                : {F13.4}
BIT  .IN                                               : {F13.4}
DEPM .M                                                : {F13.4}
SPD  .M/MN                                             : {F13.4}
CNC  .PU                                               : {F13.4}
CN   .PU                                               : {F13.4}
LSN  .HZ                                               : {F13.4}
SSN  .HZ                                               : {F13.4}
#-----------------------------------------------------------------------------
# 
#     DEPT        DEPT         BIT          DEPM         SPD          CNC          CN           LSN          SSN
#
~A  
# ...
 5185.4100    5185.4100       8.5000    5185.0155       5.2521      12.0898      13.1287    1981.8020    3835.1764
 5185.2576    5185.2576       8.5000    5184.8631       5.2635      14.0524      14.5187    1721.8883    3627.0485
 5185.1052    5185.1052       8.5000    5184.7107       5.2793      14.2150      14.4361    1658.7222    3541.0297
 5184.9528    5184.9528       8.5000    5184.5583       5.2767      13.7477      14.3307    1671.8536    3525.0853
 5184.8004    5184.8004       8.5000    5184.4059       5.3087      15.2711      16.0670    1573.7619    3491.8648
 5184.6480    5184.6480       8.5000    5184.2535       5.2663      15.8548      16.2872    1509.9398    3402.9709
 5184.4956    5184.4956       8.5000    5184.1011       5.2565      15.5970      16.0042    1473.4035    3297.0968
 5184.3432    5184.3432       8.5000    5183.9487       5.2639      15.9125      16.5953    1425.8953    3235.9996
 5184.1908    5184.1908       8.5000    5183.7963       5.2812      16.0163      16.2328    1413.6411    3230.6451
 5184.0384    5184.0384       8.5000    5183.6439       5.2707      15.2062      15.6284    1454.0947    3237.2341
 5183.8860    5183.8860       8.5000    5183.4915       5.2575      15.4216      16.0090    1453.9234    3268.6235
 5183.7336    5183.7336       8.5000    5183.3391       5.2797      15.2392      15.3603    1494.6659    3351.0400
 5183.5812    5183.5812       8.5000    5183.1867       5.3059      14.0609      14.3613    1582.1596    3372.6826
 5183.4288    5183.4288       8.5000    5183.0333       5.2778      14.1689      14.9971    1535.3540    3256.9880
 5183.2764    5183.2764       8.5000    5182.8809       5.2629      16.2096      17.0391    1372.7813    3136.1766
 5183.1240    5183.1240       8.5000    5182.7285       5.2510      16.3641      16.6136    1357.6236    3146.0163
 5182.9716    5182.9716       8.5000    5182.5771       5.2524      16.0989      16.7280    1388.1396    3188.2163
 5182.8192    5182.8192       8.5000    5182.4247       5.2532      16.4384      16.8423    1382.8487    3200.5067
 5182.6668    5182.6668       8.5000    5182.2723       5.2625      16.2884      16.7953    1388.6525    3204.3173
 5182.5144    5182.5144       8.5000    5182.1199       5.2747      16.3318      16.8175    1397.9344    3232.4080
 5182.3620    5182.3620       8.5000    5181.9675       5.2836      16.4226      16.8873    1400.4565    3237.6386
 5182.2096    5182.2096       8.5000    5181.8151       5.2477      16.3943      16.9046    1393.8239    3223.1944
 5182.0572    5182.0572       8.5000    5181.6627       5.2603      16.4180      16.7467    1411.9283    3297.0833
 5181.9048    5181.9048       8.5000    5181.5103       5.2601      15.3101      15.4527    1532.7679    3463.6354
 5181.7524    5181.7524       8.5000    5181.3579       5.2545      14.8794      15.4777    1619.7129    3578.9204
 5181.6000    5181.6000       8.5000    5181.2055       5.2517      14.9726      15.1603    1629.3937    3600.2684
 5181.4476    5181.4476       8.5000    5181.0531       5.2587      13.4943      13.3012    1776.4734    3797.3595
 5181.2952    5181.2952       8.5000    5180.9007       5.2974      10.9855      10.7725    2197.7501    4298.8252
 5181.1428    5181.1428       8.5000    5180.7483       5.2879       9.5839       9.9204    2605.7840    4696.2154
 5180.9904    5180.9904       8.5000    5180.5959       5.2643      10.4411      11.0652    2547.7978    4668.0936
 5180.8380    5180.8380       8.5000    5180.4435       5.2437      10.9413      11.1139    2367.9816    4401.6184
 5180.6856    5180.6856       8.5000    5180.2911       5.2596      10.3990      10.7017    2289.3876    4179.2506
 5180.5332    5180.5332       8.5000    5180.1387       5.2869      10.6605      11.1174    2196.4768    4090.3812
 5180.3808    5180.3808       8.5000    5179.9853       5.2907      11.1838      11.5969    2156.3504    4133.0505
 5180.2284    5180.2284       8.5000    5179.8339       5.2728      11.0759      11.2884    2202.6875    4190.5893
 5180.0760    5180.0760       8.5000    5179.6815       5.2908      11.1700      11.7650    2177.2736    4116.1325
 5179.9236    5179.9236       8.5000    5179.5291       5.3009      12.1638      12.7187    2000.2035    3927.8338
 5179.7712    5179.7712       8.5000    5179.3767       5.2779      13.2180      13.8227    1861.0393    3842.3207
 5179.6188    5179.6188       8.5000    5179.2243       5.2762      13.3085      13.4655    1862.6833    3875.5092
 5179.4664    5179.4664       8.5000    5179.0719       5.2767      12.7864      13.1204    1892.8861    3818.1670
 5179.3140    5179.3140       8.5000    5178.9195       5.2608      13.0134      13.6768    1784.6062    3606.8422
 5179.1616    5179.1616       8.5000    5178.7671       5.2679      14.1748      14.3781    1636.8547    3505.1029
 5179.0092    5179.0092       8.5000    5178.6147       5.2795      12.0434      11.7918    1817.8469    3641.2361
 5178.8568    5178.8568       8.5000    5178.4623       5.3167      11.0726      11.5238    2001.4786    3842.1050
 5178.7044    5178.7044       8.5000    5178.3099       5.2864      11.6971      12.4125    1986.9723    3848.7073
 5178.5520    5178.5520       8.5000    5178.1575       5.2472      14.3045      15.7180    1709.4798    3588.2288
 5178.3996    5178.3996       8.5000    5178.0051       5.2686      17.7108      18.4199    1375.9386    3229.3316
 5178.2472    5178.2472       8.5000    5177.8527       5.3645      18.0165      18.4365    1283.8916    3108.9665
 5178.0948    5178.0948       8.5000    5177.7003       5.3905      17.4675      17.4448    1335.5961    3230.1719
 5177.9424    5177.9424       8.5000    5177.5469       5.3513      15.2193      14.9227    1516.5764    3402.7902
 5177.7900    5177.7900       8.5000    5177.3945       5.3590      12.4854      12.2883    1730.9305    3503.8534
 5177.6376    5177.6376       8.5000    5177.2424       5.4038      11.1560      11.4737    1881.7356    3619.8003
 5177.4852    5177.4852       8.5000    5177.0907       5.3935      11.1917      11.5623    1944.8285    3733.1185
 5177.3328    5177.3328       8.5000    5176.9383       5.3837      11.4757      11.9382    1938.3630    3734.0775
 5177.1804    5177.1804       8.5000    5176.7859       5.3572      11.5374      11.5128    1916.0729    3714.1435
 5177.0280    5177.0280       8.5000    5176.6335       5.3435       9.2915       8.9741    2146.6099    3788.9967
 5176.8756    5176.8756       8.5000    5176.4811       5.3608       7.6459       7.8417    2396.2537    3918.1247
 5176.7232    5176.7232       8.5000    5176.3287       5.3758       8.0461       8.5592    2472.6797    4138.0481
 5176.5708    5176.5708       8.5000    5176.1763       5.3845       8.6672       9.0571    2476.0789    4198.6508
 5176.4184    5176.4184       8.5000    5176.0239       5.4192       9.3863      10.0298    2279.2894    3935.3163
 5176.2660    5176.2660       8.5000    5175.8715       5.3608      11.0444      11.7799    1975.0273    3719.8557
 5176.1136    5176.1136       8.5000    5175.7191       5.3501      11.5556      11.6218    1937.5705    3788.2081
 5175.9612    5175.9612       8.5000    5175.5667       5.3796      10.6235      10.8069    2087.1146    3913.6219
 5175.8088    5175.8088       8.5000    5175.4143       5.3750      10.1733      10.5139    2159.5884    3939.5259
 5175.6564    5175.6564       8.5000    5175.2619       5.3758      11.0104      11.7790    2052.6079    3860.2138
 5175.5040    5175.5040       8.5000    5175.1085       5.3720      12.9790      13.9799    1826.7483    3694.1875
 5175.3516    5175.3516       8.5000    5174.9561       5.3349      15.6321      16.5980    1563.3173    3452.0329
 5175.1992    5175.1992       8.5000    5174.8037       5.3537      17.1967      17.8792    1372.9748    3183.1502
 5175.0468    5175.0468       8.5000    5174.6523       5.3362      18.6414      19.5308    1225.3219    2986.5885
 5174.8944    5174.8944       8.5000    5174.4999       5.3051      19.6147      19.9279    1153.8217    2915.1771
