~VERSION INFORMATION
VERS.           2.0   :CWLS Log ASCII Standard - VERSION 2.0
WRAP.           NO    :One Line per depth step
PROD.  Schlumberger   :LAS Producer
PROG.  DLIS to ASCII 2.3                               :LAS Program name and version
CREA.        2023/07/14 00:15                          :LAS Creation date {YYYY/MM/DD hh:mm}
DLIS_CREA.  2023-Jul-14 00:11                          :DLIS Creation date and time {YYYY-MMM-DD hh:mm}
SOURCE.     LIS_009.dlis                               :DLIS File Name
FILE-ID.     LIS   .002                                :File Identification Number
#--------------------------------------------------
~WELL INFORMATION
#MNEM.UNIT      DATA             DESCRIPTION
#---- ------ --------------   -----------------------------
STRT .M      5301.9960       :START DEPTH     
STOP .M      5058.6132       :STOP DEPTH     
STEP .M        -0.1524       :STEP     
NULL .          -999.25      :NULL VALUE
COMP .        PETROBRAS S.A.                           :COMPANY
WELL .        3-BRSA-293D-SPS                          :WELL
FLD  .        BS-400                                   :FIELD
LOC  .        BASE SAD 69:                             :LOCATION
CNTY .        SANTOS                                   :COUNTY
STAT .        BRASIL                                   :STATE
CTRY .        BRASIL                                   :COUNTRY
API  .                                                 :API NUMBER
UWI  .                                                 :UNIQUE WELL ID
DATE .        15/11/2004                               :LOG DATE
SRVC .        Schlumberger                             :SERVICE COMPANY
LATI .DEG                                              :LATITUDE
LONG .DEG                                              :LONGITUDE
GDAT .                                                 :GeoDetic Datum
#-----------------------------------------------------------------------------
~PARAMETER INFORMATION
#MNEM.UNIT    VALUE                      DESCRIPTION
#---- -----   --------------------       ------------------------
APD  .M               24                 :
BHT  .DEGF           260                 :
BLI  .M             5289                 :
BS   .IN         8.50000                 :
CN   .        PETROBRAS S.A.             :
COUN .        SANTOS                     :
CS   .IN         9.62500                 :
DATE .        15/11/2004                 :
DFD  .LB/G      12.30000                 :
DFL  .C3               2                 :
DFPH .        N/A                        :
DFT  .        SINTETICO                  :
DFV  .S               95                 :
DMF  .        MESA ROTATIVA              :
EDF  .M               24                 :
EGL  .M             -500                 :
EKB  .        N/A                        :
ENGI .        HERNANDEZ / LOCK           :
FL1  .        X   7292392.00 M LAT 24 28 47.189 S :
FL2  .        Y    584087.00 M LON 44 10 12.698 W :
FL3  .        MC  45 GRAUS               :
FN   .        BS-400                     :
LMF  .        MESA ROTATIVA              :
LUL  .        MACAE                      :
MCSS .        PRENSA                     :
MCST .DEGF            80                 :
MFSS .        PRENSA                     :
MFST .DEGF            80                 :
MSS  .        LINHA DE FLUXO             :
MST  .DEGF            80                 :
PDAT .        NIVEL DO MAR               :
R1   .        01. APRESENTAÇÃO DE ACORDO COM REQUERIMENTO DO CLIENTE :
R2   .        02. TEMPERATURA MÁXIMA DO POÇO T1=T2= 290 DEGF @  5275 M :
R3   .        03. INICIO DA CIRCULAÇÃO  12/11/2004 09 00 H :
R4   .        04. FINAL DA CIRCULAÇÃO   12/11/2004 18 00 H :
R5   .        05. TEMPO TOTAL DE CIRCULAÇÃO   09 00 H :
R6   .        06. FLUIDO DE PERFURAÇÃO  SINTETICO (BR-MUL  BR-MI)  60% TEOR DO OLEO :
R7   .        07. SALINIDADE DA LAMA  254762 PPM NACL NA FASE DE AGUA :
R8   .        08. INCLINAÇÃO MÁXIMA DO POÇO  37.37 GRAUS @ 5100 M :
R9   .        09. PRIMEIRAS E ULTIMAS LEITURAS  :
RMB  .OHMM    > 10                       :
RMCS .OHMM    > 10                       :
RMFS .OHMM    > 10                       :
RMS  .OHMM    >10                        :
RUN  .                 2                 :
STAT .        BRASIL                     :
TCS  .        18 00 H                    :
TDD  .M             5288                 :
TDL  .M             5293                 :
TLAB .        N/A                        :
TLI  .M             5000                 :
WITN .        ERNANI / ZE MARIA          :
WN   .        3-BRSA-293D-SPS            :
LUN  .              8808                 :
HIDE .        3-SPS-41D                  :
HID2 .        HIGH DEFINITION INDUCTION LOG :
HID3 .        X-MULTIPOLE ARRAY ACOUSTILOG :
HID4 .        GAMMA RAY LOG              :
HID5 .        TTRM SUB                   :
CLAB .        BACIA                      :
SLAB .        PAIS                       :
CMT1 .        ESC  1 200                 :
CMT2 .        PROF. MEDIDA               :
CMT4 .        SONDA  SS-43               :
HDAT .        SAD 69                     :
FL   .        BASE SAD 69                :
OS1  .        RCI/GR                     :
OS2  .        CHECK SHOT                 :
OS3  .        GR/CN/ZDL                  :
OS5  .        RCOR/GR                    :
LNAM .        ZDL/CN/XMAC/HDIL/EARTH IMAGER/RCI/RCOR/CHECK SHOT/GR :
TOOL .        ZDL/CN/XMAC/HDIL/EARTH IMAGER/RCI/RCOR/CHECK SHOT/GR :
LSOU .        PETROBRAS                  :
LSRV .        OH WIRELINE                :
LTYP .        RAW                        :
EPD  .M                0                 :
LDAT .        15/11/2004                 :
TRIP .                 3                 :
SON  .            786588                 :
CBDR .M             4277                 :
CBLO .        NR                         :
CBL1 .        NR                         :
STEM .DEGF    N/A                        :
BSAL .            254762                 :
BARI .        OFF                        :
DLAB .        12/11/2004                 :
MRT  .DEGF           290                 :
TSTR .        HDIL/XMAC/GR/TTRM          :
TSTG .        N/A                        :
STUS .        FINAL                      :
LCNM .        BAKER ATLAS                :
LCC  .               150                 :
NATI .        BRASIL                     :
OPMD .        OH.WIRELINE                :
PANA .        HERNANDEZ / LOCK           :
PCON .        BAKER ATLAS                :
R11  .        SL     5268.3 M / 5000.0 M :
R12  .        GR     5268.3 M / 5000.0 M :
R13  .        XMAC   5279.5 M / 5000.0 M :
R14  .        HDIL   5289.0 M / 5000.0 M :
R17  .        11. DECLINAÇÃO MAGNETICA  -20.9 GRAUS :
R18  .        12. COORDENADAS BASE       :
R21  .        Y    583936.00 M           :
R22  .        MC  45 GRAUS               :
PVER .           4.10000                 :
WDFN .        /space/expusr/3-SPS-41D_RUN2/i77bf01_4spf.xtf :
OCT  .        i77bf                      :
OS4  .        EARTH IMAGER               :
R16  .        10. PONTO FRACO UTILIZADO  10K :
R20  .        X   7292512.00 M           :
R24  .        13. CADASTRO ANP  86316021017 :
#-----------------------------------------------------------------------------
~CURVE INFORMATION
#MNEM.UNIT   API CODE                                  DESCRIPTION
#---- -----  --------                                  -----------------------
DEPT .M                                                :DEPTH (BOREHOLE) {F10.4}
DEPT .M                                                : {F13.4}
BIT  .IN                                               : {F13.4}
GR   .GAPI                                             : {F13.4}
M2R1 .OHMM                                             : {F13.4}
M2R2 .OHMM                                             : {F13.4}
M2R3 .OHMM                                             : {F13.4}
M2R6 .OHMM                                             : {F13.4}
M2R9 .OHMM                                             : {F13.4}
M2RX .OHMM                                             : {F13.4}
SPD  .M/MN                                             : {F13.4}
TEN  .LBF                                              : {F13.4}
TTEN .LBF                                              : {F13.4}
#-----------------------------------------------------------------------------
# 
#     DEPT        DEPT         BIT          GR           M2R1         M2R2         M2R3         M2R6         M2R9         M2RX         SPD          TEN          TTEN
#
~A  
# ...
 5214.2136    5214.2136       8.5000      42.5153      11.1775      13.0371      14.2179      14.9721      14.7174      15.0033       4.6200      -8.7936    7639.4251
 5214.0612    5214.0612       8.5000      41.8927       8.5924      10.3839      11.2429      11.8428      11.6633      11.8809       4.6374     -14.3588    7633.6039
 5213.9088    5213.9088       8.5000      41.8708       6.8550       8.5634       9.2678       9.7443       9.6152       9.7863       4.6414     -29.2761    7618.2790
 5213.7564    5213.7564       8.5000      42.4319       5.6728       7.3146       7.9509       8.3486       8.2543       8.3939       4.6365     -39.1534    7607.7957
 5213.6040    5213.6040       8.5000      43.0303       4.8558       6.4330       7.0453       7.4011       7.3323       7.4504       4.6338     -39.5434    7606.6832
 5213.4516    5213.4516       8.5000      44.1575       4.2747       5.7786       6.3901       6.7282       6.6796       6.7827       4.6408     -39.8363    7605.6125
 5213.2992    5213.2992       8.5000      48.8513       3.8923       5.3324       5.9617       6.3020       6.2703       6.3642       4.6568     -40.7201    7603.9218
 5213.1468    5213.1468       8.5000      56.9183       3.6820       5.0860       5.7523       6.1128       6.0965       6.1863       4.6674     -30.5272    7613.4066
 5212.9944    5212.9944       8.5000      63.4540       3.6100       5.0089       5.7298       6.1269       6.1261       6.2165       4.6655     -15.5053    7627.9810
 5212.8420    5212.8420       8.5000      66.2997       3.6331       5.0441       5.8295       6.2754       6.2920       6.3864       4.6628     -19.8617    7623.2693
 5212.6896    5212.6896       8.5000      67.8129       3.6807       5.0914       5.9330       6.4295       6.4652       6.5656       4.6654     -36.1443    7606.4491
 5212.5372    5212.5372       8.5000      68.5420       3.7138       5.1028       5.9805       6.5207       6.5759       6.6832       4.6617     -40.7884    7601.1424
 5212.3848    5212.3848       8.5000      67.8451       3.7672       5.1434       6.0541       6.6288       6.7033       6.8192       4.6456     -38.3491    7602.8994
 5212.2324    5212.2324       8.5000      66.7106       3.8197       5.1962       6.1268       6.7336       6.8264       6.9515       4.6093     -40.0109    7600.4414
 5212.0800    5212.0800       8.5000      66.1798       3.7238       5.0609       5.9722       6.5795       6.6844       6.8134       4.5610     -33.2157    7606.4248
 5211.9276    5211.9276       8.5000      66.1546       3.4522       4.6944       5.5417       6.1120       6.2199       6.3449       4.5487     -16.5199    7622.5714
 5211.7752    5211.7752       8.5000      65.9144       3.1764       4.3244       5.1053       5.6314       5.7374       5.8559       4.5838      -2.2476    7636.6138
 5211.6228    5211.6228       8.5000      65.2721       3.0009       4.0921       4.8317       5.3269       5.4306       5.5441       4.6238       3.3778    7642.1989
 5211.4704    5211.4704       8.5000      65.0332       2.9092       3.9725       4.6928       5.1696       5.2708       5.3805       4.6479      -4.1396    7634.6154
 5211.3180    5211.3180       8.5000      65.6087       2.8752       3.9278       4.6441       5.1117       5.2098       5.3162       4.6661     -20.6002    7617.8585
 5211.1656    5211.1656       8.5000      66.3495       2.8974       3.9538       4.6805       5.1477       5.2423       5.3460       4.6748     -27.4635    7610.4829
 5211.0132    5211.0132       8.5000      66.4497       2.9751       4.0489       4.7986       5.2734       5.3645       5.4662       4.6761     -17.0297    7620.4361
 5210.8608    5210.8608       8.5000      65.7589       3.1000       4.2024       4.9840       5.4721       5.5594       5.6597       4.6806      -4.7170    7632.4868
 5210.7084    5210.7084       8.5000      64.8005       3.2781       4.4229       5.2443       5.7511       5.8347       5.9344       4.6815      -1.3730    7635.7509
 5210.5560    5210.5560       8.5000      64.1458       3.4984       4.6936       5.5568       6.0849       6.1648       6.2646       4.6763      -2.3690    7634.7200
 5210.4036    5210.4036       8.5000      64.0647       3.6521       4.8700       5.7495       6.2853       6.3596       6.4574       4.6742      -7.4632    7629.5318
 5210.2512    5210.2512       8.5000      65.8991       3.6451       4.8381       5.6924       6.2121       6.2786       6.3708       4.6801     -23.3122    7613.3829
 5210.0988    5210.0988       8.5000      69.5334       3.5478       4.7006       5.5130       6.0067       6.0654       6.1511       4.6821     -37.4620    7598.6032
 5209.9464    5209.9464       8.5000      71.4459       3.4457       4.5681       5.3459       5.8165       5.8689       5.9496       4.6710     -31.6774    7603.6450
 5209.7940    5209.7939       8.5000      69.8824       3.3389       4.4338       5.1837       5.6334       5.6808       5.7575       4.6568     -17.7065    7617.0859
 5209.6416    5209.6416       8.5000      67.8788       3.2302       4.2972       5.0192       5.4525       5.4958       5.5692       4.6494     -12.5592    7621.9160
 5209.4892    5209.4893       8.5000      67.8341       3.1618       4.2128       4.9168       5.3354       5.3757       5.4474       4.6538     -16.1670    7618.0166
 5209.3368    5209.3368       8.5000      68.4855       3.1679       4.2204       4.9146       5.3263       5.3651       5.4368       4.6655     -34.3095    7599.3608
 5209.1844    5209.1844       8.5000      67.9275       3.2394       4.2982       4.9843       5.3940       5.4325       5.5055       4.6734     -59.4440    7573.2439
 5209.0320    5209.0320       8.5000      66.1346       3.3253       4.3709       5.0429       5.4457       5.4851       5.5591       4.6709     -59.0805    7572.3705
 5208.8796    5208.8796       8.5000      64.9576       3.3544       4.3503       4.9886       5.3794       5.4205       5.4939       4.6616     -25.3744    7605.2381
 5208.7272    5208.7272       8.5000      65.4523       3.2931       4.2131       4.8063       5.1773       5.2206       5.2913       4.6537      16.4273    7646.9819
 5208.5748    5208.5748       8.5000      66.7745       3.1958       4.0479       4.6023       4.9546       5.0013       5.0688       4.6479      57.4890    7688.7792
 5208.4224    5208.4224       8.5000      66.9247       3.1402       3.9573       4.4928       4.8364       4.8884       4.9539       4.6424     105.4941    7738.3625
 5208.2700    5208.2700       8.5000      65.7394       3.1411       3.9530       4.4879       4.8327       4.8915       4.9563       4.6403     159.1924    7794.6459
 5208.1176    5208.1176       8.5000      65.1275       3.1654       3.9843       4.5267       4.8774       4.9435       5.0082       4.6472     207.2354    7846.2726
 5207.9652    5207.9652       8.5000      66.1976       3.1915       4.0193       4.5708       4.9285       5.0009       5.0653       4.6576     243.8905    7887.2345
 5207.8128    5207.8128       8.5000      68.9166       3.2100       4.0492       4.6107       4.9754       5.0525       5.1166       4.6618     280.8168    7929.1071
 5207.6604    5207.6604       8.5000      72.6222       3.2025       4.0573       4.6292       4.9992       5.0785       5.1418       4.6575     325.2582    7979.4250
 5207.5080    5207.5080       8.5000      75.0911       3.1439       4.0141       4.5947       4.9659       5.0446       5.1065       4.6492     322.9937    7983.5149
 5207.3556    5207.3556       8.5000      74.2394       3.0306       3.9084       4.4930       4.8599       4.9349       4.9945       4.6434     223.0338    7888.6686
 5207.2032    5207.2032       8.5000      71.4821       2.9097       3.7888       4.3759       4.7372       4.8072       4.8647       4.6470      76.8932    7745.0401
 5207.0508    5207.0508       8.5000      69.1194       2.8471       3.7322       4.3276       4.6880       4.7535       4.8100       4.6526     -27.5313    7640.8184
