~VERSION INFORMATION
VERS.           2.0   :CWLS Log ASCII Standard - VERSION 2.0
WRAP.           NO    :One Line per depth step
PROD.  Schlumberger   :LAS Producer
PROG.  DLIS to ASCII 2.3                               :LAS Program name and version
CREA.        2023/07/14 00:15                          :LAS Creation date {YYYY/MM/DD hh:mm}
DLIS_CREA.  2023-Jul-14 00:11                          :DLIS Creation date and time {YYYY-MMM-DD hh:mm}
SOURCE.     LIS_011.dlis                               :DLIS File Name
FILE-ID.     LIS   .004                                :File Identification Number
#--------------------------------------------------
~WELL INFORMATION
#MNEM.UNIT      DATA             DESCRIPTION
#---- ------ --------------   -----------------------------
STRT .M      5300.3196       :START DEPTH     
STOP .M      4931.0544       :STOP DEPTH     
STEP .M        -0.1524       :STEP     
NULL .          -999.25      :NULL VALUE
COMP .        PETROBRAS S.A.                           :COMPANY
WELL .        3-BRSA-293D-SPS                          :WELL
FLD  .        BS-400                                   :FIELD
LOC  .        BASE SAD 69:                             :LOCATION
CNTY .        SANTOS                                   :COUNTY
STAT .        BRASIL                                   :STATE
CTRY .        BRASIL                                   :COUNTRY
API  .                                                 :API NUMBER
UWI  .                                                 :UNIQUE WELL ID
DATE .        15/11/2004                               :LOG DATE
SRVC .        Schlumberger                             :SERVICE COMPANY
LATI .DEG                                              :LATITUDE
LONG .DEG                                              :LONGITUDE
GDAT .                                                 :GeoDetic Datum
#-----------------------------------------------------------------------------
~PARAMETER INFORMATION
#MNEM.UNIT    VALUE                      DESCRIPTION
#---- -----   --------------------       ------------------------
APD  .M               24                 :
BHT  .DEGF           260                 :
BLI  .M             5289                 :
BS   .IN         8.50000                 :
CN   .        PETROBRAS S.A.             :
COUN .        SANTOS                     :
CS   .IN         9.62500                 :
DATE .        15/11/2004                 :
DFD  .LB/G      12.30000                 :
DFL  .C3               2                 :
DFPH .        N/A                        :
DFT  .        SINTETICO                  :
DFV  .S               95                 :
DMF  .        MESA ROTATIVA              :
EDF  .M               24                 :
EGL  .M             -500                 :
EKB  .        N/A                        :
ENGI .        HERNANDEZ / LOCK           :
FL1  .        X   7292392.00 M LAT 24 28 47.189 S :
FL2  .        Y    584087.00 M LON 44 10 12.698 W :
FL3  .        MC  45 GRAUS               :
FN   .        BS-400                     :
LMF  .        MESA ROTATIVA              :
LUL  .        MACAE                      :
MCSS .        PRENSA                     :
MCST .DEGF            80                 :
MFSS .        PRENSA                     :
MFST .DEGF            80                 :
MSS  .        LINHA DE FLUXO             :
MST  .DEGF            80                 :
PDAT .        NIVEL DO MAR               :
R1   .        01. APRESENTAÇÃO DE ACORDO COM REQUERIMENTO DO CLIENTE :
R2   .        02. TEMPERATURA MÁXIMA DO POÇO T1=T2= 290 DEGF @  5275 M :
R3   .        03. INICIO DA CIRCULAÇÃO  12/11/2004 09 00 H :
R4   .        04. FINAL DA CIRCULAÇÃO   12/11/2004 18 00 H :
R5   .        05. TEMPO TOTAL DE CIRCULAÇÃO   09 00 H :
R6   .        06. FLUIDO DE PERFURAÇÃO  SINTETICO (BR-MUL  BR-MI)  60% TEOR DO OLEO :
R7   .        07. SALINIDADE DA LAMA  254762 PPM NACL NA FASE DE AGUA :
R8   .        08. INCLINAÇÃO MÁXIMA DO POÇO  37.37 GRAUS @ 5100 M :
R9   .        09. PRIMEIRAS E ULTIMAS LEITURAS  :
RMB  .OHMM    > 10                       :
RMCS .OHMM    > 10                       :
RMFS .OHMM    > 10                       :
RMS  .OHMM    >10                        :
RUN  .                 2                 :
STAT .        BRASIL                     :
TCS  .        18 00 H                    :
TDD  .M             5288                 :
TDL  .M             5293                 :
TLAB .        N/A                        :
TLI  .M             5000                 :
WITN .        ERNANI / ZE MARIA          :
WN   .        3-BRSA-293D-SPS            :
LUN  .              8808                 :
HIDE .        3-SPS-41D                  :
HID2 .        HIGH DEFINITION INDUCTION LOG :
HID3 .        X-MULTIPOLE ARRAY ACOUSTILOG :
HID4 .        GAMMA RAY LOG              :
HID5 .        TTRM SUB                   :
CLAB .        BACIA                      :
SLAB .        PAIS                       :
CMT1 .        ESC  1 200                 :
CMT2 .        PROF. MEDIDA               :
CMT4 .        SONDA  SS-43               :
HDAT .        SAD 69                     :
FL   .        BASE SAD 69                :
OS1  .        RCI/GR                     :
OS2  .        CHECK SHOT                 :
OS3  .        GR/CN/ZDL                  :
OS5  .        RCOR/GR                    :
LNAM .        ZDL/CN/XMAC/HDIL/EARTH IMAGER/RCI/RCOR/CHECK SHOT/GR :
TOOL .        ZDL/CN/XMAC/HDIL/EARTH IMAGER/RCI/RCOR/CHECK SHOT/GR :
LSOU .        PETROBRAS                  :
LSRV .        OH WIRELINE                :
LTYP .        RAW                        :
EPD  .M                0                 :
LDAT .        15/11/2004                 :
TRIP .                 3                 :
SON  .            786588                 :
CBDR .M             4277                 :
CBLO .        NR                         :
CBL1 .        NR                         :
STEM .DEGF    N/A                        :
BSAL .            254762                 :
BARI .        OFF                        :
DLAB .        12/11/2004                 :
MRT  .DEGF           290                 :
TSTR .        HDIL/XMAC/GR/TTRM          :
TSTG .        N/A                        :
STUS .        FINAL                      :
LCNM .        BAKER ATLAS                :
LCC  .               150                 :
NATI .        BRASIL                     :
OPMD .        OH.WIRELINE                :
PANA .        HERNANDEZ / LOCK           :
PCON .        BAKER ATLAS                :
R11  .        SL     5268.3 M / 5000.0 M :
R12  .        GR     5268.3 M / 5000.0 M :
R13  .        XMAC   5279.5 M / 5000.0 M :
R14  .        HDIL   5289.0 M / 5000.0 M :
R17  .        11. DECLINAÇÃO MAGNETICA  -20.9 GRAUS :
R18  .        12. COORDENADAS BASE       :
R21  .        Y    583936.00 M           :
R22  .        MC  45 GRAUS               :
PVER .           4.10000                 :
WDFN .        /space/expusr/3-SPS-41D_RUN2/i77bf02_4spf.xtf :
OCT  .        i77bf                      :
OS4  .        EARTH IMAGER               :
R16  .        10. PONTO FRACO UTILIZADO  10K :
R20  .        X   7292512.00 M           :
R24  .        13. CADASTRO ANP  86316021017 :
#-----------------------------------------------------------------------------
~CURVE INFORMATION
#MNEM.UNIT   API CODE                                  DESCRIPTION
#---- -----  --------                                  -----------------------
DEPT .M                                                :DEPTH (BOREHOLE) {F10.4}
DEPT .M                                                : {F13.4}
BIT  .IN                                               : {F13.4}
GR   .GAPI                                             : {F13.4}
M2R1 .OHMM                                             : {F13.4}
M2R2 .OHMM                                             : {F13.4}
M2R3 .OHMM                                             : {F13.4}
M2R6 .OHMM                                             : {F13.4}
M2R9 .OHMM                                             : {F13.4}
M2RX .OHMM                                             : {F13.4}
SPD  .M/MN                                             : {F13.4}
TEN  .LBF                                              : {F13.4}
TTEN .LBF                                              : {F13.4}
#-----------------------------------------------------------------------------
# 
#     DEPT        DEPT         BIT          GR           M2R1         M2R2         M2R3         M2R6         M2R9         M2RX         SPD          TEN          TTEN
#
~A  
# ...
 5051.6028    5051.6028       8.5000      91.8931       2.0240       3.1795       4.1838       4.7937       4.9114       4.9352       4.8635     -14.7769    7599.2449
 5051.4504    5051.4504       8.5000      91.8789       2.0042       3.1444       4.1374       4.7472       4.8761       4.9036       4.8556     -14.0518    7599.6473
 5051.2980    5051.2980       8.5000      91.7805       2.0073       3.1430       4.1289       4.7383       4.8765       4.9089       4.8546      -3.3021    7610.1840
 5051.1456    5051.1456       8.5000      92.2566       2.0269       3.1673       4.1515       4.7606       4.9058       4.9446       4.8596      16.0187    7629.6090
 5050.9932    5050.9932       8.5000      93.8379       2.0520       3.1991       4.1836       4.7909       4.9404       4.9865       4.8601      25.5688    7639.6104
 5050.8408    5050.8408       8.5000      94.6336       2.0785       3.2280       4.2132       4.8174       4.9684       5.0230       4.8601      16.5661    7631.1152
 5050.6884    5050.6884       8.5000      94.5168       2.1170       3.2670       4.2560       4.8598       5.0109       5.0752       4.8683       3.2157    7618.0458
 5050.5360    5050.5360       8.5000      95.1320       2.1916       3.3525       4.3580       4.9721       5.1243       5.2001       4.8759      -2.3939    7612.4454
 5050.3836    5050.3836       8.5000      95.3866       2.3327       3.5327       4.5809       5.2250       5.3819       5.4725       4.8725      -1.2172    7613.5076
 5050.2312    5050.2312       8.5000      95.6538       2.5482       3.8216       4.9427       5.6393       5.8057       5.9155       4.8631       2.4214    7617.0816
 5050.0788    5050.0788       8.5000      98.8312       2.7745       4.1238       5.3215       6.0738       6.2505       6.3814       4.8515      10.0319    7624.7931
 5049.9264    5049.9264       8.5000     104.2600       2.9028       4.2849       5.5203       6.3003       6.4821       6.6301       4.8405      22.2780    7637.3623
 5049.7740    5049.7740       8.5000     107.4104       2.9060       4.2768       5.4979       6.2752       6.4558       6.6140       4.8402      35.7652    7651.4226
 5049.6216    5049.6216       8.5000     107.3789       2.8485       4.1994       5.3833       6.1405       6.3172       6.4807       4.8517      35.8516    7652.1728
 5049.4692    5049.4692       8.5000     107.5796       2.7751       4.1086       5.2449       5.9740       6.1456       6.3110       4.8563      23.2893    7640.0497
 5049.3168    5049.3168       8.5000     109.9821       2.6931       3.9958       5.0701       5.7620       5.9262       6.0899       4.8507      34.8513    7652.0152
 5049.1644    5049.1644       8.5000     112.9061       2.6185       3.8700       4.8714       5.5210       5.6757       5.8346       4.8494      87.5963    7705.8650
 5049.0120    5049.0120       8.5000     113.9662       2.5789       3.7708       4.7034       5.3148       5.4599       5.6131       4.8560     137.6899    7758.1093
 5048.8596    5048.8596       8.5000     112.5434       2.5985       3.7422       4.6260       5.2127       5.3502       5.4994       4.8594     132.3121    7755.2767
 5048.7072    5048.7072       8.5000     108.7654       2.6860       3.8061       4.6707       5.2510       5.3843       5.5324       4.8562      77.8451    7702.7141
 5048.5548    5048.5548       8.5000     104.7726       2.8364       3.9646       4.8436       5.4363       5.5698       5.7201       4.8468      23.8917    7649.5997
 5048.4024    5048.4023       8.5000     103.8864       3.0425       4.2174       5.1461       5.7708       5.9092       6.0652       4.8387      -3.5129    7622.2734
 5048.2500    5048.2500       8.5000     106.0998       3.2636       4.5193       5.5230       6.1922       6.3396       6.5031       4.8409      -7.2624    7618.3154
 5048.0976    5048.0977       8.5000     107.9480       3.4006       4.7386       5.8098       6.5150       6.6715       6.8396       4.8512      14.2766    7639.8291
 5047.9452    5047.9452       8.5000     108.1034       3.3978       4.7868       5.8898       6.6066       6.7687       6.9355       4.8563      53.9543    7680.1184
 5047.7928    5047.7928       8.5000     107.8690       3.3080       4.7080       5.8071       6.5141       6.6784       6.8400       4.8566      75.4979    7702.9078
 5047.6404    5047.6404       8.5000     108.8316       3.2035       4.5812       5.6525       6.3381       6.5020       6.6571       4.8572      55.9955    7684.6524
 5047.4880    5047.4880       8.5000     111.1476       3.1411       4.4865       5.5249       6.1896       6.3524       6.5027       4.8570       7.7081    7636.9390
 5047.3356    5047.3356       8.5000     112.9230       3.1518       4.4829       5.5009       6.1552       6.3185       6.4678       4.8521     -45.5404    7583.2504
 5047.1832    5047.1832       8.5000     115.2086       3.2249       4.5698       5.5845       6.2411       6.4067       6.5589       4.8456     -77.5107    7549.9838
 5047.0308    5047.0308       8.5000     120.8672       3.3215       4.6986       5.7217       6.3886       6.5574       6.7149       4.8409     -76.4272    7549.5179
 5046.8784    5046.8784       8.5000     126.7232       3.3876       4.7906       5.8206       6.4971       6.6686       6.8313       4.8425     -52.3984    7572.3725
 5046.7260    5046.7260       8.5000     126.2777       3.3799       4.7801       5.8037       6.4811       6.6535       6.8187       4.8540     -29.2512    7594.8380
 5046.5736    5046.5736       8.5000     120.3011       3.3188       4.6950       5.7040       6.3769       6.5500       6.7157       4.8717     -23.5188    7600.1252
 5046.4212    5046.4212       8.5000     115.5804       3.2790       4.6426       5.6498       6.3265       6.5040       6.6715       4.8790     -43.0084    7580.0549
 5046.2688    5046.2688       8.5000     114.3651       3.2913       4.6673       5.6923       6.3848       6.5719       6.7435       4.8673     -75.6713    7546.3464
 5046.1164    5046.1164       8.5000     113.3442       3.3214       4.7193       5.7674       6.4771       6.6759       6.8518       4.8514     -95.4141    7525.0907
 5045.9640    5045.9640       8.5000     111.4800       3.3392       4.7536       5.8137       6.5311       6.7407       6.9189       4.8483     -94.1858    7524.6465
 5045.8116    5045.8116       8.5000     109.9757       3.3554       4.7794       5.8352       6.5488       6.7668       6.9454       4.8541     -84.8548    7532.4147
 5045.6592    5045.6592       8.5000     109.1563       3.3874       4.8085       5.8415       6.5404       6.7636       6.9410       4.8571     -69.8418    7546.0977
 5045.5068    5045.5068       8.5000     108.0643       3.4241       4.8107       5.7987       6.4699       6.6933       6.8672       4.8567     -46.0475    7568.9199
 5045.3544    5045.3544       8.5000     104.9628       3.4558       4.7751       5.7047       6.3393       6.5581       6.7267       4.8569     -26.0086    7588.3678
 5045.2020    5045.2020       8.5000     100.9249       3.5283       4.7890       5.6778       6.2852       6.4996       6.6647       4.8558     -24.0300    7589.9069
 5045.0496    5045.0496       8.5000      98.6371       3.6930       4.9486       5.8399       6.4446       6.6600       6.8274       4.8545     -28.7069    7584.7416
 5044.8972    5044.8972       8.5000      97.4073       3.9251       5.2354       6.1712       6.7972       7.0185       7.1934       4.8556     -18.0259    7595.0006
 5044.7448    5044.7448       8.5000      94.6151       4.1390       5.5340       6.5317       7.1902       7.4173       7.6009       4.8553       6.8347    7619.7983
 5044.5924    5044.5924       8.5000      91.3016       4.2654       5.7353       6.7845       7.4730       7.7016       7.8911       4.8505      21.3296    7634.5882
 5044.4400    5044.4400       8.5000      89.5487       4.2971       5.8088       6.8860       7.5949       7.8201       8.0116       4.8469      14.6613    7628.2639
