~VERSION INFORMATION
VERS.           2.0   :CWLS Log ASCII Standard - VERSION 2.0
WRAP.           NO    :One Line per depth step
PROD.  Schlumberger   :LAS Producer
PROG.  DLIS to ASCII 2.3                               :LAS Program name and version
CREA.        2023/07/14 00:15                          :LAS Creation date {YYYY/MM/DD hh:mm}
DLIS_CREA.  2023-Jul-14 00:11                          :DLIS Creation date and time {YYYY-MMM-DD hh:mm}
SOURCE.     LIS_006.dlis                               :DLIS File Name
FILE-ID.     LIS   .002                                :File Identification Number
#--------------------------------------------------
~WELL INFORMATION
#MNEM.UNIT      DATA             DESCRIPTION
#---- ------ --------------   -----------------------------
STRT .M      5238.7500       :START DEPTH     
STOP .M      5087.2644       :STOP DEPTH     
STEP .M        -0.1524       :STEP     
NULL .          -999.25      :NULL VALUE
COMP .        Petrobras S.A.                           :COMPANY
WELL .        3-SPS-41D                                :WELL
FLD  .        MEXILHOES                                :FIELD
LOC  .                                                 :LOCATION
CNTY .                                                 :COUNTY
STAT .                                                 :STATE
CTRY .                                                 :COUNTRY
API  .                                                 :API NUMBER
UWI  .                                                 :UNIQUE WELL ID
DATE .                                                 :LOG DATE
SRVC .        Schlumberger                             :SERVICE COMPANY
LATI .DEG                                              :LATITUDE
LONG .DEG                                              :LONGITUDE
GDAT .                                                 :GeoDetic Datum
#-----------------------------------------------------------------------------
~PARAMETER INFORMATION
#MNEM.UNIT    VALUE                      DESCRIPTION
#---- -----   --------------------       ------------------------
CN   .        Petrobras S.A.             :
FN   .        MEXILHOES                  :
WN   .        3-SPS-41D                  :
LCC  .               150                 :
WDFN .        /space/expusr/3-SPS-41D/i77bf06_8spf.xtf :
OCT  .        i77bf                      :
RUN  .                                   :RUN NUMBER
PDAT .                                   :Permanent Datum
EPD  .                                   :Elevation of Permanent Datum above Mean Sea Level
LMF  .                                   :Logging Measured From (Name of Logging Elevation Reference)
APD  .                                   :Elevation of Depth Reference (LMF) above Permanent Datum
#-----------------------------------------------------------------------------
~CURVE INFORMATION
#MNEM.UNIT   API CODE                                  DESCRIPTION
#---- -----  --------                                  -----------------------
DEPT .M                                                :DEPTH (BOREHOLE) {F10.4}
DEPT .M                                                : {F13.4}
BIT  .IN                                               : {F13.4}
DEPM .M                                                : {F13.4}
SPD  .M/MN                                             : {F13.4}
CNC  .PU                                               : {F13.4}
CN   .PU                                               : {F13.4}
LSN  .HZ                                               : {F13.4}
SSN  .HZ                                               : {F13.4}
#-----------------------------------------------------------------------------
# 
#     DEPT        DEPT         BIT          DEPM         SPD          CNC          CN           LSN          SSN
#
~A  
# ...
 5196.0780    5196.0780       8.5000    5195.6825       5.2554      14.9602      14.9731    1554.9690    3417.6429
 5195.9256    5195.9256       8.5000    5195.5311       5.2576      13.8432      14.0716    1640.4297    3469.8336
 5195.7732    5195.7732       8.5000    5195.3787       5.2749      13.9491      14.3817    1625.8043    3416.7409
 5195.6208    5195.6208       8.5000    5195.2263       5.3025      14.9316      15.6504    1502.8005    3246.3223
 5195.4684    5195.4684       8.5000    5195.0739       5.2484      16.7163      17.4913    1346.9903    3111.1495
 5195.3160    5195.3160       8.5000    5194.9215       5.2337      17.4388      17.3339    1310.4584    3126.4080
 5195.1636    5195.1636       8.5000    5194.7691       5.2563      15.3907      15.4610    1424.9991    3187.1352
 5195.0112    5195.0112       8.5000    5194.6167       5.2590      15.8843      16.6591    1429.1819    3251.8236
 5194.8588    5194.8588       8.5000    5194.4643       5.2543      16.4328      16.3529    1435.0543    3320.7469
 5194.7064    5194.7064       8.5000    5194.3119       5.2527      15.3347      15.5653    1515.6963    3389.1252
 5194.5540    5194.5540       8.5000    5194.1595       5.2513      14.4485      14.3587    1614.3851    3520.1638
 5194.4016    5194.4016       8.5000    5194.0071       5.2601      13.2714      13.4613    1761.4851    3669.8541
 5194.2492    5194.2492       8.5000    5193.8547       5.2486      13.1806      13.4813    1797.3057    3694.7483
 5194.0968    5194.0968       8.5000    5193.7023       5.2537      13.2463      13.7107    1766.6884    3629.3507
 5193.9444    5193.9444       8.5000    5193.5499       5.2440      14.7640      15.6689    1642.4285    3564.4290
 5193.7920    5193.7920       8.5000    5193.3965       5.2454      16.4889      16.9084    1515.9275    3469.2497
 5193.6396    5193.6396       8.5000    5193.2441       5.2581      16.5331      16.7929    1456.1737    3329.7178
 5193.4872    5193.4872       8.5000    5193.0917       5.2800      16.3591      16.8347    1409.7234    3217.0150
 5193.3348    5193.3348       8.5000    5192.9403       5.2907      17.3950      17.9927    1332.8284    3145.7968
 5193.1824    5193.1824       8.5000    5192.7879       5.2692      18.1156      18.5513    1271.8248    3061.4976
 5193.0300    5193.0300       8.5000    5192.6355       5.2565      18.2953      18.6645    1243.3192    3035.0065
 5192.8776    5192.8776       8.5000    5192.4831       5.2615      17.9684      17.8130    1285.7825    3137.6894
 5192.7252    5192.7252       8.5000    5192.3307       5.2632      15.8920      16.0628    1430.0028    3263.5369
 5192.5728    5192.5728       8.5000    5192.1783       5.2669      15.6898      15.8318    1474.2729    3326.0266
 5192.4204    5192.4204       8.5000    5192.0259       5.2540      15.7943      16.7985    1485.8155    3359.9120
 5192.2680    5192.2680       8.5000    5191.8735       5.2517      18.8009      19.4381    1353.0974    3322.6585
 5192.1156    5192.1156       8.5000    5191.7211       5.2794      18.3460      18.3676    1320.4772    3183.3360
 5191.9632    5191.9632       8.5000    5191.5687       5.2849      17.9551      18.3226    1274.6343    3047.8139
 5191.8108    5191.8108       8.5000    5191.4163       5.2600      17.5615      17.7713    1268.8799    3040.6075
 5191.6584    5191.6584       8.5000    5191.2639       5.2479      17.4461      17.7648    1313.3994    3151.1372
 5191.5060    5191.5060       8.5000    5191.1115       5.2396      17.0799      17.2369    1372.3890    3238.5958
 5191.3536    5191.3536       8.5000    5190.9581       5.2639      16.5517      16.9307    1402.3020    3237.4861
 5191.2012    5191.2012       8.5000    5190.8057       5.2695      17.1526      17.5792    1367.5417    3212.5213
 5191.0488    5191.0488       8.5000    5190.6533       5.2599      17.3468      17.8942    1340.0646    3161.6969
 5190.8964    5190.8964       8.5000    5190.5019       5.2776      18.3799      18.7348    1284.0282    3137.3106
 5190.7440    5190.7440       8.5000    5190.3495       5.2680      18.1898      18.7319    1303.7820    3179.1979
 5190.5916    5190.5916       8.5000    5190.1971       5.2390      19.3462      19.8217    1273.8858    3194.5199
 5190.4392    5190.4392       8.5000    5190.0447       5.2524      18.6878      18.6434    1282.9628    3148.0109
 5190.2868    5190.2868       8.5000    5189.8923       5.2524      17.9685      18.4906    1307.5848    3180.1374
 5190.1344    5190.1344       8.5000    5189.7399       5.2305      17.9375      17.7274    1355.4758    3287.2140
 5189.9820    5189.9820       8.5000    5189.5875       5.2393      15.9988      16.4044    1441.6305    3244.7745
 5189.8296    5189.8296       8.5000    5189.4351       5.2480      17.6717      18.4174    1296.0009    3052.5135
 5189.6772    5189.6772       8.5000    5189.2827       5.2857      18.1060      18.2732    1225.9920    2967.0620
 5189.5248    5189.5248       8.5000    5189.1303       5.2726      16.6507      16.3293    1298.9506    3040.0345
 5189.3724    5189.3724       8.5000    5188.9779       5.2336      14.8755      15.1502    1434.0055    3170.5928
 5189.2200    5189.2200       8.5000    5188.8255       5.2364      14.8313      15.0888    1489.4871    3278.8070
 5189.0676    5189.0676       8.5000    5188.6731       5.2426      14.7563      15.0346    1537.4812    3376.0257
 5188.9152    5188.9152       8.5000    5188.5207       5.2521      14.3358      14.4874    1611.7208    3492.2800
 5188.7628    5188.7628       8.5000    5188.3683       5.2629      14.2982      14.8835    1667.8052    3602.9498
 5188.6104    5188.6104       8.5000    5188.2159       5.2538      15.5935      16.1290    1636.0127    3682.2455
 5188.4580    5188.4580       8.5000    5188.0635       5.2778      16.3427      16.9280    1615.4204    3715.8421
 5188.3056    5188.3056       8.5000    5187.9101       5.2833      17.0335      17.1855    1579.9465    3693.9051
 5188.1532    5188.1532       8.5000    5187.7580       5.2853      15.5817      15.4616    1605.2242    3542.6789
 5188.0008    5188.0008       8.5000    5187.6063       5.2771      14.6569      15.1403    1532.6093    3252.7776
 5187.8484    5187.8484       8.5000    5187.4539       5.2602      16.2984      17.2032    1345.6688    3065.1549
 5187.6960    5187.6960       8.5000    5187.3015       5.2629      17.8252      18.1518    1294.0633    3148.5740
 5187.5436    5187.5436       8.5000    5187.1491       5.2683      17.2186      17.2094    1380.8529    3283.0690
 5187.3912    5187.3912       8.5000    5186.9967       5.2908      15.7873      15.7928    1467.1806    3308.6900
 5187.2388    5187.2388       8.5000    5186.8443       5.3057      14.8508      14.8930    1508.5998    3299.2602
 5187.0864    5187.0864       8.5000    5186.6919       5.2691      13.2131      12.9326    1619.9275    3379.0834
 5186.9340    5186.9340       8.5000    5186.5395       5.2361      11.2150      11.0055    1916.2899    3796.1895
 5186.7816    5186.7816       8.5000    5186.3871       5.2566       9.0864       8.7726    2510.9752    4542.9946
 5186.6292    5186.6292       8.5000    5186.2347       5.2655       7.3614       7.2883    3160.1320    5119.3658
 5186.4768    5186.4768       8.5000    5186.0823       5.2550       6.6526       6.8595    3408.2895    5191.1123
 5186.3244    5186.3244       8.5000    5185.9299       5.2418       6.8729       7.1335    3263.4154    4997.3202
 5186.1720    5186.1720       8.5000    5185.7775       5.2604       7.0487       7.2910    3113.0079    4834.7379
 5186.0196    5186.0196       8.5000    5185.6251       5.2882       7.4366       7.8162    2998.5671    4774.4590
 5185.8672    5185.8672       8.5000    5185.4717       5.2500       8.0200       8.3602    2881.4424    4714.9584
 5185.7148    5185.7148       8.5000    5185.3193       5.2583       8.5538       8.9044    2719.2846    4527.2744
 5185.5624    5185.5624       8.5000    5185.1669       5.2654       9.3690      10.0944    2434.1052    4177.8050
