~VERSION INFORMATION
VERS.           2.0   :CWLS Log ASCII Standard - VERSION 2.0
WRAP.           YES   :Multiple lines per depth step
PROD.  Schlumberger   :LAS Producer
PROG.  DLIS to ASCII 2.3                               :LAS Program name and version
CREA.        2023/07/14 00:15                          :LAS Creation date {YYYY/MM/DD hh:mm}
DLIS_CREA.  2023-Jul-14 00:11                          :DLIS Creation date and time {YYYY-MMM-DD hh:mm}
SOURCE.     LIS_012.dlis                               :DLIS File Name
FILE-ID.     LIS   .001                                :File Identification Number
#--------------------------------------------------
~WELL INFORMATION
#MNEM.UNIT      DATA             DESCRIPTION
#---- ------ --------------   -----------------------------
STRT .M      5265.1152       :START DEPTH     
STOP .M      5185.4100       :STOP DEPTH     
STEP .M        -0.1524       :STEP     
NULL .          -999.25      :NULL VALUE
COMP .        PETROBRAS S.A.                           :COMPANY
WELL .        3-BRSA-293D-SPS                          :WELL
FLD  .        BS-400                                   :FIELD
LOC  .        BASE SAD 69:                             :LOCATION
CNTY .        SANTOS                                   :COUNTY
STAT .        BRASIL                                   :STATE
CTRY .        BRASIL                                   :COUNTRY
API  .                                                 :API NUMBER
UWI  .                                                 :UNIQUE WELL ID
DATE .        15/11/2004                               :LOG DATE
SRVC .        Schlumberger                             :SERVICE COMPANY
LATI .DEG                                              :LATITUDE
LONG .DEG                                              :LONGITUDE
GDAT .                                                 :GeoDetic Datum
#-----------------------------------------------------------------------------
~PARAMETER INFORMATION
#MNEM.UNIT    VALUE                      DESCRIPTION
#---- -----   --------------------       ------------------------
APD  .M               24                 :
BHT  .DEGF           260                 :
BLI  .M             5289                 :
BS   .IN         8.50000                 :
CN   .        PETROBRAS S.A.             :
COUN .        SANTOS                     :
CS   .IN         9.62500                 :
DATE .        15/11/2004                 :
DFD  .LB/G      12.30000                 :
DFL  .C3               2                 :
DFPH .        N/A                        :
DFT  .        SINTETICO                  :
DFV  .S               95                 :
DMF  .        MESA ROTATIVA              :
EDF  .M               24                 :
EGL  .M             -500                 :
EKB  .        N/A                        :
ENGI .        HERNANDEZ / LOCK           :
FL1  .        X   7292392.00 M LAT 24 28 47.189 S :
FL2  .        Y    584087.00 M LON 44 10 12.698 W :
FL3  .        MC  45 GRAUS               :
FN   .        BS-400                     :
LMF  .        MESA ROTATIVA              :
LUL  .        MACAE                      :
MCSS .        PRENSA                     :
MCST .DEGF            80                 :
MFSS .        PRENSA                     :
MFST .DEGF            80                 :
MSS  .        LINHA DE FLUXO             :
MST  .DEGF            80                 :
PDAT .        NIVEL DO MAR               :
R1   .        01. APRESENTAÇÃO DE ACORDO COM REQUERIMENTO DO CLIENTE :
R2   .        02. TEMPERATURA MÁXIMA DO POÇO T1=T2= 292 DEGF @  5277 M :
R3   .        03. INICIO DA CIRCULAÇÃO  12/11/2004 09 00 H :
R4   .        04. FINAL DA CIRCULAÇÃO   12/11/2004 18 00 H :
R5   .        05. TEMPO TOTAL DE CIRCULAÇÃO   09 00 H :
R6   .        06. FLUIDO DE PERFURAÇÃO  SINTETICO (BR-MUL  BR-MI)  60% TEOR DO OLEO :
R7   .        07. SALINIDADE DA LAMA  254762 PPM NACL NA FASE DE AGUA :
R8   .        08. INCLINAÇÃO MÁXIMA DO POÇO  37.37 GRAUS @ 5100 M :
R9   .        09. PRIMEIRAS E ULTIMAS LEITURAS  :
RMB  .OHMM    > 10                       :
RMCS .OHMM    > 10                       :
RMFS .OHMM    > 10                       :
RMS  .OHMM    >10                        :
RUN  .                 2                 :
STAT .        BRASIL                     :
TCS  .        18 00 H                    :
TDD  .M             5288                 :
TDL  .M             5293                 :
TLAB .        N/A                        :
TLI  .M             4277                 :
WITN .        ERNANI / ZE MARIA          :
WN   .        3-BRSA-293D-SPS            :
LUN  .              8808                 :
HIDE .        3-SPS-41D                  :
HID2 .        COMPENSATED Z-DENSILOG     :
HID3 .        COMPENSATED NEUTRON LOG    :
HID4 .        GAMMA RAY LOG              :
HID5 .        TTRM SUB                   :
CLAB .        BACIA                      :
SLAB .        PAIS                       :
CMT1 .        ESC  1 1000                :
CMT2 .        PROF. MEDIDA               :
CMT4 .        SONDA  SS-43               :
HDAT .        SAD 69                     :
FL   .        BASE SAD 69                :
OS1  .        RCI/GR                     :
OS2  .        CHECK SHOT                 :
OS3  .        GR/XMAC/HDIL               :
OS5  .        RCOR/GR                    :
LNAM .        ZDL/CN/XMAC/HDIL/EARTH IMAGER/RCI/RCOR/CHECK SHOT/GR :
TOOL .        ZDL/CN/XMAC/HDIL/EARTH IMAGER/RCI/RCOR/CHECK SHOT/GR :
LSOU .        PETROBRAS                  :
LSRV .        OH WIRELINE                :
LTYP .        RAW                        :
EPD  .M                0                 :
LDAT .        15/11/2004                 :
TRIP .                 4                 :
SON  .            786588                 :
CBDR .M             4277                 :
CBLO .        NR                         :
CBL1 .        NR                         :
STEM .DEGF    N/A                        :
BSAL .            254762                 :
BARI .        OFF                        :
DLAB .        12/11/2004                 :
MRT  .DEGF           292                 :
TSTR .        ZDL/CN/GR/TTRM             :
TSTG .        N/A                        :
STUS .        FINAL                      :
LCNM .        BAKER ATLAS                :
LCC  .               150                 :
NATI .        BRASIL                     :
OPMD .        OH.WIRELINE                :
PANA .        HERNANDEZ / LOCK           :
PCON .        BAKER ATLAS                :
R11  .        GR     5268.3 M / 4277.0 M :
R12  .        CN     5286.5 M / 5128.0 M (FERRAMENTA PERDEU LEITURA ACIMA DE 5128M) :
R13  .        ZDL    5292.0 M / 4277.0 M :
R15  .        10. PONTO FRACO UTILIZADO  10K :
R17  .        12. COORDENADAS BASE       :
R19  .        X   7292512.00 M           :
R21  .        MC  45 GRAUS               :
R23  .        13. CADASTRO ANP  86316021017 :
PVER .           4.10000                 :
WDFN .        /space/expusr/3-SPS-41D_RUN2/i77bf03_8spf.xtf :
OCT  .        i77bf                      :
OS4  .        EARTH IMAGER               :
R16  .        11. DECLINAÇÃO MAGNETICA  -20.9 GRAUS :
R20  .        Y    583936.00 M           :
#-----------------------------------------------------------------------------
~CURVE INFORMATION
#MNEM.UNIT   API CODE                                  DESCRIPTION
#---- -----  --------                                  -----------------------
DEPT .M                                                :DEPTH (BOREHOLE) {F10.4}
DEPT .M                                                : {F13.4}
BIT  .IN                                               : {F13.4}
DEPM .M                                                : {F13.4}
GR   .GAPI                                             : {F13.4}
SPD  .M/MN                                             : {F13.4}
TTEN .LBF                                              : {F13.4}
CAL  .IN                                               : {F13.4}
CALX .IN                                               : {F13.4}
HRD1 .HZ                                               : {F13.4}
HRD2 .HZ                                               : {F13.4}
PE   .B/E                                              : {F13.4}
SFT2 .HZ                                               : {F13.4}
SOFT .HZ                                               : {F13.4}
SSD  .HZ                                               : {F13.4}
ZCOR .G/C3                                             : {F13.4}
ZDEN .G/C3                                             : {F13.4}
CNC  .PU                                               : {F13.4}
CN   .PU                                               : {F13.4}
LSN  .HZ                                               : {F13.4}
SSN  .HZ                                               : {F13.4}
CNCF .PU                                               : {F13.4}
MMRK .MN                                               : {F13.4}
#-----------------------------------------------------------------------------
# DEPT       
#     DEPT         BIT          DEPM         GR           SPD          TTEN         
#     CAL          CALX         HRD1         HRD2         PE           SFT2         
#     SOFT         SSD          ZCOR         ZDEN         CNC          CN           
#     LSN          SSN          CNCF         MMRK         
~A  
# ...
5201.1072
   5201.1072       8.5000    5200.8133      60.0572       5.8691    7235.5575
      9.0560       9.0564     871.9188    1058.0533       3.2670     739.2502
    598.9222    7476.7630      -0.0091       2.4553       8.9695       9.3445
   2658.6651    4620.4063       8.9695       0.0000
5200.9548
   5200.9548       8.5000    5200.6609      59.9570       5.9080    7240.6520
      9.0547       9.0553     850.3038    1021.7337       3.3697     711.6585
    570.5468    7363.4290      -0.0104       2.4671       9.0136       9.4463
   2721.8528    4724.1176       9.0136       0.0000
5200.8024
   5200.8024       8.5000    5200.5094      59.2727       5.9077    7257.3514
      9.0570       9.0550     839.5511    1045.2302       3.6446     694.5187
    563.1367    7383.4823      -0.0177       2.4627       8.5234       8.9269
   2882.3113    4881.0474       8.5234       0.0000
5200.6500
   5200.6500       8.5000    5200.3570      58.7225       5.8835    7296.0664
      9.0612       9.0598     839.4801    1097.8002       4.2414     696.0693
    533.5243    7381.3740      -0.0186       2.4512       8.2703       8.6765
   2974.8686    5002.4565       8.2703       0.3386
5200.4976
   5200.4976       8.5000    5200.2046      59.5297       5.8883    7338.7722
      9.0546       9.0591     829.5944    1059.8758       3.6705     694.3852
    569.6954    7278.6514      -0.0272       2.4606       8.5179       8.8034
   2862.5566    4928.2349       8.5179       0.0022
5200.3452
   5200.3452       8.5000    5200.0522      60.9018       5.8887    7349.9934
      9.0557       9.0537     824.5189    1076.0274       3.6091     709.9168
    580.2134    7365.1398      -0.0208       2.4574       9.1313       9.5021
   2680.8511    4738.8517       9.1313       0.0000
5200.1928
   5200.1928       8.5000    5199.8998      60.3737       5.9341    7323.0966
      9.0548       9.0560     862.3322    1089.7019       3.7868     704.2971
    570.8311    7284.2938      -0.0338       2.4494       8.9204       9.3496
   2696.6710    4677.4413       8.9204       0.0000
5200.0404
   5200.0404       8.5000    5199.7474      57.5880       5.8969    7294.6215
      9.0551       9.0545     801.1249    1060.8469       3.9217     680.4797
    547.0131    7415.0339      -0.0127       2.4642       8.4617       8.8863
   2814.8454    4754.9714       8.4617       0.0000
5199.8880
   5199.8880       8.5000    5199.5950      54.2716       5.8704    7295.2750
      9.0581       9.0565     823.2702    1117.1297       4.0813     683.9015
    551.8503    7475.8906      -0.0116       2.4495       8.0967       8.5031
   2973.1166    4922.7480       8.0967       0.0000
5199.7356
   5199.7356       8.5000    5199.4426      52.0753       5.8932    7315.9712
      9.0589       9.0592     826.4623    1086.6857       4.0021     698.9445
    555.2492    7447.3018      -0.0076       2.4536       7.8792       8.2487
   3132.9769    5133.1820       7.8792       0.0000
5199.5832
   5199.5832       8.5000    5199.2902      51.5467       5.8879    7344.8370
      9.0585       9.0582     847.9387    1065.5785       3.9985     701.1309
    536.9844    7367.9551      -0.0191       2.4557       7.8894       8.2457
   3232.9148    5321.3906       7.8894       0.0000
5199.4308
   5199.4308       8.5000    5199.1378      51.9781       5.8863    7372.4474
      9.0596       9.0592     852.9670    1059.5035       3.6281     750.9301
    574.3925    7327.1455      -0.0239       2.4568       8.0432       8.3771
   3213.8740    5366.1371       8.0432       0.0000
5199.2784
   5199.2784       8.5000    5198.9854      52.6762       5.9178    7370.1825
      9.0588       9.0596     864.7676    1096.4077       3.7957     738.6607
    569.3264    7351.3854      -0.0318       2.4473       8.4801       8.8072
   3106.1120    5306.2680       8.4801       0.0000
5199.1260
   5199.1260       8.5000    5198.8320      53.4548       5.9377    7327.7568
      9.0596       9.0584     903.8040    1103.0991       3.7835     740.1239
    577.0187    7508.2637      -0.0204       2.4368       8.8245       9.1677
   3042.1890    5273.6133       8.8245       0.0000
5198.9736
   5198.9736       8.5000    5198.6797      54.2813       5.9106    7272.9570
      9.0621       9.0611     924.4362    1104.7781       3.4800     764.0769
    607.3992    7563.9941      -0.0121       2.4318       9.2148       9.5750
   2983.4780    5271.2451       9.2148       0.0000
5198.8212
   5198.8212       8.5000    5198.5273      54.8573       5.8642    7247.2124
      9.0592       9.0618     878.9067    1139.2239       3.6091     756.0663
    614.1050    7572.4491      -0.0100       2.4336       9.4259       9.8128
   2956.7320    5265.1409       9.4259       0.0000
5198.6688
   5198.6688       8.5000    5198.3758      55.0938       5.8205    7267.3767
      9.0564       9.0569     894.1347    1152.2348       4.0264     749.1100
    581.8688    7618.3442      -0.0094       2.4277       9.2057       9.6476
   2988.7100    5269.6780       9.2057       0.0000
5198.5164
   5198.5164       8.5000    5198.2225      54.3648       5.8509    7310.0339
      9.0584       9.0572     899.9752    1174.4311       4.0620     773.9420
    585.5196    7613.8905      -0.0098       2.4220       8.9717       9.3593
   2935.5621    5152.6338       8.9717       0.0000
5198.3640
   5198.3640       8.5000    5198.0701      53.3825       5.9079    7321.2012
      9.0598       9.0599     907.2527    1171.4734       4.0498     760.7125
    590.3954    7540.4112      -0.0197       2.4204       9.2640       9.6302
   2786.0582    4960.5296       9.2640       0.0000
5198.2116
   5198.2116       8.5000    5197.9186      53.9868       5.9408    7289.8147
      9.0596       9.0592     859.1352    1158.4123       3.8786     745.6788
    596.8903    7441.2391      -0.0216       2.4297       8.9722       9.4285
   2743.8286    4803.8930       8.9722       0.0000
5198.0592
   5198.0592       8.5000    5197.7662      55.7199       5.8870    7262.7228
      9.0632       9.0613     923.6674    1117.3252       3.4157     763.7770
    621.4768    7427.6187      -0.0331       2.4259       9.4332       9.6556
   2571.7974    4635.5448       9.4332       0.0000
5197.9068
   5197.9068       8.5000    5197.6138      56.3827       5.8403    7272.5590
      9.0608       9.0638     944.6305    1117.2241       3.4227     783.7939
    619.6614    7495.8763      -0.0247       2.4202      11.1512      11.4838
   2337.5415    4518.6627      11.1512       0.0000
5197.7544
   5197.7544       8.5000    5197.4614      56.1747       5.8513    7299.6420
      9.0572       9.0568     910.5740    1161.2719       3.4206     783.0898
    632.5250    7476.6302      -0.0288       2.4177      11.4842      11.8711
   2298.6574    4489.6650      11.4842       0.0000
5197.6020
   5197.6020       8.5000    5197.3090      57.9960       5.8510    7325.0716
      9.0603       9.0607     913.2497    1166.9259       3.3815     789.3692
    653.6293    7568.8208      -0.0219       2.4115      12.8712      13.1858
   2164.1827    4477.1989      12.8712       0.0000
5197.4496
   5197.4496       8.5000    5197.1566      65.9296       5.8362    7361.6400
      9.0559       9.0564     907.7559    1171.8557       3.3667     772.5701
    657.9059    7627.1483      -0.0118       2.4082      12.9417      13.5340
   2129.1348    4418.3063      12.9417       0.0000
5197.2972
   5197.2972       8.5000    5197.0042      80.2642       5.8225    7395.8336
      9.0573       9.0580     923.3080    1204.9127       3.8759     775.4638
    620.2857    7644.5233      -0.0124       2.4010      13.7339      13.9103
   1880.8853    4106.1877      13.7339       0.0000
5197.1448
   5197.1448       8.5000    5196.8518      94.0318       5.8940    7382.8951
      9.0554       9.0550     820.2397    1083.2539       4.0787     679.2732
    545.8109    7080.1402      -0.0312       2.4444      15.8356      16.4776
   1625.3366    3743.3998      15.8356       0.0000
5196.9924
   5196.9924       8.5000    5196.6994     100.4297       5.9583    7335.4183
      9.0544       9.0559     706.3034     968.7156       4.3234     571.3765
    471.8796    6670.1973      -0.0727       2.5034      12.2825      13.1715
   1940.6583    3798.3861      12.2825       0.0000
