~VERSION INFORMATION
VERS.           2.0   :CWLS Log ASCII Standard - VERSION 2.0
WRAP.           NO    :One Line per depth step
PROD.  Schlumberger   :LAS Producer
PROG.  DLIS to ASCII 2.3                               :LAS Program name and version
CREA.        2023/07/14 00:15                          :LAS Creation date {YYYY/MM/DD hh:mm}
DLIS_CREA.  2023-Jul-14 00:11                          :DLIS Creation date and time {YYYY-MMM-DD hh:mm}
SOURCE.     LIS_008.dlis                               :DLIS File Name
FILE-ID.     LIS   .001                                :File Identification Number
#--------------------------------------------------
~WELL INFORMATION
#MNEM.UNIT      DATA             DESCRIPTION
#---- ------ --------------   -----------------------------
STRT .M      5286.4512       :START DEPTH     
STOP .M      5066.6904       :STOP DEPTH     
STEP .M        -0.1524       :STEP     
NULL .          -999.25      :NULL VALUE
COMP .        PETROBRAS S.A.                           :COMPANY
WELL .        3-BRSA-293D-SPS                          :WELL
FLD  .        BS-400                                   :FIELD
LOC  .        BASE SAD 69:                             :LOCATION
CNTY .        SANTOS                                   :COUNTY
STAT .        BRASIL                                   :STATE
CTRY .        BRASIL                                   :COUNTRY
API  .                                                 :API NUMBER
UWI  .                                                 :UNIQUE WELL ID
DATE .        15/11/2004                               :LOG DATE
SRVC .        Schlumberger                             :SERVICE COMPANY
LATI .DEG                                              :LATITUDE
LONG .DEG                                              :LONGITUDE
GDAT .                                                 :GeoDetic Datum
#-----------------------------------------------------------------------------
~PARAMETER INFORMATION
#MNEM.UNIT    VALUE                      DESCRIPTION
#---- -----   --------------------       ------------------------
APD  .M               24                 :
BHT  .DEGF           260                 :
BLI  .M             5289                 :
BS   .IN         8.50000                 :
CN   .        PETROBRAS S.A.             :
COUN .        SANTOS                     :
CS   .IN         9.62500                 :
DATE .        15/11/2004                 :
DFD  .LB/G      12.30000                 :
DFL  .C3               2                 :
DFPH .        N/A                        :
DFT  .        SINTETICO                  :
DFV  .S               95                 :
DMF  .        MESA ROTATIVA              :
EDF  .M               24                 :
EGL  .M             -500                 :
EKB  .        N/A                        :
ENGI .        HERNANDEZ / LOCK           :
FL1  .        X   7292392.00 M LAT 24 28 47.189 S :
FL2  .        Y    584087.00 M LON 44 10 12.698 W :
FL3  .        MC  45 GRAUS               :
FN   .        BS-400                     :
LMF  .        MESA ROTATIVA              :
LUL  .        MACAE                      :
MCSS .        PRENSA                     :
MCST .DEGF            80                 :
MFSS .        PRENSA                     :
MFST .DEGF            80                 :
MSS  .        LINHA DE FLUXO             :
MST  .DEGF            80                 :
PDAT .        NIVEL DO MAR               :
R1   .        01. APRESENTAÇÃO DE ACORDO COM REQUERIMENTO DO CLIENTE :
R2   .        02. TEMPERATURA MÁXIMA DO POÇO T1=T2= 290 DEGF @  5275 M :
R3   .        03. INICIO DA CIRCULAÇÃO  12/11/2004 09 00 H :
R4   .        04. FINAL DA CIRCULAÇÃO   12/11/2004 18 00 H :
R5   .        05. TEMPO TOTAL DE CIRCULAÇÃO   09 00 H :
R6   .        06. FLUIDO DE PERFURAÇÃO  SINTETICO (BR-MUL  BR-MI)  60% TEOR DO OLEO :
R7   .        07. SALINIDADE DA LAMA  254762 PPM NACL NA FASE DE AGUA :
R8   .        08. INCLINAÇÃO MÁXIMA DO POÇO  37.37 GRAUS @ 5100 M :
R9   .        09. PRIMEIRAS E ULTIMAS LEITURAS  :
RMB  .OHMM    > 10                       :
RMCS .OHMM    > 10                       :
RMFS .OHMM    > 10                       :
RMS  .OHMM    >10                        :
RUN  .                 2                 :
STAT .        BRASIL                     :
TCS  .        18 00 H                    :
TDD  .M             5288                 :
TDL  .M             5293                 :
TLAB .        N/A                        :
TLI  .M             5000                 :
WITN .        ERNANI / ZE MARIA          :
WN   .        3-BRSA-293D-SPS            :
LUN  .              8808                 :
HIDE .        3-SPS-41D                  :
HID2 .        HIGH DEFINITION INDUCTION LOG :
HID3 .        X-MULTIPOLE ARRAY ACOUSTILOG :
HID4 .        GAMMA RAY LOG              :
HID5 .        TTRM SUB                   :
CLAB .        BACIA                      :
SLAB .        PAIS                       :
CMT1 .        ESC  1 200                 :
CMT2 .        PROF. MEDIDA               :
CMT4 .        SONDA  SS-43               :
HDAT .        SAD 69                     :
FL   .        BASE SAD 69                :
OS1  .        RCI/GR                     :
OS2  .        CHECK SHOT                 :
OS3  .        GR/CN/ZDL                  :
OS5  .        RCOR/GR                    :
LNAM .        ZDL/CN/XMAC/HDIL/EARTH IMAGER/RCI/RCOR/CHECK SHOT/GR :
TOOL .        ZDL/CN/XMAC/HDIL/EARTH IMAGER/RCI/RCOR/CHECK SHOT/GR :
LSOU .        PETROBRAS                  :
LSRV .        OH WIRELINE                :
LTYP .        RAW                        :
EPD  .M                0                 :
LDAT .        15/11/2004                 :
TRIP .                 3                 :
SON  .            786588                 :
CBDR .M             4277                 :
CBLO .        NR                         :
CBL1 .        NR                         :
STEM .DEGF    N/A                        :
BSAL .            254762                 :
BARI .        OFF                        :
DLAB .        12/11/2004                 :
MRT  .DEGF           290                 :
TSTR .        HDIL/XMAC/GR/TTRM          :
TSTG .        N/A                        :
STUS .        FINAL                      :
LCNM .        BAKER ATLAS                :
LCC  .               150                 :
NATI .        BRASIL                     :
OPMD .        OH.WIRELINE                :
PANA .        HERNANDEZ / LOCK           :
PCON .        BAKER ATLAS                :
R11  .        SL     5268.3 M / 5000.0 M :
R12  .        GR     5268.3 M / 5000.0 M :
R13  .        XMAC   5279.5 M / 5000.0 M :
R14  .        HDIL   5289.0 M / 5000.0 M :
R17  .        11. DECLINAÇÃO MAGNETICA  -20.9 GRAUS :
R18  .        12. COORDENADAS BASE       :
R21  .        Y    583936.00 M           :
R22  .        MC  45 GRAUS               :
PVER .           4.10000                 :
WDFN .        /space/expusr/3-SPS-41D_RUN2/i77bf01_2spf.xtf :
OCT  .        i77bf                      :
OS4  .        EARTH IMAGER               :
R16  .        10. PONTO FRACO UTILIZADO  10K :
R20  .        X   7292512.00 M           :
R24  .        13. CADASTRO ANP  86316021017 :
#-----------------------------------------------------------------------------
~CURVE INFORMATION
#MNEM.UNIT   API CODE                                  DESCRIPTION
#---- -----  --------                                  -----------------------
DEPT .M                                                :DEPTH (BOREHOLE) {F10.4}
DEPT .M                                                : {F13.4}
DT   .US/F                                             : {F13.4}
SFN1 .US                                               : {F13.4}
SFN2 .US                                               : {F13.4}
SFN3 .US                                               : {F13.4}
SFN4 .US                                               : {F13.4}
TT   .MS                                               : {F13.4}
#-----------------------------------------------------------------------------
# 
#     DEPT        DEPT         DT           SFN1         SFN2         SFN3         SFN4         TT
#
~A  
# ...
 5190.1344    5190.1344      63.9102     685.8900     712.0471     749.4126     787.1380      19.9404
 5189.9820    5189.9820      64.7138     680.0214     711.7509     744.6423     568.7978      19.9728
 5189.8296    5189.8296      66.5447     680.0000     712.4975     750.6054     782.9195      20.0061
 5189.6772    5189.6772      68.5915     687.9768     716.1145     751.9960     784.4975      20.0404
 5189.5248    5189.5248      69.7956     688.0000     719.8655     752.0000     784.8740      20.0753
 5189.3724    5189.3724      69.5249     695.4838     720.8728     759.2343     784.9997      20.1101
 5189.2200    5189.2200      67.9567     695.9991     727.3633     759.9987     792.4865      20.1441
 5189.0676    5189.0676      65.7984     694.7518     726.2516     760.7489     791.6262      20.1770
 5188.9152    5188.9152      63.6970     691.1288     721.6299     760.0008     791.9996      20.2088
 5188.7628    5188.7628      62.0851     684.5046     720.0011     756.2526     617.7448      20.2399
 5188.6104    5188.6104      61.2875     684.7500     712.0000     753.7500     785.8750      20.2705
 5188.4580    5188.4580      61.5362     680.0000     712.2500     744.3750     784.3750      20.3013
 5188.3056    5188.3056      62.8628     673.7505     708.4981     745.1245     776.0003      20.3328
 5188.1532    5188.1532      64.8827     674.9984     704.0005     744.0000     776.6266      20.3652
 5188.0008    5188.0008      66.7837     673.0075     704.6309     744.0004     778.6227      20.3986
 5187.8484    5187.8484      67.7307     679.4685     709.7251     744.3732     776.6347      20.4323
 5187.6960    5187.6960      67.3802     680.2466     711.9898     746.4904     779.4870      20.4660
 5187.5436    5187.5436      65.9860     687.0965     712.6224     747.4959     779.7490      20.4990
 5187.3912    5187.3912      64.2538     684.1363     713.3722     747.5000     779.2519      20.5311
 5187.2388    5187.2388      62.8137     681.7581     712.7521     748.7457     776.6339      20.5625
 5187.0864    5187.0864      61.8791     680.0053     712.0023     748.6254     779.4913      20.5935
 5186.9340    5186.9340      61.4413     675.8860     711.6260     746.5057     779.1260      20.6242
 5186.7816    5186.7816      61.4260     673.2560     705.2646     744.3799     777.7532      20.6550
 5186.6292    5186.6292      61.6675     664.0178     697.0159     743.1274     778.4986      20.6858
 5186.4768    5186.4768      61.9738     657.0109     688.0140     725.0283     762.8994      20.7168
 5186.3244    5186.3244      62.2729     661.2449     689.4982     724.3757     757.1318      20.7479
 5186.1720    5186.1720      62.6764     661.8745     692.3726     726.6232     757.0001      20.7793
 5186.0196    5186.0196      63.4382     662.1249     690.0011     723.6264     754.0014      20.8110
 5185.8672    5185.8672      64.6644     797.1250     689.8750     724.6250     755.6250      20.8434
 5185.7148    5185.7148      65.9693     664.0000     839.6250     725.5000     753.7500      20.8764
 5185.5624    5185.5624      66.7882     670.8754     703.8720     730.5039     759.5033      20.9098
 5185.4100    5185.4100      66.9159     671.4942     699.2464     736.3733     764.5074      20.9432
 5185.2576    5185.2576      66.6595     665.8738     695.7569     734.7569     771.7498      20.9766
 5185.1052    5185.1052      66.5402     665.0040     700.7269     739.7269     771.6256      21.0097
 5184.9528    5184.9528      66.8266     667.3648     699.6298     736.0160     768.0155      21.0431
 5184.8004    5184.8004      67.3975     672.1064     701.9907     736.0000     769.3696      21.0768
 5184.6480    5184.6480      67.9869     672.0004     702.2491     736.2491     768.1294      21.1108
 5184.4956    5184.4956      68.5940     680.3485     708.3556     739.9881     768.0004      21.1451
 5184.3432    5184.3432      69.3305     684.4884     710.6187     743.4902     775.9776      21.1798
 5184.1908    5184.1908      70.0282     690.4854     721.5983     749.9842     779.2421      21.2148
 5184.0384    5184.0384      70.2546     693.9928     721.1260     755.2392     781.7448      21.2499
 5183.8860    5183.8860      69.7072     693.0017     724.9934     759.2432     789.7365      21.2848
 5183.7336    5183.7336      68.5912     697.6189     727.4967     762.3709     790.3742      21.3191
 5183.5812    5183.5812      67.6575     695.6269     725.3770     761.5008     790.8745      21.3530
 5183.4288    5183.4288      67.8618     695.9998     722.1269     755.0038     786.5026      21.3869
 5183.2764    5183.2764      69.5240     700.6250     728.1250     760.6250     792.0000      21.4217
 5183.1240    5183.1240      72.0212     701.1250     734.8750     765.7500     795.2500      21.4577
 5182.9716    5182.9716      74.2149     703.1276     735.2505     772.2500     801.5036      21.4948
 5182.8192    5182.8192      75.1353     708.1214     736.1262     772.2498     808.3743      21.5324
 5182.6668    5182.6668      74.7411     704.1416     737.5049     772.0080     807.6272      21.5698
 5182.5144    5182.5144      73.8357     717.3121     741.3566     778.3447     809.3667      21.6065
 5182.3620    5182.3620      73.1975     714.1393     747.3485     776.2594     813.3574      21.6431
 5182.2096    5182.2096      73.0420     721.3457     750.7364     787.9525     811.5076      21.6796
 5182.0572    5182.0572      73.1402     721.1259     755.3580     788.1245     826.4449      21.7162
 5181.9048    5181.9048      73.0636     720.1283     752.8833     793.4822     824.0083      21.7528
 5181.7524    5181.7524      72.3961     718.0062     748.8867     785.3988     820.3856      21.7890
 5181.6000    5181.6000      70.9244     716.6285     751.9920     785.9984     821.1231      21.8244
 5181.4476    5181.4476      68.7264     720.4915     753.2473     792.2363     823.1206      21.8588
 5181.2952    5181.2952      66.4773     704.0301     750.0059     788.1325     820.1305      21.8921
 5181.1428    5181.1428      65.2284     696.0117     728.0320     772.5228     808.0177      21.9247
 5180.9904    5180.9904      65.5025     693.0033     726.7514     760.0136     800.0087      21.9575
 5180.8380    5180.8380      66.7742     695.9978     730.7471     767.9943     798.7509      21.9909
 5180.6856    5180.6855      67.8487     700.6250     736.0000     776.0000     807.5000      22.0248
 5180.5332    5180.5332      67.9520     704.0000     738.0000     771.6250     804.1250      22.0588
 5180.3808    5180.3809      67.4083     696.0000     734.1250     766.8750     807.1250      22.0925
 5180.2284    5180.2284      67.1649     704.4935     791.9544     770.2483     810.7418      22.1261
 5180.0760    5180.0760      67.7459     696.0000     731.8743     768.0032     800.0057      22.1600
 5179.9236    5179.9236      68.7924     696.0000     731.2531     770.8610     805.1000      22.1942
 5179.7712    5179.7712      69.5167     697.3688     735.6051     776.1011     814.5818      22.2289
 5179.6188    5179.6188      69.4789     739.5731     745.8322     780.4817     804.2933      22.2637
 5179.4664    5179.4664      69.1925     688.1969     780.3682     768.0476     803.8764      22.2983
 5179.3140    5179.3140      69.3934     681.2732     721.2044     763.6400     800.0133      22.3330
 5179.1616    5179.1616      70.0528     686.2347     720.0031     760.0111     798.2554      22.3681
 5179.0092    5179.0092      70.3918     682.2608     719.8753     759.6260     797.5020      22.4033
 5178.8568    5178.8568      69.6812     680.0052     712.0183     752.0178     847.8824      22.4381
 5178.7044    5178.7044      68.2725     680.0000     707.6336     808.3893     848.1248      22.4723
 5178.5520    5178.5520      67.4892     680.0000     704.0058     739.7345     783.1035      22.5060
 5178.3996    5178.3996      68.1496     679.7503     704.0000     739.5002     778.2558      22.5401
 5178.2472    5178.2472      69.5717     695.7364     704.8743     743.9962     779.6238      22.5749
