~VERSION INFORMATION
VERS.           2.0   :CWLS Log ASCII Standard - VERSION 2.0
WRAP.           NO    :One Line per depth step
PROD.  Schlumberger   :LAS Producer
PROG.  DLIS to ASCII 2.3                               :LAS Program name and version
CREA.        2023/07/14 00:15                          :LAS Creation date {YYYY/MM/DD hh:mm}
DLIS_CREA.  2023-Jul-14 00:11                          :DLIS Creation date and time {YYYY-MMM-DD hh:mm}
SOURCE.     LIS_006.dlis                               :DLIS File Name
FILE-ID.     LIS   .002                                :File Identification Number
#--------------------------------------------------
~WELL INFORMATION
#MNEM.UNIT      DATA             DESCRIPTION
#---- ------ --------------   -----------------------------
STRT .M      5238.7500       :START DEPTH     
STOP .M      5087.2644       :STOP DEPTH     
STEP .M        -0.1524       :STEP     
NULL .          -999.25      :NULL VALUE
COMP .        Petrobras S.A.                           :COMPANY
WELL .        3-SPS-41D                                :WELL
FLD  .        MEXILHOES                                :FIELD
LOC  .                                                 :LOCATION
CNTY .                                                 :COUNTY
STAT .                                                 :STATE
CTRY .                                                 :COUNTRY
API  .                                                 :API NUMBER
UWI  .                                                 :UNIQUE WELL ID
DATE .                                                 :LOG DATE
SRVC .        Schlumberger                             :SERVICE COMPANY
LATI .DEG                                              :LATITUDE
LONG .DEG                                              :LONGITUDE
GDAT .                                                 :GeoDetic Datum
#-----------------------------------------------------------------------------
~PARAMETER INFORMATION
#MNEM.UNIT    VALUE                      DESCRIPTION
#---- -----   --------------------       ------------------------
CN   .        Petrobras S.A.             :
FN   .        MEXILHOES                  :
WN   .        3-SPS-41D                  :
LCC  .               150                 :
WDFN .        /space/expusr/3-SPS-41D/i77bf06_8spf.xtf :
OCT  .        i77bf                      :
RUN  .                                   :RUN NUMBER
PDAT .                                   :Permanent Datum
EPD  .                                   :Elevation of Permanent Datum above Mean Sea Level
LMF  .                                   :Logging Measured From (Name of Logging Elevation Reference)
APD  .                                   :Elevation of Depth Reference (LMF) above Permanent Datum
#-----------------------------------------------------------------------------
~CURVE INFORMATION
#MNEM.UNIT   API CODE                                  DESCRIPTION
#---- -----  --------                                  -----------------------
DEPT .M                                                :DEPTH (BOREHOLE) {F10.4}
DEPT .M                                                : {F13.4}
BIT  .IN                                               : {F13.4}
DEPM .M                                                : {F13.4}
SPD  .M/MN                                             : {F13.4}
CNC  .PU                                               : {F13.4}
CN   .PU                                               : {F13.4}
LSN  .HZ                                               : {F13.4}
SSN  .HZ                                               : {F13.4}
#-----------------------------------------------------------------------------
# 
#     DEPT        DEPT         BIT          DEPM         SPD          CNC          CN           LSN          SSN
#
~A  
# ...
 5110.7340    5110.7340       8.5000    5110.3395       5.3087      18.9923      19.9503    1303.6077    3236.2342
 5110.5816    5110.5816       8.5000    5110.1871       5.2853      19.8971      20.1074    1263.1058    3205.7226
 5110.4292    5110.4292       8.5000    5110.0347       5.2764      20.2406      20.8201    1230.1309    3142.4753
 5110.2768    5110.2768       8.5000    5109.8823       5.2948      20.2479      20.3663    1200.4611    3064.1765
 5110.1244    5110.1244       8.5000    5109.7299       5.3092      19.4257      19.6689    1193.1370    2980.8701
 5109.9720    5109.9720       8.5000    5109.5775       5.3173      19.3600      19.6530    1170.3942    2928.8787
 5109.8196    5109.8196       8.5000    5109.4251       5.3223      19.3078      19.9628    1173.2845    2957.7157
 5109.6672    5109.6672       8.5000    5109.2727       5.3330      21.0178      21.6344    1155.6131    3056.6139
 5109.5148    5109.5148       8.5000    5109.1203       5.3201      19.8444      18.8180    1247.0976    3219.5285
 5109.3624    5109.3624       8.5000    5108.9679       5.3039      13.2639      12.0214    1639.9242    3435.4108
 5109.2100    5109.2100       8.5000    5108.8164       5.2967       9.0840       8.9624    2064.5323    3618.0916
 5109.0576    5109.0576       8.5000    5108.6631       5.3029       8.9999       9.5798    2189.9860    3847.0545
 5108.9052    5108.9052       8.5000    5108.5107       5.2921      10.4455      11.1958    2202.8405    4112.0810
 5108.7528    5108.7528       8.5000    5108.3583       5.2813      13.7221      15.0459    1971.8294    4097.6467
 5108.6004    5108.6004       8.5000    5108.2059       5.3076      15.7071      15.8080    1717.7161    3767.9798
 5108.4480    5108.4480       8.5000    5108.0535       5.3749      15.2314      15.6479    1572.1423    3400.8862
 5108.2956    5108.2956       8.5000    5107.9011       5.3265      15.9326      16.4771    1428.5605    3210.5537
 5108.1432    5108.1432       8.5000    5107.7487       5.2844      16.7352      17.0979    1375.7173    3207.0727
 5107.9908    5107.9908       8.5000    5107.5963       5.2916      16.6157      16.8727    1398.9440    3250.7061
 5107.8384    5107.8384       8.5000    5107.4439       5.2996      16.4908      16.8534    1418.1502    3272.2253
 5107.6860    5107.6860       8.5000    5107.2915       5.3316      16.7335      16.9959    1403.5583    3256.5438
 5107.5336    5107.5336       8.5000    5107.1391       5.3170      16.2597      16.5267    1409.6660    3215.8254
 5107.3812    5107.3812       8.5000    5106.9867       5.2960      16.7297      17.4311    1362.9727    3150.5145
 5107.2288    5107.2288       8.5000    5106.8343       5.3341      18.2773      18.8559    1273.1335    3085.7060
 5107.0764    5107.0764       8.5000    5106.6819       5.3341      18.4269      18.5149    1257.4334    3082.1844
 5106.9240    5106.9240       8.5000    5106.5295       5.3151      17.4871      17.6515    1309.3770    3124.0600
 5106.7716    5106.7716       8.5000    5106.3771       5.2984      17.2688      17.7272    1331.7625    3153.4462
 5106.6192    5106.6192       8.5000    5106.2247       5.2944      17.7184      18.1184    1324.4236    3181.6917
 5106.4668    5106.4668       8.5000    5106.0723       5.3085      18.3412      18.8184    1318.2356    3223.6215
 5106.3144    5106.3144       8.5000    5105.9199       5.3231      18.3640      18.6384    1325.3069    3236.0919
 5106.1620    5106.1620       8.5000    5105.7675       5.3279      18.3610      18.7662    1325.6401    3232.3915
 5106.0096    5106.0096       8.5000    5105.6151       5.3618      18.9616      19.4896    1292.5022    3195.2571
 5105.8572    5105.8572       8.5000    5105.4627       5.3459      19.3638      19.6117    1255.0260    3136.1420
 5105.7048    5105.7048       8.5000    5105.3103       5.2980      18.6951      18.8831    1259.3550    3095.3301
 5105.5524    5105.5524       8.5000    5105.1579       5.3092      18.8582      19.5441    1244.7119    3077.1205
 5105.4000    5105.4000       8.5000    5105.0055       5.3151      20.4115      21.0532    1189.8944    3072.7106
 5105.2476    5105.2476       8.5000    5104.8531       5.3110      20.9939      21.2367    1180.1460    3101.4962
 5105.0952    5105.0952       8.5000    5104.7007       5.3112      19.8229      19.7080    1232.4024    3138.5581
 5104.9428    5104.9428       8.5000    5104.5483       5.2942      18.9487      19.3246    1266.8207    3141.3077
 5104.7904    5104.7904       8.5000    5104.3959       5.3427      18.2324      18.2009    1287.9685    3129.3010
 5104.6380    5104.6380       8.5000    5104.2435       5.3427      18.0048      18.6087    1297.2013    3138.0297
 5104.4856    5104.4856       8.5000    5104.0911       5.3112      18.2880      18.3465    1294.6388    3156.7353
 5104.3332    5104.3332       8.5000    5103.9387       5.2939      17.3196      17.5870    1339.5411    3172.7632
 5104.1808    5104.1808       8.5000    5103.7853       5.2987      17.7284      18.2263    1319.7823    3153.3571
 5104.0284    5104.0284       8.5000    5103.6348       5.2850      17.8349      18.0352    1303.1554    3132.9034
 5103.8760    5103.8760       8.5000    5103.4824       5.2641      17.4199      17.5317    1348.2589    3250.0192
 5103.7236    5103.7236       8.5000    5103.3300       5.2487      16.0377      16.0703    1523.5652    3544.9360
 5103.5712    5103.5712       8.5000    5103.1767       5.2373      15.9765      16.5907    1653.9496    3795.4555
 5103.4188    5103.4188       8.5000    5103.0243       5.1827      17.1529      17.5796    1617.3071    3773.2983
 5103.2664    5103.2664       8.5000    5102.8719       5.1412      17.0670      17.3513    1529.9494    3521.6161
 5103.1140    5103.1140       8.5000    5102.7195       5.1354      17.5902      18.1163    1394.8582    3279.0593
 5102.9616    5102.9616       8.5000    5102.5671       5.0949      17.5828      17.7626    1340.4321    3188.2922
 5102.8092    5102.8092       8.5000    5102.4147       4.9928      18.1834      19.0534    1315.7273    3199.2292
 5102.6568    5102.6568       8.5000    5102.2623       4.9219      19.6456      19.9235    1262.4100    3180.9567
 5102.5044    5102.5044       8.5000    5102.1099       4.8535      19.1161      19.2437    1255.1514    3109.4434
 5102.3520    5102.3520       8.5000    5101.9575       4.7779      18.5739      18.9687    1252.0414    3072.3443
 5102.1996    5102.1996       8.5000    5101.8051       4.6277      19.2928      19.7995    1231.2953    3088.2792
 5102.0472    5102.0472       8.5000    5101.6527       4.4648      19.4994      19.8268    1228.5391    3094.4367
 5101.8948    5101.8948       8.5000    5101.5003       4.3828      20.0285      20.5849    1211.2990    3097.5660
 5101.7424    5101.7424       8.5000    5101.3479       4.3590      19.6985      19.5740    1231.6408    3127.7816
 5101.5900    5101.5900       8.5000    5101.1955       4.2183      18.4637      18.7095    1287.6084    3155.2121
 5101.4376    5101.4376       8.5000    5101.0434       4.2292      17.8551      17.9548    1310.1284    3145.0549
 5101.2852    5101.2852       8.5000    5100.8916       4.0336      17.6594      18.2315    1311.7657    3137.1409
 5101.1328    5101.1328       8.5000    5100.7383       3.7917      18.8650      19.4823    1272.4010    3152.9200
 5100.9804    5100.9804       8.5000    5100.5859       3.5188      19.7054      20.0112    1242.5780    3139.1616
 5100.8280    5100.8280       8.5000    5100.4335       3.3969      18.9579      19.0405    1249.6866    3089.5153
 5100.6756    5100.6756       8.5000    5100.2811       3.2889      18.5076      18.9621    1253.6779    3071.0278
 5100.5232    5100.5232       8.5000    5100.1287       2.8834      18.7595      18.8587    1247.2809    3084.5478
 5100.3708    5100.3708       8.5000    5099.9763       2.0074      17.7183      18.0378    1297.7604    3117.0135
 5100.2184    5100.2184       8.5000    5099.8239       2.2406      18.8336      19.6665    1275.5726    3167.3564
