~VERSION INFORMATION
VERS.           2.0   :CWLS Log ASCII Standard - VERSION 2.0
WRAP.           NO    :One Line per depth step
PROD.  Schlumberger   :LAS Producer
PROG.  DLIS to ASCII 2.3                               :LAS Program name and version
CREA.        2023/07/14 00:15                          :LAS Creation date {YYYY/MM/DD hh:mm}
DLIS_CREA.  2023-Jul-14 00:11                          :DLIS Creation date and time {YYYY-MMM-DD hh:mm}
SOURCE.     LIS_003.dlis                               :DLIS File Name
FILE-ID.     LIS   .003                                :File Identification Number
#--------------------------------------------------
~WELL INFORMATION
#MNEM.UNIT      DATA             DESCRIPTION
#---- ------ --------------   -----------------------------
STRT .M      5239.8168       :START DEPTH     
STOP .M      3827.6784       :STOP DEPTH     
STEP .M        -0.1524       :STEP     
NULL .          -999.25      :NULL VALUE
COMP .        PETROBRAS S.A.                           :COMPANY
WELL .        3-BRSA-293D-SPS                          :WELL
FLD  .        BS-400                                   :FIELD
LOC  .        BASE SAD 69:                             :LOCATION
CNTY .        SANTOS                                   :COUNTY
STAT .        BRASIL                                   :STATE
CTRY .        BRASIL                                   :COUNTRY
API  .                                                 :API NUMBER
UWI  .                                                 :UNIQUE WELL ID
DATE .        22/10/2004                               :LOG DATE
SRVC .        Schlumberger                             :SERVICE COMPANY
LATI .DEG                                              :LATITUDE
LONG .DEG                                              :LONGITUDE
GDAT .                                                 :GeoDetic Datum
#-----------------------------------------------------------------------------
~PARAMETER INFORMATION
#MNEM.UNIT    VALUE                      DESCRIPTION
#---- -----   --------------------       ------------------------
APD  .M               24                 :
BHT  .DEGF           260                 :
BLI  .M       5227.50000                 :
BS   .IN         8.50000                 :
CN   .        PETROBRAS S.A.             :
COUN .        SANTOS                     :
CS   .IN         9.62500                 :
DATE .        22/10/2004                 :
DFD  .LB/G      12.30000                 :
DFL  .C3               2                 :
DFPH .        N/A                        :
DFT  .        SINTETICO                  :
DFV  .S               87                 :
DMF  .        MESA ROTATIVA              :
EDF  .M               24                 :
EGL  .M             -500                 :
EKB  .        N/A                        :
ENGI .        HERNANDEZ/LOCK             :
FL1  .        X   7292392.00 M LAT 24 28 47.189 S :
FL2  .        Y    584087.00 M LON 44 10 12.698 W :
FL3  .        MC  45 GRAUS               :
FN   .        BS-400                     :
LMF  .        MESA ROTATIVA              :
LUL  .        MACAE                      :
MCSS .        PRENSA                     :
MCST .DEGF            80                 :
MFSS .        PRENSA                     :
MFST .DEGF            80                 :
MSS  .        LINHA DE FLUXO             :
MST  .DEGF            80                 :
PDAT .        NIVEL DO MAR               :
R1   .        01. APRESENTAÇÃO DE ACORDO COM REQUERIMENTO DO CLIENTE :
R2   .        02. TEMPERATURA MÁXIMA DO POÇO T1=T2= 260 DEGF @  5180 M :
R3   .        03. INICIO DA CIRCULAÇÃO  13 45 H 21/10/2004 :
R4   .        04. FINAL DA CIRCULAÇÃO   16 00 H 21/10/2004 :
R5   .        05. TEMPO TOTAL DE CIRCULAÇÃO  02 15 H :
R6   .        06. FLUIDO DE PERFURAÇÃO  SINTETICO (BR-MUL  BR-MI)  65% TEOR DO OLEO :
R7   .        07. SALINIDADE DA LAMA  266377 PPM NACL NA FASE DE AGUA :
R8   .        08. INCLINAÇÃO MÁXIMA DO POÇO  37.37 GRAUS @ 5100 M :
R9   .        09. PRIMEIRAS E ULTIMAS LEITURAS  :
RMB  .OHMM    > 10                       :
RMCS .OHMM    > 10                       :
RMFS .OHMM    > 10                       :
RMS  .OHMM    > 10                       :
RUN  .                 1                 :
STAT .        BRASIL                     :
TCS  .        16 00 H                    :
TDD  .M             5230                 :
TDL  .M             5231                 :
TLAB .        N/A                        :
TLI  .M             3850                 :
WITN .        ALCIDIO/VLADIMIR           :
WN   .        3-BRSA-293D-SPS            :
LUN  .              8808                 :
HIDE .        3-SPS-41D                  :
HID2 .        HIGH DEFINITION INDUCTION LOG :
HID3 .        X-MULTIPOLE ARRAY ACOUSTILOG :
HID4 .        GAMMA RAY LOG              :
HID5 .        TTRM SUB                   :
CLAB .        BACIA                      :
SLAB .        PAIS                       :
CMT1 .        ESC  1 1000                :
CMT2 .        PROF. MEDIDA               :
CMT4 .        SONDA  SS-43               :
HDAT .        SAD 69                     :
FL   .        BASE SAD 69                :
OS1  .        GR/CN/ZDL                  :
OS2  .        MREX/GR                    :
OS3  .        RCI/GR                     :
0S4  .        3DEX/GR                    :
OS5  .        SL/GR                      :
LNAM .        MREX/ZDL/CN/XMAC/HDIL/RCI/3DEX/SL/GR :
TOOL .        MREX/ZDL/CN/XMAC/HDIL/RCI/3DEX/SL/GR :
LSOU .        PETROBRAS                  :
LSRV .        OH WIRELINE                :
LTYP .        RAW                        :
EPD  .M                0                 :
LDAT .        22/10/2004                 :
TRIP .                 1                 :
SON  .            772317                 :
CBDR .M             4277                 :
CBLO .M             4277                 :
CBL1 .M             4277                 :
STEM .DEGF    N/A                        :
BSAL .            266377                 :
BARI .        OFF                        :
DLAB .        21/10/2004                 :
MRT  .DEGF           260                 :
TSTR .        HDIL/XMAC/GR/TTRM          :
TSTG .        N/A                        :
STUS .        FINAL                      :
LCNM .        BAKER ATLAS                :
LCC  .               150                 :
NATI .        BRASIL                     :
OPMD .        OH.WIRELINE                :
PANA .        HERNANDEZ/LOCK             :
PCON .        BAKER ATLAS                :
R11  .        SL     5196.0 M/4960.0 M   :
R12  .        GR     4960.0 M/4277.0 M   :
R13  .        XMAC   5202.0 M/3850.0 M   :
R14  .        HDIL   5227.5 M/4277.0 M   :
R15  .        3DEX   5217.0 M/4960.0 M   :
R17  .        10. PONTO FRACO UTILIZADO  10K :
R18  .        11. DECLINAÇÃO MAGNETICA  -20.9 GRAUS :
R19  .        12. COORDENADAS ARATU      :
R21  .        X   7292512.00 M           :
R22  .        Y    583936.00 M           :
R23  .        MC  45 GRAUS               :
R25  .        13. CADASTRO ANP  86316021017 :
PVER .           4.10000                 :
WDFN .        /space/expusr/3-SPS-41D/i77bf03_2spf.xtf :
OCT  .        i77bf                      :
#-----------------------------------------------------------------------------
~CURVE INFORMATION
#MNEM.UNIT   API CODE                                  DESCRIPTION
#---- -----  --------                                  -----------------------
DEPT .M                                                :DEPTH (BOREHOLE) {F10.4}
DEPT .M                                                : {F13.4}
DT   .US/F                                             : {F13.4}
SFN1 .US                                               : {F13.4}
SFN2 .US                                               : {F13.4}
SFN3 .US                                               : {F13.4}
SFN4 .US                                               : {F13.4}
TT   .MS                                               : {F13.4}
#-----------------------------------------------------------------------------
# 
#     DEPT        DEPT         DT           SFN1         SFN2         SFN3         SFN4         TT
#
~A  
# ...
 5215.7376    5215.7376    -999.2500    -999.2500    -999.2500    -999.2500    -999.2500    -999.2500
 5215.5852    5215.5852    -999.2500    -999.2500    -999.2500    -999.2500    -999.2500    -999.2500
 5215.4328    5215.4328    -999.2500    -999.2500    -999.2500    -999.2500    -999.2500    -999.2500
 5215.2804    5215.2804    -999.2500    -999.2500    -999.2500    -999.2500    -999.2500    -999.2500
 5215.1280    5215.1280    -999.2500    -999.2500    -999.2500    -999.2500    -999.2500    -999.2500
 5214.9756    5214.9756    -999.2500    -999.2500    -999.2500    -999.2500    -999.2500    -999.2500
 5214.8232    5214.8232    -999.2500    -999.2500    -999.2500    -999.2500    -999.2500    -999.2500
 5214.6708    5214.6708    -999.2500    -999.2500    -999.2500    -999.2500    -999.2500    -999.2500
 5214.5184    5214.5184    -999.2500    -999.2500    -999.2500    -999.2500    -999.2500    -999.2500
 5214.3660    5214.3660    -999.2500    -999.2500    -999.2500    -999.2500    -999.2500    -999.2500
 5214.2136    5214.2136    -999.2500    -999.2500    -999.2500    -999.2500    -999.2500    -999.2500
 5214.0612    5214.0612    -999.2500    -999.2500    -999.2500    -999.2500    -999.2500    -999.2500
 5213.9088    5213.9088    -999.2500    -999.2500    -999.2500    -999.2500    -999.2500    -999.2500
 5213.7564    5213.7564    -999.2500    -999.2500    -999.2500    -999.2500    -999.2500    -999.2500
 5213.6040    5213.6040    -999.2500    -999.2500    -999.2500    -999.2500    -999.2500    -999.2500
 5213.4516    5213.4516    -999.2500    -999.2500    -999.2500    -999.2500    -999.2500    -999.2500
 5213.2992    5213.2992    -999.2500    -999.2500    -999.2500    -999.2500    -999.2500    -999.2500
 5213.1468    5213.1468    -999.2500    -999.2500    -999.2500    -999.2500    -999.2500    -999.2500
 5212.9944    5212.9944    -999.2500    -999.2500    -999.2500    -999.2500    -999.2500    -999.2500
 5212.8420    5212.8420    -999.2500    -999.2500    -999.2500    -999.2500    -999.2500    -999.2500
 5212.6896    5212.6896    -999.2500    -999.2500    -999.2500    -999.2500    -999.2500    -999.2500
 5212.5372    5212.5372    -999.2500    -999.2500    -999.2500    -999.2500    -999.2500    -999.2500
 5212.3848    5212.3848    -999.2500    -999.2500    -999.2500    -999.2500    -999.2500    -999.2500
 5212.2324    5212.2324    -999.2500    -999.2500    -999.2500    -999.2500    -999.2500    -999.2500
 5212.0800    5212.0800    -999.2500    -999.2500    -999.2500    -999.2500    -999.2500    -999.2500
 5211.9276    5211.9276    -999.2500    -999.2500    -999.2500    -999.2500    -999.2500    -999.2500
 5211.7752    5211.7752    -999.2500    -999.2500    -999.2500    -999.2500    -999.2500    -999.2500
 5211.6228    5211.6228    -999.2500    -999.2500    -999.2500    -999.2500    -999.2500    -999.2500
 5211.4704    5211.4704    -999.2500    -999.2500    -999.2500    -999.2500    -999.2500    -999.2500
 5211.3180    5211.3180    -999.2500    -999.2500    -999.2500    -999.2500    -999.2500    -999.2500
 5211.1656    5211.1656    -999.2500    -999.2500    -999.2500    -999.2500    -999.2500    -999.2500
 5211.0132    5211.0132    -999.2500    -999.2500    -999.2500    -999.2500    -999.2500    -999.2500
 5210.8608    5210.8608    -999.2500    -999.2500    -999.2500    -999.2500    -999.2500    -999.2500
 5210.7084    5210.7084    -999.2500    -999.2500    -999.2500    -999.2500    -999.2500    -999.2500
 5210.5560    5210.5560    -999.2500    -999.2500    -999.2500    -999.2500    -999.2500    -999.2500
 5210.4036    5210.4036    -999.2500 -999999.9999    -999.2500    -999.2500    -999.2500    -999.2500
 5210.2512    5210.2512    -999.2500     664.2496 -999999.9999    -999.2500    -999.2500    -999.2500
 5210.0988    5210.0988    -999.2500     664.1251     694.6250 -999999.9999    -999.2500    -999.2500
 5209.9464    5209.9464    -999.2500     664.0001     694.6250     728.0000 -999999.9999    -999.2500
 5209.7940    5209.7939    -999.2500     664.1250     694.6250     728.0000     758.6250    -999.2500
 5209.6416    5209.6416    -999.2500     664.1250     694.7500     728.0000     758.6250    -999.2500
 5209.4892    5209.4893    -999.2500     664.1250     694.7500     728.0000     758.6250    -999.2500
 5209.3368    5209.3368    -999.2500     664.1251     694.6251     728.0000     758.5002    -999.2500
 5209.1844    5209.1844    -999.2500     664.2499     694.7499     728.0000     758.7499    -999.2500
 5209.0320    5209.0320    -999.2500     664.1250     694.6250     728.0000     758.6250    -999.2500
 5208.8796    5208.8796 -999999.9999     664.1250     694.6250     728.0000     758.6250 -959237.6127
 5208.7272    5208.7272      63.0744     664.1250     694.6250     728.0000     758.6250       0.0316
 5208.5748    5208.5748      63.0676     664.1250     694.6250     728.0000     758.6250       0.0630
 5208.4224    5208.4224      63.0566     664.1250     694.7496     728.0000     758.6250       0.0945
 5208.2700    5208.2700      63.0426     664.1250     694.7500     728.0000     758.6250       0.1260
 5208.1176    5208.1176      63.0245     664.1250     694.8747     728.0000     758.7497       0.1575
 5207.9652    5207.9652      63.0032     664.1250     694.7503     728.0000     758.6253       0.1891
 5207.8128    5207.8128      62.9810     664.3745     694.6252     728.0000     758.7498       0.2206
 5207.6604    5207.6604      62.9636     664.4998     694.8746     728.0000     758.6252       0.2521
 5207.5080    5207.5080      62.9575     664.6248     695.1247     728.0000     758.6250       0.2835
 5207.3556    5207.3556      62.9637     664.5001     695.3748     728.0000     758.7499       0.3150
 5207.2032    5207.2032      62.9780     664.6249     695.2501     728.0000     758.9999       0.3465
 5207.0508    5207.0508      62.9931     664.6250     695.2500     728.0000     759.2500       0.3781
 5206.8984    5206.8984      63.0034     664.5000     695.1250     728.0000     759.1250       0.4096
 5206.7460    5206.7460      63.0102     664.3749     695.1249     728.0000     759.1250       0.4411
 5206.5936    5206.5936      63.0177     664.2500     695.0000     728.0000     759.1249       0.4726
 5206.4412    5206.4412      63.0239     664.2497     694.9998     728.0000     758.9998       0.5041
 5206.2888    5206.2888      63.0185     664.0000     694.8748     728.0000     758.8750       0.5356
 5206.1364    5206.1364      62.9918     664.0000     694.7497     728.0000     758.8747       0.5672
 5205.9840    5205.9840      62.9377     664.0000     694.6255     728.0000     758.7505       0.5984
 5205.8316    5205.8316      62.8744     664.0000     694.7496     728.0000     758.7500       0.6299
 5205.6792    5205.6792      62.8668     664.0000     694.6254     728.0000     758.6254       0.6613
 5205.5268    5205.5268      63.0007     664.0000     694.5004     728.0000     758.5004       0.6928
 5205.3744    5205.3744      63.3450     664.0000     694.5000     728.0000     758.5000       0.7245
 5205.2220    5205.2220      63.8470     664.0000     694.5000     728.0000     758.5000       0.7565
 5205.0696    5205.0696      64.2799     664.0000     694.3752     728.0000     758.3752       0.7886
 5204.9172    5204.9172      64.3969     664.0000     694.4998     728.0000     758.4998       0.8208
 5204.7648    5204.7648      64.1604     664.0000     694.6249     728.0000     758.5000       0.8529
 5204.6124    5204.6124      63.7546     664.0000     694.3752     728.0000     758.3751       0.8848
 5204.4600    5204.4600      63.3659     664.0000     694.5000     728.0000     758.3750       0.9165
 5204.3076    5204.3076      63.0339     664.0000     694.3750     728.0000     758.5000       0.9480
 5204.1552    5204.1552      62.6659     664.0000     694.3751     728.0000     758.5001       0.9794
 5204.0028    5204.0028      62.2670     664.0000     694.4998     728.0000     758.6248       1.0105
 5203.8504    5203.8504      62.0605     664.0000     694.2500     728.0000     758.3748       1.0416
