~VERSION INFORMATION
VERS.           2.0   :CWLS Log ASCII Standard - VERSION 2.0
WRAP.           NO    :One Line per depth step
PROD.  Schlumberger   :LAS Producer
PROG.  DLIS to ASCII 2.3                               :LAS Program name and version
CREA.        2023/07/14 00:15                          :LAS Creation date {YYYY/MM/DD hh:mm}
DLIS_CREA.  2023-Jul-14 00:11                          :DLIS Creation date and time {YYYY-MMM-DD hh:mm}
SOURCE.     LIS_009.dlis                               :DLIS File Name
FILE-ID.     LIS   .002                                :File Identification Number
#--------------------------------------------------
~WELL INFORMATION
#MNEM.UNIT      DATA             DESCRIPTION
#---- ------ --------------   -----------------------------
STRT .M      5301.9960       :START DEPTH     
STOP .M      5058.6132       :STOP DEPTH     
STEP .M        -0.1524       :STEP     
NULL .          -999.25      :NULL VALUE
COMP .        PETROBRAS S.A.                           :COMPANY
WELL .        3-BRSA-293D-SPS                          :WELL
FLD  .        BS-400                                   :FIELD
LOC  .        BASE SAD 69:                             :LOCATION
CNTY .        SANTOS                                   :COUNTY
STAT .        BRASIL                                   :STATE
CTRY .        BRASIL                                   :COUNTRY
API  .                                                 :API NUMBER
UWI  .                                                 :UNIQUE WELL ID
DATE .        15/11/2004                               :LOG DATE
SRVC .        Schlumberger                             :SERVICE COMPANY
LATI .DEG                                              :LATITUDE
LONG .DEG                                              :LONGITUDE
GDAT .                                                 :GeoDetic Datum
#-----------------------------------------------------------------------------
~PARAMETER INFORMATION
#MNEM.UNIT    VALUE                      DESCRIPTION
#---- -----   --------------------       ------------------------
APD  .M               24                 :
BHT  .DEGF           260                 :
BLI  .M             5289                 :
BS   .IN         8.50000                 :
CN   .        PETROBRAS S.A.             :
COUN .        SANTOS                     :
CS   .IN         9.62500                 :
DATE .        15/11/2004                 :
DFD  .LB/G      12.30000                 :
DFL  .C3               2                 :
DFPH .        N/A                        :
DFT  .        SINTETICO                  :
DFV  .S               95                 :
DMF  .        MESA ROTATIVA              :
EDF  .M               24                 :
EGL  .M             -500                 :
EKB  .        N/A                        :
ENGI .        HERNANDEZ / LOCK           :
FL1  .        X   7292392.00 M LAT 24 28 47.189 S :
FL2  .        Y    584087.00 M LON 44 10 12.698 W :
FL3  .        MC  45 GRAUS               :
FN   .        BS-400                     :
LMF  .        MESA ROTATIVA              :
LUL  .        MACAE                      :
MCSS .        PRENSA                     :
MCST .DEGF            80                 :
MFSS .        PRENSA                     :
MFST .DEGF            80                 :
MSS  .        LINHA DE FLUXO             :
MST  .DEGF            80                 :
PDAT .        NIVEL DO MAR               :
R1   .        01. APRESENTAÇÃO DE ACORDO COM REQUERIMENTO DO CLIENTE :
R2   .        02. TEMPERATURA MÁXIMA DO POÇO T1=T2= 290 DEGF @  5275 M :
R3   .        03. INICIO DA CIRCULAÇÃO  12/11/2004 09 00 H :
R4   .        04. FINAL DA CIRCULAÇÃO   12/11/2004 18 00 H :
R5   .        05. TEMPO TOTAL DE CIRCULAÇÃO   09 00 H :
R6   .        06. FLUIDO DE PERFURAÇÃO  SINTETICO (BR-MUL  BR-MI)  60% TEOR DO OLEO :
R7   .        07. SALINIDADE DA LAMA  254762 PPM NACL NA FASE DE AGUA :
R8   .        08. INCLINAÇÃO MÁXIMA DO POÇO  37.37 GRAUS @ 5100 M :
R9   .        09. PRIMEIRAS E ULTIMAS LEITURAS  :
RMB  .OHMM    > 10                       :
RMCS .OHMM    > 10                       :
RMFS .OHMM    > 10                       :
RMS  .OHMM    >10                        :
RUN  .                 2                 :
STAT .        BRASIL                     :
TCS  .        18 00 H                    :
TDD  .M             5288                 :
TDL  .M             5293                 :
TLAB .        N/A                        :
TLI  .M             5000                 :
WITN .        ERNANI / ZE MARIA          :
WN   .        3-BRSA-293D-SPS            :
LUN  .              8808                 :
HIDE .        3-SPS-41D                  :
HID2 .        HIGH DEFINITION INDUCTION LOG :
HID3 .        X-MULTIPOLE ARRAY ACOUSTILOG :
HID4 .        GAMMA RAY LOG              :
HID5 .        TTRM SUB                   :
CLAB .        BACIA                      :
SLAB .        PAIS                       :
CMT1 .        ESC  1 200                 :
CMT2 .        PROF. MEDIDA               :
CMT4 .        SONDA  SS-43               :
HDAT .        SAD 69                     :
FL   .        BASE SAD 69                :
OS1  .        RCI/GR                     :
OS2  .        CHECK SHOT                 :
OS3  .        GR/CN/ZDL                  :
OS5  .        RCOR/GR                    :
LNAM .        ZDL/CN/XMAC/HDIL/EARTH IMAGER/RCI/RCOR/CHECK SHOT/GR :
TOOL .        ZDL/CN/XMAC/HDIL/EARTH IMAGER/RCI/RCOR/CHECK SHOT/GR :
LSOU .        PETROBRAS                  :
LSRV .        OH WIRELINE                :
LTYP .        RAW                        :
EPD  .M                0                 :
LDAT .        15/11/2004                 :
TRIP .                 3                 :
SON  .            786588                 :
CBDR .M             4277                 :
CBLO .        NR                         :
CBL1 .        NR                         :
STEM .DEGF    N/A                        :
BSAL .            254762                 :
BARI .        OFF                        :
DLAB .        12/11/2004                 :
MRT  .DEGF           290                 :
TSTR .        HDIL/XMAC/GR/TTRM          :
TSTG .        N/A                        :
STUS .        FINAL                      :
LCNM .        BAKER ATLAS                :
LCC  .               150                 :
NATI .        BRASIL                     :
OPMD .        OH.WIRELINE                :
PANA .        HERNANDEZ / LOCK           :
PCON .        BAKER ATLAS                :
R11  .        SL     5268.3 M / 5000.0 M :
R12  .        GR     5268.3 M / 5000.0 M :
R13  .        XMAC   5279.5 M / 5000.0 M :
R14  .        HDIL   5289.0 M / 5000.0 M :
R17  .        11. DECLINAÇÃO MAGNETICA  -20.9 GRAUS :
R18  .        12. COORDENADAS BASE       :
R21  .        Y    583936.00 M           :
R22  .        MC  45 GRAUS               :
PVER .           4.10000                 :
WDFN .        /space/expusr/3-SPS-41D_RUN2/i77bf01_4spf.xtf :
OCT  .        i77bf                      :
OS4  .        EARTH IMAGER               :
R16  .        10. PONTO FRACO UTILIZADO  10K :
R20  .        X   7292512.00 M           :
R24  .        13. CADASTRO ANP  86316021017 :
#-----------------------------------------------------------------------------
~CURVE INFORMATION
#MNEM.UNIT   API CODE                                  DESCRIPTION
#---- -----  --------                                  -----------------------
DEPT .M                                                :DEPTH (BOREHOLE) {F10.4}
DEPT .M                                                : {F13.4}
BIT  .IN                                               : {F13.4}
GR   .GAPI                                             : {F13.4}
M2R1 .OHMM                                             : {F13.4}
M2R2 .OHMM                                             : {F13.4}
M2R3 .OHMM                                             : {F13.4}
M2R6 .OHMM                                             : {F13.4}
M2R9 .OHMM                                             : {F13.4}
M2RX .OHMM                                             : {F13.4}
SPD  .M/MN                                             : {F13.4}
TEN  .LBF                                              : {F13.4}
TTEN .LBF                                              : {F13.4}
#-----------------------------------------------------------------------------
# 
#     DEPT        DEPT         BIT          GR           M2R1         M2R2         M2R3         M2R6         M2R9         M2RX         SPD          TEN          TTEN
#
~A  
# ...
 5184.9528    5184.9528       8.5000      69.0387       1.9100       2.2217       2.2784       2.2762       2.2261       2.2360       4.7897     -32.3362    7543.9369
 5184.8004    5184.8004       8.5000      69.4324       1.6897       2.0213       2.0934       2.0886       2.0449       2.0426       4.7827     -44.9298    7530.5878
 5184.6480    5184.6480       8.5000      70.8282       1.5381       1.8849       1.9726       1.9683       1.9306       1.9212       4.7727     -51.8896    7522.6967
 5184.4956    5184.4956       8.5000      71.5734       1.4428       1.8004       1.9025       1.9008       1.8684       1.8548       4.7690     -51.3161    7522.3212
 5184.3432    5184.3432       8.5000      71.3126       1.3877       1.7514       1.8662       1.8684       1.8409       1.8251       4.7777     -49.4545    7523.2917
 5184.1908    5184.1908       8.5000      71.3645       1.3597       1.7257       1.8503       1.8566       1.8336       1.8171       4.8015     -62.0514    7509.6964
 5184.0384    5184.0384       8.5000      72.8563       1.3471       1.7121       1.8435       1.8532       1.8344       1.8184       4.8045     -89.7198    7480.6283
 5183.8860    5183.8860       8.5000      74.6930       1.3467       1.7083       1.8431       1.8549       1.8398       1.8252       4.7651    -108.8905    7459.6373
 5183.7336    5183.7336       8.5000      75.3061       1.3572       1.7128       1.8486       1.8609       1.8490       1.8363       4.7303    -106.0663    7460.5225
 5183.5812    5183.5812       8.5000      75.1521       1.3680       1.7129       1.8469       1.8585       1.8490       1.8387       4.7288     -91.2255    7473.5979
 5183.4288    5183.4288       8.5000      73.9715       1.3700       1.7005       1.8308       1.8407       1.8331       1.8251       4.7332     -79.9531    7483.3402
 5183.2764    5183.2764       8.5000      71.0993       1.3732       1.6935       1.8206       1.8285       1.8222       1.8162       4.7300     -73.7397    7488.1807
 5183.1240    5183.1240       8.5000      67.8968       1.3947       1.7165       1.8435       1.8498       1.8442       1.8396       4.7313     -72.5293    7488.1162
 5182.9716    5182.9716       8.5000      66.1516       1.4331       1.7681       1.8977       1.9026       1.8974       1.8937       4.7372     -88.9126    7470.3422
 5182.8192    5182.8192       8.5000      65.8166       1.4628       1.8124       1.9442       1.9483       1.9436       1.9402       4.7539    -119.3519    7438.0349
 5182.6668    5182.6668       8.5000      65.5542       1.4586       1.8122       1.9423       1.9457       1.9416       1.9381       4.7711    -128.1223    7426.9797
 5182.5144    5182.5144       8.5000      64.7277       1.4301       1.7752       1.8996       1.9025       1.8992       1.8954       4.7725    -109.2871    7443.5954
 5182.3620    5182.3620       8.5000      63.9450       1.4174       1.7499       1.8680       1.8705       1.8681       1.8635       4.7667     -92.5694    7458.3593
 5182.2096    5182.2096       8.5000      63.5637       1.4519       1.7746       1.8885       1.8907       1.8890       1.8835       4.7596     -77.7852    7471.4707
 5182.0572    5182.0572       8.5000      63.6738       1.5416       1.8566       1.9687       1.9705       1.9693       1.9627       4.7500     -59.8613    7488.1173
 5181.9048    5181.9048       8.5000      64.9880       1.6666       1.9707       2.0820       2.0832       2.0825       2.0748       4.7463     -63.7195    7483.2025
 5181.7524    5181.7524       8.5000      67.8999       1.7848       2.0686       2.1775       2.1781       2.1775       2.1695       4.7509    -100.3045    7445.1693
 5181.6000    5181.6000       8.5000      70.1313       1.8769       2.1320       2.2369       2.2372       2.2364       2.2291       4.7564    -137.0662    7406.2633
 5181.4476    5181.4476       8.5000      69.7225       1.9802       2.2054       2.3079       2.3091       2.3080       2.3026       4.7620    -134.1940    7406.7095
 5181.2952    5181.2952       8.5000      68.3119       2.1381       2.3356       2.4407       2.4454       2.4443       2.4424       4.7678     -93.0414    7445.8809
 5181.1428    5181.1428       8.5000      67.2474       2.3253       2.4936       2.6076       2.6207       2.6204       2.6241       4.7722     -57.4611    7480.1847
 5180.9904    5180.9904       8.5000      65.6349       2.4875       2.6268       2.7573       2.7858       2.7881       2.8000       4.7712     -57.2213    7479.3376
 5180.8380    5180.8380       8.5000      65.0835       2.6608       2.7857       2.9464       3.0000       3.0075       3.0303       4.7649     -80.4692    7454.6152
 5180.6856    5180.6855       8.5000      66.8731       2.9127       3.0533       3.2648       3.3592       3.3760       3.4142       4.7578     -94.3876    7438.8545
 5180.5332    5180.5332       8.5000      67.6634       3.1645       3.3591       3.6385       3.7897       3.8210       3.8792       4.7565     -80.4856    7451.0703
 5180.3808    5180.3809       8.5000      65.0870       3.2248       3.5109       3.8558       4.0680       4.1172       4.1959       4.7607     -60.7877    7469.5264
 5180.2284    5180.2284       8.5000      62.0848       3.0617       3.4653       3.8580       4.1194       4.1858       4.2812       4.7687     -66.8293    7462.3386
 5180.0760    5180.0760       8.5000      62.9307       2.7935       3.3194       3.7427       4.0342       4.1141       4.2212       4.7754     -89.0315    7438.6185
 5179.9236    5179.9236       8.5000      68.3197       2.4721       3.0833       3.5149       3.8116       3.8985       4.0102       4.7762     -92.6143    7433.2657
 5179.7712    5179.7712       8.5000      73.1366       2.0788       2.6903       3.0931       3.3632       3.4471       3.5525       4.7747     -76.2148    7448.0727
 5179.6188    5179.6188       8.5000      72.7077       1.6903       2.2346       2.5823       2.8072       2.8806       2.9723       4.7728     -52.1745    7470.9607
 5179.4664    5179.4664       8.5000      69.2172       1.4470       1.9397       2.2471       2.4371       2.5017       2.5830       4.7681     -42.9885    7479.3238
 5179.3140    5179.3140       8.5000      66.9077       1.3928       1.8947       2.1959       2.3730       2.4355       2.5152       4.7592     -63.8008    7457.5469
 5179.1616    5179.1616       8.5000      66.3050       1.4825       2.0550       2.3799       2.5610       2.6268       2.7125       4.7528     -91.6298    7428.2839
 5179.0092    5179.0092       8.5000      66.8567       1.5681       2.2107       2.5563       2.7404       2.8094       2.9009       4.7583     -85.5137    7432.8239
 5178.8568    5178.8568       8.5000      68.4186       1.5036       2.1290       2.4536       2.6203       2.6849       2.7717       4.7876     -54.1049    7463.0655
 5178.7044    5178.7044       8.5000      69.4455       1.3972       1.9576       2.2451       2.3907       2.4496       2.5283       4.8395     -28.2599    7488.2352
 5178.5520    5178.5520       8.5000      68.6077       1.4220       1.9522       2.2255       2.3656       2.4249       2.5014       4.8793     -17.0573    7499.0782
 5178.3996    5178.3996       8.5000      66.9279       1.6079       2.1436       2.4278       2.5778       2.6450       2.7275       4.8812     -29.1336    7486.6075
 5178.2472    5178.2472       8.5000      67.3319       1.8909       2.4296       2.7366       2.9071       2.9877       3.0816       4.8509     -66.2404    7448.6215
 5178.0948    5178.0948       8.5000      70.8592       2.2209       2.7397       3.0750       3.2719       3.3698       3.4783       4.8142    -100.6651    7412.6257
 5177.9424    5177.9424       8.5000      74.7361       2.6432       3.1424       3.5212       3.7563       3.8782       4.0088       4.7828     -98.2271    7413.1934
 5177.7900    5177.7900       8.5000      75.1953       3.1529       3.6356       4.0700       4.3558       4.5088       4.6704       4.7660     -63.8551    7446.0596
