~VERSION INFORMATION
VERS.           2.0   :CWLS Log ASCII Standard - VERSION 2.0
WRAP.           YES   :Multiple lines per depth step
PROD.  Schlumberger   :LAS Producer
PROG.  DLIS to ASCII 2.3                               :LAS Program name and version
CREA.        2023/07/14 00:15                          :LAS Creation date {YYYY/MM/DD hh:mm}
DLIS_CREA.  2023-Jul-14 00:11                          :DLIS Creation date and time {YYYY-MMM-DD hh:mm}
SOURCE.     LIS_013.dlis                               :DLIS File Name
FILE-ID.     LIS   .002                                :File Identification Number
#--------------------------------------------------
~WELL INFORMATION
#MNEM.UNIT      DATA             DESCRIPTION
#---- ------ --------------   -----------------------------
STRT .M      5299.5576       :START DEPTH     
STOP .M      4241.4444       :STOP DEPTH     
STEP .M        -0.1524       :STEP     
NULL .          -999.25      :NULL VALUE
COMP .        PETROBRAS S.A.                           :COMPANY
WELL .        3-BRSA-293D-SPS                          :WELL
FLD  .        BS-400                                   :FIELD
LOC  .        BASE SAD 69:                             :LOCATION
CNTY .        SANTOS                                   :COUNTY
STAT .        BRASIL                                   :STATE
CTRY .        BRASIL                                   :COUNTRY
API  .                                                 :API NUMBER
UWI  .                                                 :UNIQUE WELL ID
DATE .        15/11/2004                               :LOG DATE
SRVC .        Schlumberger                             :SERVICE COMPANY
LATI .DEG                                              :LATITUDE
LONG .DEG                                              :LONGITUDE
GDAT .                                                 :GeoDetic Datum
#-----------------------------------------------------------------------------
~PARAMETER INFORMATION
#MNEM.UNIT    VALUE                      DESCRIPTION
#---- -----   --------------------       ------------------------
APD  .M               24                 :
BHT  .DEGF           260                 :
BLI  .M             5289                 :
BS   .IN         8.50000                 :
CN   .        PETROBRAS S.A.             :
COUN .        SANTOS                     :
CS   .IN         9.62500                 :
DATE .        15/11/2004                 :
DFD  .LB/G      12.30000                 :
DFL  .C3               2                 :
DFPH .        N/A                        :
DFT  .        SINTETICO                  :
DFV  .S               95                 :
DMF  .        MESA ROTATIVA              :
EDF  .M               24                 :
EGL  .M             -500                 :
EKB  .        N/A                        :
ENGI .        HERNANDEZ / LOCK           :
FL1  .        X   7292392.00 M LAT 24 28 47.189 S :
FL2  .        Y    584087.00 M LON 44 10 12.698 W :
FL3  .        MC  45 GRAUS               :
FN   .        BS-400                     :
LMF  .        MESA ROTATIVA              :
LUL  .        MACAE                      :
MCSS .        PRENSA                     :
MCST .DEGF            80                 :
MFSS .        PRENSA                     :
MFST .DEGF            80                 :
MSS  .        LINHA DE FLUXO             :
MST  .DEGF            80                 :
PDAT .        NIVEL DO MAR               :
R1   .        01. APRESENTAÇÃO DE ACORDO COM REQUERIMENTO DO CLIENTE :
R2   .        02. TEMPERATURA MÁXIMA DO POÇO T1=T2= 292 DEGF @  5277 M :
R3   .        03. INICIO DA CIRCULAÇÃO  12/11/2004 09 00 H :
R4   .        04. FINAL DA CIRCULAÇÃO   12/11/2004 18 00 H :
R5   .        05. TEMPO TOTAL DE CIRCULAÇÃO   09 00 H :
R6   .        06. FLUIDO DE PERFURAÇÃO  SINTETICO (BR-MUL  BR-MI)  60% TEOR DO OLEO :
R7   .        07. SALINIDADE DA LAMA  254762 PPM NACL NA FASE DE AGUA :
R8   .        08. INCLINAÇÃO MÁXIMA DO POÇO  37.37 GRAUS @ 5100 M :
R9   .        09. PRIMEIRAS E ULTIMAS LEITURAS  :
RMB  .OHMM    > 10                       :
RMCS .OHMM    > 10                       :
RMFS .OHMM    > 10                       :
RMS  .OHMM    >10                        :
RUN  .                 2                 :
STAT .        BRASIL                     :
TCS  .        18 00 H                    :
TDD  .M             5288                 :
TDL  .M             5293                 :
TLAB .        N/A                        :
TLI  .M             4277                 :
WITN .        ERNANI / ZE MARIA          :
WN   .        3-BRSA-293D-SPS            :
LUN  .              8808                 :
HIDE .        3-SPS-41D                  :
HID2 .        COMPENSATED Z-DENSILOG     :
HID3 .        COMPENSATED NEUTRON LOG    :
HID4 .        GAMMA RAY LOG              :
HID5 .        TTRM SUB                   :
CLAB .        BACIA                      :
SLAB .        PAIS                       :
CMT1 .        ESC  1 1000                :
CMT2 .        PROF. MEDIDA               :
CMT4 .        SONDA  SS-43               :
HDAT .        SAD 69                     :
FL   .        BASE SAD 69                :
OS1  .        RCI/GR                     :
OS2  .        CHECK SHOT                 :
OS3  .        GR/XMAC/HDIL               :
OS5  .        RCOR/GR                    :
LNAM .        ZDL/CN/XMAC/HDIL/EARTH IMAGER/RCI/RCOR/CHECK SHOT/GR :
TOOL .        ZDL/CN/XMAC/HDIL/EARTH IMAGER/RCI/RCOR/CHECK SHOT/GR :
LSOU .        PETROBRAS                  :
LSRV .        OH WIRELINE                :
LTYP .        RAW                        :
EPD  .M                0                 :
LDAT .        15/11/2004                 :
TRIP .                 4                 :
SON  .            786588                 :
CBDR .M             4277                 :
CBLO .        NR                         :
CBL1 .        NR                         :
STEM .DEGF    N/A                        :
BSAL .            254762                 :
BARI .        OFF                        :
DLAB .        12/11/2004                 :
MRT  .DEGF           292                 :
TSTR .        ZDL/CN/GR/TTRM             :
TSTG .        N/A                        :
STUS .        FINAL                      :
LCNM .        BAKER ATLAS                :
LCC  .               150                 :
NATI .        BRASIL                     :
OPMD .        OH.WIRELINE                :
PANA .        HERNANDEZ / LOCK           :
PCON .        BAKER ATLAS                :
R11  .        GR     5268.3 M / 4277.0 M :
R12  .        CN     5286.5 M / 5128.0 M (FERRAMENTA PERDEU LEITURA ACIMA DE 5128M) :
R13  .        ZDL    5292.0 M / 4277.0 M :
R15  .        10. PONTO FRACO UTILIZADO  10K :
R17  .        12. COORDENADAS BASE       :
R19  .        X   7292512.00 M           :
R21  .        MC  45 GRAUS               :
R23  .        13. CADASTRO ANP  86316021017 :
PVER .           4.10000                 :
WDFN .        /space/expusr/3-SPS-41D_RUN2/i77bf04_8spf.xtf :
OCT  .        i77bf                      :
OS4  .        EARTH IMAGER               :
R16  .        11. DECLINAÇÃO MAGNETICA  -20.9 GRAUS :
R20  .        Y    583936.00 M           :
#-----------------------------------------------------------------------------
~CURVE INFORMATION
#MNEM.UNIT   API CODE                                  DESCRIPTION
#---- -----  --------                                  -----------------------
DEPT .M                                                :DEPTH (BOREHOLE) {F10.4}
DEPT .M                                                : {F13.4}
BIT  .IN                                               : {F13.4}
DEPM .M                                                : {F13.4}
GR   .GAPI                                             : {F13.4}
SPD  .M/MN                                             : {F13.4}
TTEN .LBF                                              : {F13.4}
CAL  .IN                                               : {F13.4}
CALX .IN                                               : {F13.4}
HRD1 .HZ                                               : {F13.4}
HRD2 .HZ                                               : {F13.4}
PE   .B/E                                              : {F13.4}
SFT2 .HZ                                               : {F13.4}
SOFT .HZ                                               : {F13.4}
SSD  .HZ                                               : {F13.4}
ZCOR .G/C3                                             : {F13.4}
ZDEN .G/C3                                             : {F13.4}
CNC  .PU                                               : {F13.4}
CN   .PU                                               : {F13.4}
LSN  .HZ                                               : {F13.4}
SSN  .HZ                                               : {F13.4}
CNCF .PU                                               : {F13.4}
MMRK .MN                                               : {F13.4}
#-----------------------------------------------------------------------------
# DEPT       
#     DEPT         BIT          DEPM         GR           SPD          TTEN         
#     CAL          CALX         HRD1         HRD2         PE           SFT2         
#     SOFT         SSD          ZCOR         ZDEN         CNC          CN           
#     LSN          SSN          CNCF         MMRK         
~A  
# ...
5026.4568
   5026.4568       8.5000    5026.1765      84.2680       3.9149    7330.2292
      8.9996       8.9996     628.1002     831.2693       6.4240     482.8485
    317.6119    6852.9217      -0.0141       2.5720       0.0000      18.0513
   1331.8034    3204.0357      17.5127       0.0000
5026.3044
   5026.3044       8.5000    5026.0232      84.7382       3.8733    7162.1152
      8.9994       8.9994     631.3205     827.5805       6.3847     469.3944
    318.4794    6835.1188      -0.0164       2.5720       0.0000      17.9399
   1332.7828    3195.9290      17.4033       0.0000
5026.1520
   5026.1520       8.5000    5025.8669      84.2935       3.8147    7099.8963
      8.9974       8.9974     627.8999     834.9528       6.3523     459.2803
    321.1561    6817.1319      -0.0196       2.5709       0.0000      18.4481
   1316.8962    3204.9089      17.9043       0.0000
5025.9996
   5025.9996       8.5000    5025.7125      83.9429       3.7913    7139.0154
      8.9938       8.9938     623.4977     842.4699       6.2359     456.3827
    329.0931    6811.0025      -0.0210       2.5698       0.0000      19.1185
   1310.4026    3250.3053      18.5662       0.0000
5025.8472
   5025.8472       8.5000    5025.5572      83.9849       3.7986    7185.9865
      8.9895       8.9895     622.8922     841.0168       6.1258     464.6325
    334.0409    6812.7036      -0.0203       2.5705       0.0000      19.3611
   1325.5813    3310.1487      18.8082       0.0000
5025.6948
   5025.6948       8.5000    5025.4028      84.7985       3.8100    7202.6995
      8.9853       8.9853     620.0459     831.5345       6.1163     480.7151
    327.6852    6813.2193      -0.0180       2.5742       0.0000      19.5032
   1335.3652    3347.6050      18.9511       0.0000
5025.5424
   5025.5424       8.5000    5025.2475      85.7978       3.8180    7198.4074
      8.9822       8.9822     616.6520     816.5031       6.0081     492.2430
    324.5114    6794.1457      -0.0171       2.5796       0.0000      19.6603
   1332.2570    3354.1428      19.1081       0.0000
5025.3900
   5025.3900       8.5000    5025.0922      86.6988       3.8232    7186.6111
      8.9810       8.9810     618.5746     802.7785       5.6597     492.4562
    333.9943    6760.9472      -0.0194       2.5829       0.0000      19.5076
   1334.3377    3345.4271      18.9586       0.0000
5025.2376
   5025.2376       8.5000    5024.9368      88.1711       3.8232    7170.2700
      8.9824       8.9824     624.9022     800.7501       5.3672     487.3520
    345.1096    6748.6422      -0.0219       2.5818       0.0000      19.2555
   1339.8602    3336.0532      18.7095       0.0000
5025.0852
   5025.0852       8.5000    5024.7815      89.4313       3.8143    7147.6054
      8.9836       8.9836     633.0680     805.1236       5.2831     480.6899
    349.6005    6761.6946      -0.0225       2.5782       0.0000      19.4261
   1333.0085    3334.6414      18.8765       0.0000
5024.9328
   5024.9328       8.5000    5024.6310      89.1364       3.8014    7124.9982
      8.9823       8.9823     639.3693     811.7679       5.2764     478.3841
    353.4231    6763.5051      -0.0247       2.5744       0.0000      19.6700
   1327.7079    3343.5759      19.1176       0.0000
5024.7804
   5024.7804       8.5000    5024.4845      88.1187       3.7900    7132.8966
      8.9806       8.9806     637.4259     821.9723       5.3005     480.1227
    356.5365    6760.2487      -0.0266       2.5718       0.0000      19.6823
   1331.4919    3354.2191      19.1310       0.0000
5024.6280
   5024.6280       8.5000    5024.3389      87.9436       3.7874    7174.2886
      8.9808       8.9808     629.4653     833.3565       5.4432     482.2398
    355.2897    6779.4555      -0.0247       2.5702       0.0000      19.6752
   1332.6662    3356.5387      19.1239       0.0000
5024.4756
   5024.4756       8.5000    5024.1934      88.7711       3.7972    7204.2939
      8.9821       8.9821     623.2946     841.5067       5.6820     482.7594
    347.9965    6815.7930      -0.0201       2.5694       0.0000      19.8158
   1325.3352    3350.7822      19.2614       0.0000
5024.3232
   5024.3232       8.5000    5024.0479      88.9563       3.8118    7187.2490
      8.9836       8.9836     622.8767     836.6202       5.8517     481.5491
    338.6365    6827.5957      -0.0175       2.5707       0.0000      19.8722
   1320.8108    3344.4243      19.3158       0.3844
5024.1708
   5024.1708       8.5000    5023.9013      87.7786       3.8179    7141.8140
      8.9854       8.9854     624.9788     819.4183       5.8183     479.0400
    333.0802    6801.9509      -0.0182       2.5747       0.0000      19.5930
   1329.1776    3340.2419      19.0395       0.0000
5024.0184
   5024.0184       8.5000    5023.7557      86.5101       3.8150    7103.4394
      8.9859       8.9859     624.3839     803.6215       5.5829     480.8470
    335.7611    6773.8413      -0.0189       2.5796       0.0000      19.2493
   1339.4688    3334.4977      18.7008       0.0000
5023.8660
   5023.8660       8.5000    5023.6101      86.9739       3.8113    7087.4034
      8.9834       8.9834     620.1628     794.6827       5.2397     490.0744
    346.4834    6760.4922      -0.0182       2.5836       0.0000      19.1467
   1339.9384    3326.1836      18.6016       0.0000
5023.7136
   5023.7136       8.5000    5023.4636      90.1525       3.8050    7093.6859
      8.9793       8.9793     618.7342     792.8435       4.9591     498.2509
    358.9670    6744.6589      -0.0198       2.5846       0.0000      19.3087
   1331.0339    3318.9362      18.7642       0.0000
5023.5612
   5023.5612       8.5000    5023.3190      94.9748       3.7930    7112.2244
      8.9763       8.9763     622.7958     800.8907       4.9113     497.7171
    364.9132    6734.0914      -0.0235       2.5819       0.0000      19.6836
   1316.2881    3316.0099      19.1355       0.0000
5023.4088
   5023.4088       8.5000    5023.1734      98.7621       3.7854    7121.4633
      8.9753       8.9753     626.8277     812.0520       5.0747     490.5896
    359.7986    6737.8546      -0.0259       2.5784       0.0000      20.1070
   1301.9280    3317.3573      19.5534       0.0000
5023.2564
   5023.2564       8.5000    5023.0279      99.9813       3.7896    7102.4286
      8.9781       8.9781     629.9366     811.2041       5.1757     485.1472
    348.8946    6738.0059      -0.0263       2.5776       0.0000      20.3044
   1296.8502    3321.7298      19.7458       0.0000
5023.1040
   5023.1040       8.5000    5022.8813      99.8632       3.7926    7073.9777
      8.9861       8.9861     633.8373     803.8388       5.1719     485.8552
    346.2017    6740.0485      -0.0254       2.5783       0.0000      20.0865
   1307.5854    3329.9589      19.5250       0.0000
5022.9516
   5022.9516       8.5000    5022.7358     100.1124       3.7893    7074.0514
      8.9941       8.9941     635.4814     800.2144       5.1220     492.2714
    353.8528    6768.8231      -0.0211       2.5786       0.0000      19.8190
   1322.9930    3345.1431      19.2554       0.0000
5022.7992
   5022.7992       8.5000    5022.5902     101.1284       3.7897    7110.5920
      8.9961       8.9961     634.4248     801.1497       5.0458     496.9048
    360.2667    6803.4611      -0.0163       2.5785       0.0000      19.9865
   1323.5296    3361.5760      19.4189       0.0000
5022.6468
   5022.6468       8.5000    5022.4437     102.2282       3.7967    7148.0486
      8.9943       8.9943     630.2881     805.8655       5.1202     493.5508
    357.0453    6809.5252      -0.0156       2.5784       0.0000      20.4725
   1308.2648    3365.7244      19.8990       0.0000
5022.4944
   5022.4944       8.5000    5022.2981     102.6787       3.8018    7152.4668
      8.9934       8.9934     621.3999     812.0682       5.3357     484.2125
    349.1992    6789.6792      -0.0178       2.5797       0.0000      20.7222
   1294.8763    3353.0063      20.1458       0.0000
5022.3420
   5022.3420       8.5000    5022.1525     102.4177       3.7995    7135.7190
      8.9930       8.9930     609.4723     811.1481       5.5097     476.6574
    341.5916    6755.6917      -0.0200       2.5837       0.0000      20.4999
   1295.1903    3334.5037      19.9270       0.0000
