~VERSION INFORMATION
VERS.           2.0   :CWLS Log ASCII Standard - VERSION 2.0
WRAP.           NO    :One Line per depth step
PROD.  Schlumberger   :LAS Producer
PROG.  DLIS to ASCII 2.3                               :LAS Program name and version
CREA.        2023/07/14 00:15                          :LAS Creation date {YYYY/MM/DD hh:mm}
DLIS_CREA.  2023-Jul-14 00:11                          :DLIS Creation date and time {YYYY-MMM-DD hh:mm}
SOURCE.     LIS_006.dlis                               :DLIS File Name
FILE-ID.     LIS   .002                                :File Identification Number
#--------------------------------------------------
~WELL INFORMATION
#MNEM.UNIT      DATA             DESCRIPTION
#---- ------ --------------   -----------------------------
STRT .M      5238.7500       :START DEPTH     
STOP .M      5087.2644       :STOP DEPTH     
STEP .M        -0.1524       :STEP     
NULL .          -999.25      :NULL VALUE
COMP .        Petrobras S.A.                           :COMPANY
WELL .        3-SPS-41D                                :WELL
FLD  .        MEXILHOES                                :FIELD
LOC  .                                                 :LOCATION
CNTY .                                                 :COUNTY
STAT .                                                 :STATE
CTRY .                                                 :COUNTRY
API  .                                                 :API NUMBER
UWI  .                                                 :UNIQUE WELL ID
DATE .                                                 :LOG DATE
SRVC .        Schlumberger                             :SERVICE COMPANY
LATI .DEG                                              :LATITUDE
LONG .DEG                                              :LONGITUDE
GDAT .                                                 :GeoDetic Datum
#-----------------------------------------------------------------------------
~PARAMETER INFORMATION
#MNEM.UNIT    VALUE                      DESCRIPTION
#---- -----   --------------------       ------------------------
CN   .        Petrobras S.A.             :
FN   .        MEXILHOES                  :
WN   .        3-SPS-41D                  :
LCC  .               150                 :
WDFN .        /space/expusr/3-SPS-41D/i77bf06_8spf.xtf :
OCT  .        i77bf                      :
RUN  .                                   :RUN NUMBER
PDAT .                                   :Permanent Datum
EPD  .                                   :Elevation of Permanent Datum above Mean Sea Level
LMF  .                                   :Logging Measured From (Name of Logging Elevation Reference)
APD  .                                   :Elevation of Depth Reference (LMF) above Permanent Datum
#-----------------------------------------------------------------------------
~CURVE INFORMATION
#MNEM.UNIT   API CODE                                  DESCRIPTION
#---- -----  --------                                  -----------------------
DEPT .M                                                :DEPTH (BOREHOLE) {F10.4}
DEPT .M                                                : {F13.4}
BIT  .IN                                               : {F13.4}
DEPM .M                                                : {F13.4}
SPD  .M/MN                                             : {F13.4}
CNC  .PU                                               : {F13.4}
CN   .PU                                               : {F13.4}
LSN  .HZ                                               : {F13.4}
SSN  .HZ                                               : {F13.4}
#-----------------------------------------------------------------------------
# 
#     DEPT        DEPT         BIT          DEPM         SPD          CNC          CN           LSN          SSN
#
~A  
# ...
 5121.4020    5121.4020       8.5000    5121.0075       5.2701      16.2857      16.4411    1464.0588    3356.4560
 5121.2496    5121.2496       8.5000    5120.8551       5.2878      16.0244      16.4356    1485.0523    3380.5106
 5121.0972    5121.0972       8.5000    5120.7027       5.2651      16.6237      17.0486    1466.8369    3401.2522
 5120.9448    5120.9448       8.5000    5120.5503       5.2592      17.0060      17.3260    1454.4303    3409.6419
 5120.7924    5120.7924       8.5000    5120.3979       5.2840      16.6492      16.7583    1473.6058    3413.7063
 5120.6400    5120.6400       8.5000    5120.2455       5.2702      15.7703      15.6953    1496.7653    3346.6212
 5120.4876    5120.4876       8.5000    5120.0931       5.2496      14.9409      15.5666    1484.5474    3221.6724
 5120.3352    5120.3352       8.5000    5119.9407       5.2820      16.8580      17.3267    1350.5756    3135.3021
 5120.1828    5120.1828       8.5000    5119.7883       5.2960      16.4619      16.4612    1346.5806    3092.3000
 5120.0304    5120.0304       8.5000    5119.6349       5.3067      15.8377      16.4090    1359.2308    3065.3681
 5119.8780    5119.8780       8.5000    5119.4835       5.2905      17.4705      17.9785    1294.3758    3084.2053
 5119.7256    5119.7256       8.5000    5119.3320       5.2619      17.3656      17.6434    1305.2694    3087.1602
 5119.5732    5119.5732       8.5000    5119.1796       5.2715      17.6952      18.0766    1274.9838    3031.6499
 5119.4208    5119.4208       8.5000    5119.0263       5.2635      17.8014      18.1448    1236.1268    2948.7151
 5119.2684    5119.2684       8.5000    5118.8739       5.2634      17.7593      18.0432    1219.1284    2922.6250
 5119.1160    5119.1160       8.5000    5118.7215       5.2808      18.1491      18.8074    1213.5325    2955.1678
 5118.9636    5118.9636       8.5000    5118.5691       5.2976      19.0000      19.1679    1209.9024    3022.5735
 5118.8112    5118.8112       8.5000    5118.4167       5.2672      18.5373      18.9345    1252.3958    3084.9910
 5118.6588    5118.6588       8.5000    5118.2643       5.2683      18.5256      18.6856    1272.7732    3130.7293
 5118.5064    5118.5064       8.5000    5118.1119       5.3010      18.0638      18.2244    1308.7470    3174.3504
 5118.3540    5118.3540       8.5000    5117.9595       5.3398      17.4600      17.7280    1341.2428    3184.2123
 5118.2016    5118.2016       8.5000    5117.8071       5.2991      17.6109      18.0491    1321.7158    3140.3547
 5118.0492    5118.0492       8.5000    5117.6547       5.2242      17.6955      17.7207    1298.3463    3100.3617
 5117.8968    5117.8968       8.5000    5117.5023       5.2059      16.7745      17.3340    1328.1164    3085.0339
 5117.7444    5117.7444       8.5000    5117.3499       5.2023      18.7095      19.5360    1230.6777    2998.7997
 5117.5920    5117.5920       8.5000    5117.1975       5.2559      20.3620      21.1387    1114.8741    2835.0755
 5117.4396    5117.4396       8.5000    5117.0451       5.3039      21.7275      22.2959    1041.4846    2784.0837
 5117.2872    5117.2872       8.5000    5116.8927       5.3011      22.2152      22.1535    1060.6038    2897.5675
 5117.1348    5117.1348       8.5000    5116.7412       5.3424      19.6914      19.6411    1179.9588    3011.3837
 5116.9824    5116.9824       8.5000    5116.5879       5.3751      19.0349      19.2322    1235.2965    3091.8770
 5116.8300    5116.8300       8.5000    5116.4355       5.3021      18.2616      18.3508    1293.4180    3164.6023
 5116.6776    5116.6776       8.5000    5116.2831       5.2578      17.4112      17.7226    1350.5129    3212.9414
 5116.5252    5116.5252       8.5000    5116.1307       5.2681      17.6400      17.8913    1348.3891    3221.3093
 5116.3728    5116.3728       8.5000    5115.9783       5.2855      17.2690      17.5878    1362.3308    3219.0747
 5116.2204    5116.2204       8.5000    5115.8259       5.2835      17.5585      18.0247    1354.5716    3234.2688
 5116.0680    5116.0680       8.5000    5115.6735       5.2648      17.7757      17.9288    1355.7674    3257.8107
 5115.9156    5115.9156       8.5000    5115.5211       5.3205      17.1124      17.4218    1394.0541    3287.1037
 5115.7632    5115.7632       8.5000    5115.3687       5.3319      17.3970      17.7848    1397.1140    3321.5905
 5115.6108    5115.6108       8.5000    5115.2163       5.2744      17.4589      17.7645    1401.2280    3326.2177
 5115.4584    5115.4584       8.5000    5115.0639       5.2782      17.3522      17.6661    1390.8741    3277.8825
 5115.3060    5115.3060       8.5000    5114.9115       5.2811      17.3961      17.6940    1346.1735    3151.1702
 5115.1536    5115.1536       8.5000    5114.7591       5.2865      17.8026      18.5722    1250.3260    2954.3405
 5115.0012    5115.0012       8.5000    5114.6067       5.2622      19.3411      19.7183    1135.0690    2826.3342
 5114.8488    5114.8488       8.5000    5114.4543       5.2502      18.3542      18.2036    1148.1978    2801.2030
 5114.6964    5114.6964       8.5000    5114.3019       5.2856      17.5160      18.0702    1179.0170    2809.5964
 5114.5440    5114.5440       8.5000    5114.1495       5.3419      18.4775      19.0795    1159.3481    2861.4366
 5114.3916    5114.3916       8.5000    5113.9971       5.2942      19.8271      20.3107    1167.6005    3009.9785
 5114.2392    5114.2392       8.5000    5113.8447       5.2641      19.1578      19.0051    1254.7964    3160.5554
 5114.0868    5114.0868       8.5000    5113.6923       5.2547      17.6402      17.8533    1337.4004    3194.9827
 5113.9344    5113.9344       8.5000    5113.5399       5.2424      17.6931      18.1865    1332.4691    3190.8422
 5113.7820    5113.7820       8.5000    5113.3875       5.2376      18.7286      19.3656    1300.5485    3213.4868
 5113.6296    5113.6296       8.5000    5113.2351       5.2419      19.2168      19.3341    1287.6173    3213.8531
 5113.4772    5113.4772       8.5000    5113.0827       5.2966      18.2412      18.4661    1312.5565    3187.7135
 5113.3248    5113.3248       8.5000    5112.9303       5.3468      18.0719      18.4569    1315.4794    3185.8883
 5113.1724    5113.1724       8.5000    5112.7779       5.3002      18.6812      19.0210    1298.0528    3195.7008
 5113.0200    5113.0200       8.5000    5112.6255       5.2690      17.7010      17.7608    1317.9124    3130.7644
 5112.8676    5112.8676       8.5000    5112.4731       5.2737      17.7572      18.4468    1268.6647    3011.1383
 5112.7152    5112.7152       8.5000    5112.3207       5.2809      19.8579      20.7729    1155.2618    2924.7230
 5112.5628    5112.5628       8.5000    5112.1683       5.2842      20.5920      20.6373    1124.2141    2921.8719
 5112.4104    5112.4104       8.5000    5112.0159       5.2736      19.5743      19.6440    1178.9255    3003.1037
 5112.2580    5112.2580       8.5000    5111.8635       5.3001      17.8862      17.7134    1285.7160    3122.5624
 5112.1056    5112.1056       8.5000    5111.7101       5.3574      16.9919      17.6999    1358.9876    3196.4893
 5111.9532    5111.9532       8.5000    5111.5590       5.2949      18.8503      19.2002    1297.5230    3210.2006
 5111.8008    5111.8008       8.5000    5111.4072       5.2661      17.6521      17.6262    1341.8905    3206.8290
 5111.6484    5111.6484       8.5000    5111.2548       5.3003      16.9694      17.1997    1368.5979    3203.5894
 5111.4960    5111.4960       8.5000    5111.1015       5.3052      16.5056      16.7964    1385.9756    3194.9916
 5111.3436    5111.3436       8.5000    5110.9491       5.2867      16.7521      17.1802    1369.9911    3188.6727
 5111.1912    5111.1912       8.5000    5110.7967       5.2938      17.5948      18.3480    1345.0010    3216.7368
 5111.0388    5111.0388       8.5000    5110.6443       5.3162      18.6916      18.7782    1311.0849    3232.0947
 5110.8864    5110.8864       8.5000    5110.4919       5.3610      17.3640      17.6916    1364.6226    3235.2898
