~VERSION INFORMATION
VERS.           2.0   :CWLS Log ASCII Standard - VERSION 2.0
WRAP.           NO    :One Line per depth step
PROD.  Schlumberger   :LAS Producer
PROG.  DLIS to ASCII 2.3                               :LAS Program name and version
CREA.        2023/07/14 00:15                          :LAS Creation date {YYYY/MM/DD hh:mm}
DLIS_CREA.  2023-Jul-14 00:11                          :DLIS Creation date and time {YYYY-MMM-DD hh:mm}
SOURCE.     LIS_001.dlis                               :DLIS File Name
FILE-ID.     LIS   .001                                :File Identification Number
#--------------------------------------------------
~WELL INFORMATION
#MNEM.UNIT      DATA             DESCRIPTION
#---- ------ --------------   -----------------------------
STRT .M      5244.5412       :START DEPTH     
STOP .M      5059.0704       :STOP DEPTH     
STEP .M        -0.1524       :STEP     
NULL .          -999.25      :NULL VALUE
COMP .        PETROBRAS S.A.                           :COMPANY
WELL .        3-BRSA-293D-SPS                          :WELL
FLD  .        BS-400                                   :FIELD
LOC  .        BASE SAD 69:                             :LOCATION
CNTY .        SANTOS                                   :COUNTY
STAT .        BRASIL                                   :STATE
CTRY .        BRASIL                                   :COUNTRY
API  .                                                 :API NUMBER
UWI  .                                                 :UNIQUE WELL ID
DATE .        22/10/2004                               :LOG DATE
SRVC .        Schlumberger                             :SERVICE COMPANY
LATI .DEG                                              :LATITUDE
LONG .DEG                                              :LONGITUDE
GDAT .                                                 :GeoDetic Datum
#-----------------------------------------------------------------------------
~PARAMETER INFORMATION
#MNEM.UNIT    VALUE                      DESCRIPTION
#---- -----   --------------------       ------------------------
APD  .M               24                 :
BHT  .DEGF           260                 :
BLI  .M       5227.50000                 :
BS   .IN         8.50000                 :
CN   .        PETROBRAS S.A.             :
COUN .        SANTOS                     :
CS   .IN         9.62500                 :
DATE .        22/10/2004                 :
DFD  .LB/G      12.30000                 :
DFL  .C3               2                 :
DFPH .        N/A                        :
DFT  .        SINTETICO                  :
DFV  .S               87                 :
DMF  .        MESA ROTATIVA              :
EDF  .M               24                 :
EGL  .M             -500                 :
EKB  .        N/A                        :
ENGI .        HERNANDEZ/LOCK             :
FL1  .        X   7292392.00 M LAT 24 28 47.189 S :
FL2  .        Y    584087.00 M LON 44 10 12.698 W :
FL3  .        MC  45 GRAUS               :
FN   .        BS-400                     :
LMF  .        MESA ROTATIVA              :
LUL  .        MACAE                      :
MCSS .        PRENSA                     :
MCST .DEGF            80                 :
MFSS .        PRENSA                     :
MFST .DEGF            80                 :
MSS  .        LINHA DE FLUXO             :
MST  .DEGF            80                 :
PDAT .        NIVEL DO MAR               :
R1   .        01. APRESENTAÇÃO DE ACORDO COM REQUERIMENTO DO CLIENTE :
R2   .        02. TEMPERATURA MÁXIMA DO POÇO T1=T2= 260 DEGF @  5180 M :
R3   .        03. INICIO DA CIRCULAÇÃO  13 45 H 21/10/2004 :
R4   .        04. FINAL DA CIRCULAÇÃO   16 00 H 21/10/2004 :
R5   .        05. TEMPO TOTAL DE CIRCULAÇÃO  02 15 H :
R6   .        06. FLUIDO DE PERFURAÇÃO  SINTETICO (BR-MUL  BR-MI)  65% TEOR DO OLEO :
R7   .        07. SALINIDADE DA LAMA  266377 PPM NACL NA FASE DE AGUA :
R8   .        08. INCLINAÇÃO MÁXIMA DO POÇO  37.37 GRAUS @ 5100 M :
R9   .        09. PRIMEIRAS E ULTIMAS LEITURAS  :
RMB  .OHMM    > 10                       :
RMCS .OHMM    > 10                       :
RMFS .OHMM    > 10                       :
RMS  .OHMM    > 10                       :
RUN  .                 1                 :
STAT .        BRASIL                     :
TCS  .        16 00 H                    :
TDD  .M             5230                 :
TDL  .M             5231                 :
TLAB .        N/A                        :
TLI  .M             3850                 :
WITN .        ALCIDIO/VLADIMIR           :
WN   .        3-BRSA-293D-SPS            :
LUN  .              8808                 :
HIDE .        3-SPS-41D                  :
HID2 .        HIGH DEFINITION INDUCTION LOG :
HID3 .        X-MULTIPOLE ARRAY ACOUSTILOG :
HID4 .        GAMMA RAY LOG              :
HID5 .        TTRM SUB                   :
CLAB .        BACIA                      :
SLAB .        PAIS                       :
CMT1 .        ESC  1 1000                :
CMT2 .        PROF. MEDIDA               :
CMT4 .        SONDA  SS-43               :
HDAT .        SAD 69                     :
FL   .        BASE SAD 69                :
OS1  .        GR/CN/ZDL                  :
OS2  .        MREX/GR                    :
OS3  .        RCI/GR                     :
0S4  .        3DEX/GR                    :
OS5  .        SL/GR                      :
LNAM .        MREX/ZDL/CN/XMAC/HDIL/RCI/3DEX/SL/GR :
TOOL .        MREX/ZDL/CN/XMAC/HDIL/RCI/3DEX/SL/GR :
LSOU .        PETROBRAS                  :
LSRV .        OH WIRELINE                :
LTYP .        RAW                        :
EPD  .M                0                 :
LDAT .        22/10/2004                 :
TRIP .                 1                 :
SON  .            772317                 :
CBDR .M             4277                 :
CBLO .M             4277                 :
CBL1 .M             4277                 :
STEM .DEGF    N/A                        :
BSAL .            266377                 :
BARI .        OFF                        :
DLAB .        21/10/2004                 :
MRT  .DEGF           260                 :
TSTR .        HDIL/XMAC/GR/TTRM          :
TSTG .        N/A                        :
STUS .        FINAL                      :
LCNM .        BAKER ATLAS                :
LCC  .               150                 :
NATI .        BRASIL                     :
OPMD .        OH.WIRELINE                :
PANA .        HERNANDEZ/LOCK             :
PCON .        BAKER ATLAS                :
R11  .        SL     5196.0 M/4960.0 M   :
R12  .        GR     4960.0 M/4277.0 M   :
R13  .        XMAC   5202.0 M/3850.0 M   :
R14  .        HDIL   5227.5 M/4277.0 M   :
R15  .        3DEX   5217.0 M/4960.0 M   :
R17  .        10. PONTO FRACO UTILIZADO  10K :
R18  .        11. DECLINAÇÃO MAGNETICA  -20.9 GRAUS :
R19  .        12. COORDENADAS ARATU      :
R21  .        X   7292512.00 M           :
R22  .        Y    583936.00 M           :
R23  .        MC  45 GRAUS               :
R25  .        13. CADASTRO ANP  86316021017 :
PVER .           4.10000                 :
WDFN .        /space/expusr/3-SPS-41D/i77bf02_2spf.xtf :
OCT  .        i77bf                      :
#-----------------------------------------------------------------------------
~CURVE INFORMATION
#MNEM.UNIT   API CODE                                  DESCRIPTION
#---- -----  --------                                  -----------------------
DEPT .M                                                :DEPTH (BOREHOLE) {F10.4}
DEPT .M                                                : {F13.4}
DT   .US/F                                             : {F13.4}
SFN1 .US                                               : {F13.4}
SFN2 .US                                               : {F13.4}
SFN3 .US                                               : {F13.4}
SFN4 .US                                               : {F13.4}
TT   .MS                                               : {F13.4}
#-----------------------------------------------------------------------------
# 
#     DEPT        DEPT         DT           SFN1         SFN2         SFN3         SFN4         TT
#
~A  
# ...
 5124.1452    5124.1452      68.8086     696.7503     729.7500     766.5003     797.6247      20.4859
 5123.9928    5123.9928      69.1168     696.8744     729.7500     766.6256     797.4991      20.5205
 5123.8404    5123.8404      69.3195     696.6253     729.7500     766.8740     797.1274      20.5551
 5123.6880    5123.6880      69.4395     696.7500     729.7504     766.5004     797.9973      20.5899
 5123.5356    5123.5356      69.4939     696.7496     729.8750     766.6246     797.1259      20.6246
 5123.3832    5123.3832      69.4992     696.6253     729.8750     766.5003     797.3744      20.6592
 5123.2308    5123.2308      69.4745     696.3755     729.8750     766.7495     797.1255      20.6939
 5123.0784    5123.0784      69.4495     696.7493     729.6255     766.3757     796.6259      20.7287
 5122.9260    5122.9260      69.4447     696.5004     729.3754     766.4998     797.7484      20.7634
 5122.7736    5122.7736      69.4587     696.6249     729.6247     766.5000     796.8759      20.7981
 5122.6212    5122.6212      69.4757     696.6250     729.7499     766.7498     796.8750      20.8329
 5122.4688    5122.4688      69.4485     696.3750     729.3750     766.2500     796.8750      20.8676
 5122.3164    5122.3164      69.3224     696.3750     729.6250     766.3750     796.8750      20.9023
 5122.1640    5122.1640      69.1137     244.6037     729.6930     766.3749     796.7502      20.9369
 5122.0116    5122.0116      68.9850     497.3868     590.7137     765.9061     797.1248      20.9714
 5121.8592    5121.8592      69.1933     672.7499     384.3699     324.9931     796.5880      21.0060
 5121.7068    5121.7068      69.8786     672.6248     706.0004     319.6459     546.7034      21.0409
 5121.5544    5121.5544      70.8899     672.5007     706.2524     744.5028     352.4370      21.0764
 5121.4020    5121.4020      71.8730     672.8747     707.5068     746.0025     781.8750      21.1123
 5121.2496    5121.2496      72.5018     672.7500     710.4997     747.1266     781.8740      21.1486
 5121.0972    5121.0972      72.5199     672.7500     710.3754     747.7504     781.4978      21.1849
 5120.9448    5120.9448      71.7562     672.7500     710.5000     747.8754     780.7504      21.2208
 5120.7924    5120.7924      70.2593     672.7500     710.5000     747.9997     780.8747      21.2557
 5120.6400    5120.6400      68.3672     672.7500     710.5000     747.8753     780.7503      21.2899
 5120.4876    5120.4876      66.7843     672.8748     710.5000     747.8750     780.7500      21.3233
 5120.3352    5120.3352      66.1822     673.1246     710.5000     747.9998     780.8748      21.3564
 5120.1828    5120.1828      66.6854     672.7505     710.6248     747.8752     780.6253      21.3897
 5120.0304    5120.0304      67.7978     672.6251     710.7499     747.9999     780.8748      21.4237
 5119.8780    5119.8780      68.8535     672.6250     710.8749     748.0000     780.9999      21.4581
 5119.7256    5119.7256      69.4756     672.7500     710.7500     747.7500     780.7500      21.4928
 5119.5732    5119.5732      69.6865     672.7500     710.7500     748.0000     780.6250      21.5277
 5119.4208    5119.4208      69.7162     672.6251     710.6251     747.8751     780.8748      21.5626
 5119.2684    5119.2684      69.7039     672.7499     710.7500     748.0000     780.5001      21.5974
 5119.1160    5119.1160      69.6629     672.6252     710.7502     748.0000     780.6253      21.6323
 5118.9636    5118.9636      69.6079     672.7500     710.8750     747.9998     780.8746      21.6671
 5118.8112    5118.8112      69.5603     672.7503     710.8750     747.8753     780.6253      21.7019
 5118.6588    5118.6588      69.5328     672.8747     710.8750     747.9997     780.7503      21.7367
 5118.5064    5118.5064      69.5330     672.7500     710.8754     747.8754     780.8746      21.7714
 5118.3540    5118.3540      69.5287     672.7504     710.9996     747.9996     780.7492      21.8062
 5118.2016    5118.2016      69.4308     672.8741     710.8754     747.8750     780.5009      21.8410
 5118.0492    5118.0492      69.1357     672.6256     710.9997     747.8750     780.7494      21.8753
 5117.8968    5117.8968      68.5960     687.9681     711.0000     747.8750     780.6253      21.9096
 5117.7444    5117.7444      67.8983     694.7385     719.9847     747.8750     780.6250      21.9436
 5117.5920    5117.5920      67.2254     695.9983     727.9893     468.4980     780.6250      21.9772
 5117.4396    5117.4396      66.7435     695.8751     728.0000     761.8416     618.9061      22.0106
 5117.2872    5117.2872      66.5093     695.6251     728.0000     761.3754     475.8351      22.0439
 5117.1348    5117.1348      66.4732     694.8750     727.1250     761.7500     794.5000      22.0771
 5116.9824    5116.9824      66.5446     692.7500     726.3750     761.2500     794.2500      22.1104
 5116.8300    5116.8300      66.6539     691.3752     725.4994     760.3748     793.8745      22.1437
 5116.6776    5116.6776      66.7713     691.7498     724.3743     760.0000     792.8742      22.1771
 5116.5252    5116.5252      66.8840     691.4998     723.6247     760.0000     792.0000      22.2106
 5116.3728    5116.3728      66.9818     691.3750     723.3750     759.9998     792.0000      22.2441
 5116.2204    5116.2204      67.0617     691.3755     723.3750     759.8750     792.0000      22.2776
 5116.0680    5116.0680      67.1237     691.6241     723.3753     759.8744     792.0000      22.3112
 5115.9156    5115.9156      67.1586     691.2507     723.4997     759.6250     792.0000      22.3448
 5115.7632    5115.7632      67.1641     691.4996     723.3750     759.6258     792.0000      22.3784
 5115.6108    5115.6108      67.2122     691.3746     723.3746     759.8750     792.0000      22.4120
 5115.4584    5115.4584      67.4324     691.2503     723.2503     759.8750     792.0000      22.4455
 5115.3060    5115.3060      67.8709     691.2500     723.2500     759.7503     792.0000      22.4795
 5115.1536    5115.1536      68.3749     691.1252     723.1252     759.7500     792.0000      22.5137
 5115.0012    5115.0012      68.6395     691.4994     723.0002     759.6252     792.0000      22.5480
 5114.8488    5114.8488      68.4284     691.6249     723.3746     759.6250     792.0000      22.5822
 5114.6964    5114.6964      67.7970     691.1254     723.2501     759.8748     792.0000      22.6161
 5114.5440    5114.5439      67.0462     691.2500     723.2500     759.8750     792.0000      22.6497
 5114.3916    5114.3916      66.4937     691.0000     723.0000     759.7500     792.0000      22.6829
 5114.2392    5114.2393      66.2956     691.2500     723.2500     759.7500     792.0000      22.7161
 5114.0868    5114.0868      66.4124     691.1250     723.1250     759.7500     792.0000      22.7493
 5113.9344    5113.9344      66.6860     691.1253     723.1251     759.7501     792.0000      22.7827
 5113.7820    5113.7820      66.9395     691.3746     723.2500     759.8748     792.0000      22.8162
 5113.6296    5113.6296      67.0334     691.1248     723.2495     759.7502     792.0000      22.8497
 5113.4772    5113.4772      66.9368     691.0000     723.0006     759.8747     792.0000      22.8832
 5113.3248    5113.3248      66.7688     691.0003     723.2494     759.7503     792.0000      22.9166
 5113.1724    5113.1724      66.7149     691.1246     722.9996     759.8750     792.0000      22.9499
 5113.0200    5113.0200      66.8703     691.0004     722.8754     759.8754     792.0000      22.9834
 5112.8676    5112.8676      67.1639     691.1247     722.9997     759.9997     792.0000      23.0168
 5112.7152    5112.7152      67.4434     691.0003     723.0000     759.6259     792.0000      23.0505
 5112.5628    5112.5628      67.6038     688.6297     723.1248     759.6250     792.0000      23.0843
 5112.4104    5112.4104      67.6523     688.5002     277.8386     759.6250     791.5008      23.1181
 5112.2580    5112.2580      67.6377     687.2515     720.5785     758.2517     791.9994      23.1520
