~VERSION INFORMATION
VERS.           2.0   :CWLS Log ASCII Standard - VERSION 2.0
WRAP.           YES   :Multiple lines per depth step
PROD.  Schlumberger   :LAS Producer
PROG.  DLIS to ASCII 2.3                               :LAS Program name and version
CREA.        2023/07/14 00:15                          :LAS Creation date {YYYY/MM/DD hh:mm}
DLIS_CREA.  2023-Jul-14 00:11                          :DLIS Creation date and time {YYYY-MMM-DD hh:mm}
SOURCE.     LIS_013.dlis                               :DLIS File Name
FILE-ID.     LIS   .002                                :File Identification Number
#--------------------------------------------------
~WELL INFORMATION
#MNEM.UNIT      DATA             DESCRIPTION
#---- ------ --------------   -----------------------------
STRT .M      5299.5576       :START DEPTH     
STOP .M      4241.4444       :STOP DEPTH     
STEP .M        -0.1524       :STEP     
NULL .          -999.25      :NULL VALUE
COMP .        PETROBRAS S.A.                           :COMPANY
WELL .        3-BRSA-293D-SPS                          :WELL
FLD  .        BS-400                                   :FIELD
LOC  .        BASE SAD 69:                             :LOCATION
CNTY .        SANTOS                                   :COUNTY
STAT .        BRASIL                                   :STATE
CTRY .        BRASIL                                   :COUNTRY
API  .                                                 :API NUMBER
UWI  .                                                 :UNIQUE WELL ID
DATE .        15/11/2004                               :LOG DATE
SRVC .        Schlumberger                             :SERVICE COMPANY
LATI .DEG                                              :LATITUDE
LONG .DEG                                              :LONGITUDE
GDAT .                                                 :GeoDetic Datum
#-----------------------------------------------------------------------------
~PARAMETER INFORMATION
#MNEM.UNIT    VALUE                      DESCRIPTION
#---- -----   --------------------       ------------------------
APD  .M               24                 :
BHT  .DEGF           260                 :
BLI  .M             5289                 :
BS   .IN         8.50000                 :
CN   .        PETROBRAS S.A.             :
COUN .        SANTOS                     :
CS   .IN         9.62500                 :
DATE .        15/11/2004                 :
DFD  .LB/G      12.30000                 :
DFL  .C3               2                 :
DFPH .        N/A                        :
DFT  .        SINTETICO                  :
DFV  .S               95                 :
DMF  .        MESA ROTATIVA              :
EDF  .M               24                 :
EGL  .M             -500                 :
EKB  .        N/A                        :
ENGI .        HERNANDEZ / LOCK           :
FL1  .        X   7292392.00 M LAT 24 28 47.189 S :
FL2  .        Y    584087.00 M LON 44 10 12.698 W :
FL3  .        MC  45 GRAUS               :
FN   .        BS-400                     :
LMF  .        MESA ROTATIVA              :
LUL  .        MACAE                      :
MCSS .        PRENSA                     :
MCST .DEGF            80                 :
MFSS .        PRENSA                     :
MFST .DEGF            80                 :
MSS  .        LINHA DE FLUXO             :
MST  .DEGF            80                 :
PDAT .        NIVEL DO MAR               :
R1   .        01. APRESENTAÇÃO DE ACORDO COM REQUERIMENTO DO CLIENTE :
R2   .        02. TEMPERATURA MÁXIMA DO POÇO T1=T2= 292 DEGF @  5277 M :
R3   .        03. INICIO DA CIRCULAÇÃO  12/11/2004 09 00 H :
R4   .        04. FINAL DA CIRCULAÇÃO   12/11/2004 18 00 H :
R5   .        05. TEMPO TOTAL DE CIRCULAÇÃO   09 00 H :
R6   .        06. FLUIDO DE PERFURAÇÃO  SINTETICO (BR-MUL  BR-MI)  60% TEOR DO OLEO :
R7   .        07. SALINIDADE DA LAMA  254762 PPM NACL NA FASE DE AGUA :
R8   .        08. INCLINAÇÃO MÁXIMA DO POÇO  37.37 GRAUS @ 5100 M :
R9   .        09. PRIMEIRAS E ULTIMAS LEITURAS  :
RMB  .OHMM    > 10                       :
RMCS .OHMM    > 10                       :
RMFS .OHMM    > 10                       :
RMS  .OHMM    >10                        :
RUN  .                 2                 :
STAT .        BRASIL                     :
TCS  .        18 00 H                    :
TDD  .M             5288                 :
TDL  .M             5293                 :
TLAB .        N/A                        :
TLI  .M             4277                 :
WITN .        ERNANI / ZE MARIA          :
WN   .        3-BRSA-293D-SPS            :
LUN  .              8808                 :
HIDE .        3-SPS-41D                  :
HID2 .        COMPENSATED Z-DENSILOG     :
HID3 .        COMPENSATED NEUTRON LOG    :
HID4 .        GAMMA RAY LOG              :
HID5 .        TTRM SUB                   :
CLAB .        BACIA                      :
SLAB .        PAIS                       :
CMT1 .        ESC  1 1000                :
CMT2 .        PROF. MEDIDA               :
CMT4 .        SONDA  SS-43               :
HDAT .        SAD 69                     :
FL   .        BASE SAD 69                :
OS1  .        RCI/GR                     :
OS2  .        CHECK SHOT                 :
OS3  .        GR/XMAC/HDIL               :
OS5  .        RCOR/GR                    :
LNAM .        ZDL/CN/XMAC/HDIL/EARTH IMAGER/RCI/RCOR/CHECK SHOT/GR :
TOOL .        ZDL/CN/XMAC/HDIL/EARTH IMAGER/RCI/RCOR/CHECK SHOT/GR :
LSOU .        PETROBRAS                  :
LSRV .        OH WIRELINE                :
LTYP .        RAW                        :
EPD  .M                0                 :
LDAT .        15/11/2004                 :
TRIP .                 4                 :
SON  .            786588                 :
CBDR .M             4277                 :
CBLO .        NR                         :
CBL1 .        NR                         :
STEM .DEGF    N/A                        :
BSAL .            254762                 :
BARI .        OFF                        :
DLAB .        12/11/2004                 :
MRT  .DEGF           292                 :
TSTR .        ZDL/CN/GR/TTRM             :
TSTG .        N/A                        :
STUS .        FINAL                      :
LCNM .        BAKER ATLAS                :
LCC  .               150                 :
NATI .        BRASIL                     :
OPMD .        OH.WIRELINE                :
PANA .        HERNANDEZ / LOCK           :
PCON .        BAKER ATLAS                :
R11  .        GR     5268.3 M / 4277.0 M :
R12  .        CN     5286.5 M / 5128.0 M (FERRAMENTA PERDEU LEITURA ACIMA DE 5128M) :
R13  .        ZDL    5292.0 M / 4277.0 M :
R15  .        10. PONTO FRACO UTILIZADO  10K :
R17  .        12. COORDENADAS BASE       :
R19  .        X   7292512.00 M           :
R21  .        MC  45 GRAUS               :
R23  .        13. CADASTRO ANP  86316021017 :
PVER .           4.10000                 :
WDFN .        /space/expusr/3-SPS-41D_RUN2/i77bf04_8spf.xtf :
OCT  .        i77bf                      :
OS4  .        EARTH IMAGER               :
R16  .        11. DECLINAÇÃO MAGNETICA  -20.9 GRAUS :
R20  .        Y    583936.00 M           :
#-----------------------------------------------------------------------------
~CURVE INFORMATION
#MNEM.UNIT   API CODE                                  DESCRIPTION
#---- -----  --------                                  -----------------------
DEPT .M                                                :DEPTH (BOREHOLE) {F10.4}
DEPT .M                                                : {F13.4}
BIT  .IN                                               : {F13.4}
DEPM .M                                                : {F13.4}
GR   .GAPI                                             : {F13.4}
SPD  .M/MN                                             : {F13.4}
TTEN .LBF                                              : {F13.4}
CAL  .IN                                               : {F13.4}
CALX .IN                                               : {F13.4}
HRD1 .HZ                                               : {F13.4}
HRD2 .HZ                                               : {F13.4}
PE   .B/E                                              : {F13.4}
SFT2 .HZ                                               : {F13.4}
SOFT .HZ                                               : {F13.4}
SSD  .HZ                                               : {F13.4}
ZCOR .G/C3                                             : {F13.4}
ZDEN .G/C3                                             : {F13.4}
CNC  .PU                                               : {F13.4}
CN   .PU                                               : {F13.4}
LSN  .HZ                                               : {F13.4}
SSN  .HZ                                               : {F13.4}
CNCF .PU                                               : {F13.4}
MMRK .MN                                               : {F13.4}
#-----------------------------------------------------------------------------
# DEPT       
#     DEPT         BIT          DEPM         GR           SPD          TTEN         
#     CAL          CALX         HRD1         HRD2         PE           SFT2         
#     SOFT         SSD          ZCOR         ZDEN         CNC          CN           
#     LSN          SSN          CNCF         MMRK         
~A  
# ...
4271.1624
   4271.1624       8.5000    4268.8587      51.0076       7.5076    6210.0956
      9.1169       8.5169     159.2203     236.8376      16.1471      75.4678
     48.1820    1808.0787      -0.8903       2.2876       0.0000      30.8530
    646.7492    2064.1211      30.0677       0.0000
4271.0100
   4271.0100       8.5000    4268.7063      51.1557       7.4930    6211.0028
      9.1173       8.5173     152.3929     240.2225      16.0530      76.5355
     46.3340    1797.9086      -0.8931       2.2893       0.0000      31.4447
    645.0258    2078.3379      30.6571       0.0000
4270.8576
   4270.8576       8.5000    4268.5539      51.0932       7.4782    6221.9420
      9.1178       8.5178     143.8969     255.5841      15.9859      74.8961
     43.7475    1799.4593      -0.8970       2.2831       0.0000      31.1768
    653.6545    2097.1156      30.3895       0.0000
4270.7052
   4270.7052       8.5000    4268.4015      50.6897       7.4647    6237.0611
      9.1187       8.5187     140.2087     266.4566      15.8929      72.4597
     40.5634    1810.2465      -0.8963       2.2763       0.0000      30.5967
    664.2175    2110.9975      29.8106       0.0000
4270.5528
   4270.5528       8.5000    4268.2491      50.2204       7.4630    6247.4019
      9.1199       8.5199     147.2915     261.3295      15.8638      73.6018
     36.9698    1834.3868      -0.8854       2.2737       0.0000      30.3305
    668.4633    2115.1369      29.5444       0.0000
4270.4004
   4270.4004       8.5000    4268.0967      50.0879       7.4830    6242.0039
      9.1207       8.5207     157.5140     253.8866      15.9665      75.0776
     36.7117    1857.3352      -0.8758       2.2724       0.0000      29.6835
    672.0704    2103.3691      28.8999       0.0000
4270.2480
   4270.2480       8.5000    4267.9453      49.6986       7.5142    6217.8076
      9.1217       8.5217     160.2259     253.5276    -999.2500      73.8988
     44.1785    1860.1555      -0.8759    -999.2500       0.0000      28.7696
    676.1177    2082.4648      27.9910       0.0000
4270.0956
   4270.0956       8.5000    4267.7929      49.6482       7.5252    6194.7553
      9.1227       8.5227     158.3175     251.5018    -999.2500      73.7259
     50.9596    1853.0836      -0.8769    -999.2500       0.0000      28.5821
    673.5369    2067.5456      27.8039       0.0000
4269.9432
   4269.9432       8.5000    4267.6405      50.8011    -999.2500    -999.2500
      9.1229       8.5229     156.2729     245.3030    -999.2500      75.9305
     49.6046    1863.3468      -0.8663    -999.2500       0.0000      28.9942
    667.7456    2064.9100      28.2128       0.0000
4269.7908
   4269.7908       8.5000    4267.4881      51.6027    -999.2500    -999.2500
      9.1225       8.5225     153.2797     237.9663    -999.2500      76.7689
     46.6848    1886.0903      -0.8481    -999.2500       0.0000      28.9582
    669.1779    2067.9974      28.1774       0.0000
4269.6384
   4269.6384       8.5000    4267.4121      50.0286    -999.2500    -999.2500
      9.1213       8.5213     151.3306     231.0796    -999.2500      77.9022
     47.6219    1904.3168      -0.8331    -999.2500       0.0000      27.8180
    683.2424    2068.0291      27.0474       0.0000
4269.4860
   4269.4860    -999.2500    -999.2500      46.7778    -999.2500    -999.2500
      9.1202       8.5187     155.4985     232.4090    -999.2500      83.6882
     47.4335    1912.7040      -0.8329    -999.2500       0.0000      26.2597
    702.9616    2064.7161      26.2262    -999.2500
4269.3336
   4269.3336    -999.2500    -999.2500      44.4166    -999.2500    -999.2500
   -999.2500       8.5155     159.0411     237.9396    -999.2500      87.1058
     46.5763    1908.0536      -0.8413    -999.2500    -999.2500      25.6553
    711.4115    2064.1578    -999.2500    -999.2500
4269.1812
   4269.1812    -999.2500    -999.2500      43.9450    -999.2500    -999.2500
   -999.2500       8.5130     151.5799     232.6444    -999.2500      82.1783
     48.6845    1887.1094      -0.8427    -999.2500    -999.2500      25.9463
    709.6166    2071.2112    -999.2500    -999.2500
4269.0288
   4269.0288    -999.2500    -999.2500      44.5620    -999.2500    -999.2500
   -999.2500       8.5119     139.4596     224.3344    -999.2500      75.1240
     49.8989    1865.7513      -0.8402    -999.2500    -999.2500      26.4338
    707.4751    2085.2471    -999.2500    -999.2500
4268.8764
   4268.8764    -999.2500    -999.2500      45.5078    -999.2500    -999.2500
   -999.2500    -999.2500    -999.2500    -999.2500    -999.2500    -999.2500
   -999.2500    1865.6941    -999.2500    -999.2500    -999.2500      27.2655
    700.8923    2099.5123    -999.2500    -999.2500
4268.7240
   4268.7240    -999.2500    -999.2500      46.2992    -999.2500    -999.2500
   -999.2500    -999.2500    -999.2500    -999.2500    -999.2500    -999.2500
   -999.2500    -999.2500    -999.2500    -999.2500    -999.2500      28.6523
    685.6632    2107.3642    -999.2500    -999.2500
4268.5716
   4268.5716    -999.2500    -999.2500      46.9767    -999.2500    -999.2500
   -999.2500    -999.2500    -999.2500    -999.2500    -999.2500    -999.2500
   -999.2500    -999.2500    -999.2500    -999.2500    -999.2500      29.5200
    676.4288    2111.0882    -999.2500    -999.2500
4268.4192
   4268.4192    -999.2500    -999.2500      47.5846    -999.2500    -999.2500
   -999.2500    -999.2500    -999.2500    -999.2500    -999.2500    -999.2500
   -999.2500    -999.2500    -999.2500    -999.2500    -999.2500      28.8325
    686.0311    2115.2439    -999.2500    -999.2500
4268.2668
   4268.2668    -999.2500    -999.2500      47.9188    -999.2500    -999.2500
   -999.2500    -999.2500    -999.2500    -999.2500    -999.2500    -999.2500
   -999.2500    -999.2500    -999.2500    -999.2500    -999.2500      26.9279
    713.6729    2123.7911    -999.2500    -999.2500
4268.1144
   4268.1144    -999.2500    -999.2500      47.3536    -999.2500    -999.2500
   -999.2500    -999.2500    -999.2500    -999.2500    -999.2500    -999.2500
   -999.2500    -999.2500    -999.2500    -999.2500    -999.2500      25.4171
    744.9679    2150.8866    -999.2500    -999.2500
4267.9620
   4267.9620    -999.2500    -999.2500      45.2006    -999.2500    -999.2500
   -999.2500    -999.2500    -999.2500    -999.2500    -999.2500    -999.2500
   -999.2500    -999.2500    -999.2500    -999.2500    -999.2500      25.7703
    758.4574    2205.8015    -999.2500    -999.2500
4267.8096
   4267.8096    -999.2500    -999.2500      42.5203    -999.2500    -999.2500
   -999.2500    -999.2500    -999.2500    -999.2500    -999.2500    -999.2500
   -999.2500    -999.2500    -999.2500    -999.2500    -999.2500      27.2806
    753.7126    2258.4243    -999.2500    -999.2500
4267.6572
   4267.6572    -999.2500    -999.2500      42.0038    -999.2500    -999.2500
   -999.2500    -999.2500    -999.2500    -999.2500    -999.2500    -999.2500
   -999.2500    -999.2500    -999.2500    -999.2500    -999.2500      27.8352
    746.5171    2260.4351    -999.2500    -999.2500
4267.5048
   4267.5048    -999.2500    -999.2500      44.3522    -999.2500    -999.2500
   -999.2500    -999.2500    -999.2500    -999.2500    -999.2500    -999.2500
   -999.2500    -999.2500    -999.2500    -999.2500    -999.2500      27.1750
    737.2187    2204.5919    -999.2500    -999.2500
4267.3524
   4267.3524    -999.2500    -999.2500      46.8420    -999.2500    -999.2500
   -999.2500    -999.2500    -999.2500    -999.2500    -999.2500    -999.2500
   -999.2500    -999.2500    -999.2500    -999.2500    -999.2500      26.4742
    724.5640    2137.3366    -999.2500    -999.2500
4267.2000
   4267.2000    -999.2500    -999.2500      46.8865    -999.2500    -999.2500
   -999.2500    -999.2500    -999.2500    -999.2500    -999.2500    -999.2500
   -999.2500    -999.2500    -999.2500    -999.2500    -999.2500      25.5282
    733.5999    2122.8137    -999.2500    -999.2500
4267.0476
   4267.0476    -999.2500    -999.2500      44.1678    -999.2500    -999.2500
   -999.2500    -999.2500    -999.2500    -999.2500    -999.2500    -999.2500
   -999.2500    -999.2500    -999.2500    -999.2500    -999.2500      24.1308
    780.4432    2192.0258    -999.2500    -999.2500
