~VERSION INFORMATION
VERS.           2.0   :CWLS Log ASCII Standard - VERSION 2.0
WRAP.           NO    :One Line per depth step
PROD.  Schlumberger   :LAS Producer
PROG.  DLIS to ASCII 2.3                               :LAS Program name and version
CREA.        2023/07/14 00:15                          :LAS Creation date {YYYY/MM/DD hh:mm}
DLIS_CREA.  2023-Jul-14 00:11                          :DLIS Creation date and time {YYYY-MMM-DD hh:mm}
SOURCE.     LIS_005.dlis                               :DLIS File Name
FILE-ID.     LIS   .001                                :File Identification Number
#--------------------------------------------------
~WELL INFORMATION
#MNEM.UNIT      DATA             DESCRIPTION
#---- ------ --------------   -----------------------------
STRT .M      5238.7500       :START DEPTH     
STOP .M      5087.2644       :STOP DEPTH     
STEP .M        -0.1524       :STEP     
NULL .          -999.25      :NULL VALUE
COMP .        PETROBRAS S.A.                           :COMPANY
WELL .        3-BRSA-293D-SPS                          :WELL
FLD  .        BS-400                                   :FIELD
LOC  .        BASE SAD 69:                             :LOCATION
CNTY .        SANTOS                                   :COUNTY
STAT .        BRASIL                                   :STATE
CTRY .        SANTOS                                   :COUNTRY
API  .                                                 :API NUMBER
UWI  .                                                 :UNIQUE WELL ID
DATE .        23/10/2004                               :LOG DATE
SRVC .        Schlumberger                             :SERVICE COMPANY
LATI .DEG                                              :LATITUDE
LONG .DEG                                              :LONGITUDE
GDAT .                                                 :GeoDetic Datum
#-----------------------------------------------------------------------------
~PARAMETER INFORMATION
#MNEM.UNIT    VALUE                      DESCRIPTION
#---- -----   --------------------       ------------------------
APD  .M               24                 :
BHT  .DEGF           280                 :
BLI  .M             5230                 :
BS   .IN         8.50000                 :
CN   .        PETROBRAS S.A.             :
COUN .        SANTOS                     :
CS   .IN         9.62500                 :
DATE .        23/10/2004                 :
DFD  .LB/G      12.30000                 :
DFL  .C3               2                 :
DFPH .        N/A                        :
DFT  .        SINTETICO                  :
DFV  .S               87                 :
DMF  .        MESA ROTATIVA              :
EDF  .M               24                 :
EGL  .M             -500                 :
EKB  .        N/A                        :
ENGI .        HERNANDEZ/LOCK             :
FL1  .        X   7292392.00 M LAT 24 28 47.189 S :
FL2  .        Y    584087.00 M LON 44 10 12.698 W :
FL3  .        MC  45 GRAUS               :
FN   .        BS-400                     :
LMF  .        MESA ROTATIVA              :
LUL  .        MACAE                      :
MCSS .        PRENSA                     :
MCST .DEGF            80                 :
MFSS .        PRENSA                     :
MFST .DEGF            80                 :
MSS  .        LINHA DE FLUXO             :
MST  .DEGF            80                 :
PDAT .        NIVEL DO MAR               :
R1   .        01. APRESENTAÇÃO DE ACORDO COM REQUERIMENTO DO CLIENTE :
R2   .        02. TEMPERATURA MÁXIMA DO POÇO T1=T2= 260 DEGF @  5180 M :
R3   .        03. INICIO DA CIRCULAÇÃO  13 45 H 21/10/2004 :
R4   .        04. FINAL DA CIRCULAÇÃO   16 00 H 21/10/2004 :
R5   .        05. TEMPO TOTAL DE CIRCULAÇÃO  02 15 H :
R6   .        06. FLUIDO DE PERFURAÇÃO  SINTETICO (BR-MUL  BR-MI)  65% TEOR DO OLEO :
R7   .        07. SALINIDADE DA LAMA  266377 PPM NACL NA FASE DE AGUA :
R8   .        08. INCLINAÇÃO MÁXIMA DO POÇO  37.37 GRAUS @ 5100 M :
R9   .        09. PRIMEIRAS E ULTIMAS LEITURAS  :
RMB  .OHMM    > 10                       :
RMCS .OHMM    > 10                       :
RMFS .OHMM    > 10                       :
RMS  .OHMM    > 10                       :
RUN  .                 1                 :
STAT .        BRASIL                     :
TCS  .        16 00 H                    :
TDD  .M             5230                 :
TDL  .M             5231                 :
TLAB .        N/A                        :
TLI  .M             4277                 :
WITN .        ALCIDIO/VLADIMIR           :
WN   .        3-BRSA-293D-SPS            :
LUN  .              8808                 :
HIDE .        3-SPS-41D                  :
HID2 .        COMPENSATED Z-DENSILOG     :
HID3 .        COMPENSATED NEUTRON LOG    :
HID4 .        GAMMA RAY LOG              :
HID5 .        TTRM SUB                   :
CLAB .        BACIA                      :
SLAB .        PAIS                       :
CMT1 .        ESC  1 1000                :
CMT2 .        PROF. MEDIDA               :
CMT4 .        SONDA  SS-43               :
HDAT .        SAD 69                     :
FL   .        BASE SAD 69                :
OS1  .        HDIL/XMAC/SL/GR            :
OS3  .        MREX/GR                    :
OS5  .        SL/GR                      :
LNAM .        MREX/ZDL/CN/XMAC/HDIL/3DEX/RCI/SL/GR :
TOOL .        MREX/ZDL/CN/XMAC/HDIL/3DEX/RCI/SL/GR :
LSOU .        PETROBRAS                  :
LSRV .        OH WIRELINE                :
LTYP .        RAW                        :
EPD  .M                0                 :
LDAT .        23/10/2004                 :
TRIP .                 1                 :
SON  .            772317                 :
CBDR .M             4277                 :
CBLO .M             4277                 :
CBL1 .M             4277                 :
STEM .DEGF    N/A                        :
BSAL .            266377                 :
BARI .        OFF                        :
DLAB .        21/10/2004                 :
MRT  .DEGF           280                 :
TSTR .        ZDL/CN/GR/TTRM             :
TSTG .        N/A                        :
STUS .        FINAL                      :
LCNM .        BAKER ATLAS                :
LCC  .               150                 :
NATI .        SANTOS                     :
OPMD .        OH.WIRELINE                :
PANA .        HERNANDEZ/LOCK             :
PCON .        BAKER ATLAS                :
R11  .        GR     5222.5 M/4277.0 M   :
R12  .        ZDL    5230.0 M/4277.0 M   :
R13  .        CN     5224.0 M/4277.0 M   :
R15  .        10. PONTO FRACO UTILIZADO  10K :
R17  .        12. DECLINAÇÃO MAGNETICA  -20.9 GRAUS :
R18  .        13. COORDENADAS BASE       :
R21  .        Y    583936.00 M           :
R22  .        MC  45 GRAUS               :
PVER .           4.10000                 :
WDFN .        /space/expusr/3-SPS-41D/i77bf06_8spf.xtf :
OCT  .        i77bf                      :
0S2  .        3DEX/GR                    :
OS4  .        RCI/GR                     :
R16  .        11. CNC CORREGIDO PELO CALIPER E SALINIDADE  PRESENTADO MATRIZ CARBONATO :
R20  .        X   7292512.00 M           :
R24  .        14. CADASTRO ANP  86316021017 :
#-----------------------------------------------------------------------------
~CURVE INFORMATION
#MNEM.UNIT   API CODE                                  DESCRIPTION
#---- -----  --------                                  -----------------------
DEPT .M                                                :DEPTH (BOREHOLE) {F10.4}
DEPT .M                                                : {F13.4}
BIT  .IN                                               : {F13.4}
GR   .GAPI                                             : {F13.4}
TEN  .LBF                                              : {F13.4}
TTEN .LBF                                              : {F13.4}
CAL  .IN                                               : {F13.4}
CALX .IN                                               : {F13.4}
HRD1 .HZ                                               : {F13.4}
HRD2 .HZ                                               : {F13.4}
PE   .B/E                                              : {F13.4}
SFT2 .HZ                                               : {F13.4}
SOFT .HZ                                               : {F13.4}
SSD  .HZ                                               : {F13.4}
ZCOR .G/C3                                             : {F13.4}
ZDEN .G/C3                                             : {F13.4}
#-----------------------------------------------------------------------------
# 
#     DEPT        DEPT         BIT          GR           TEN          TTEN         CAL          CALX         HRD1         HRD2         PE           SFT2         SOFT         SSD          ZCOR         ZDEN
#
~A  
# ...
 5113.9344    5113.9344       8.5000      69.1552       8.5217    6546.2004       8.6244       8.6244     620.9111     826.0622       5.6323     488.3266     344.8847    6239.2887      -0.0351       2.5695
 5113.7820    5113.7820       8.5000      70.0450      29.3108    6567.4680       8.6245       8.6245     612.7768     836.4022       5.7428     484.6292     340.6572    6227.1176      -0.0373       2.5690
 5113.6296    5113.6296       8.5000      69.1547       1.8827    6540.3994       8.6264       8.6264     619.3601     846.4291       5.8555     478.7963     337.1058    6211.1950      -0.0426       2.5651
 5113.4772    5113.4772       8.5000      68.4125     -54.5098    6483.5811       8.6276       8.6276     626.7153     853.2213       5.9226     473.3422     332.9533    6202.8177      -0.0464       2.5618
 5113.3248    5113.3248       8.5000      69.7875     -91.5210    6445.3484       8.6271       8.6271     627.5112     845.9380       5.9680     473.0235     329.3689    6208.1845      -0.0445       2.5625
 5113.1724    5113.1724       8.5000      73.0463     -86.1932    6449.2310       8.6261       8.6261     629.3143     828.7740       5.9962     481.3784     331.1244    6202.8287      -0.0424       2.5654
 5113.0200    5113.0200       8.5000      75.8090     -60.5235    6473.7413       8.6259       8.6259     626.4179     820.1238       5.9756     490.5098     332.4473    6173.3881      -0.0446       2.5674
 5112.8676    5112.8676       8.5000      76.4567     -52.6732    6480.7095       8.6262       8.6262     615.6193     828.9027       6.0994     489.7383     325.8783    6151.1730      -0.0474       2.5673
 5112.7152    5112.7152       8.5000      76.2679     -65.9880    6466.4427       8.6263       8.6263     606.7882     841.7627       6.3331     482.9561     318.9958    6172.4918      -0.0451       2.5647
 5112.5628    5112.5628       8.5000      77.8501     -62.7158    6468.7074       8.6255       8.6255     610.4918     855.8458       6.4219     479.2883     318.2853    6214.6372      -0.0422       2.5582
 5112.4104    5112.4104       8.5000      81.3616     -43.1939    6487.4877       8.6245       8.6245     631.5860     874.1142       6.4574     479.8249     322.1240    6254.0181      -0.0437       2.5472
 5112.2580    5112.2580       8.5000      82.2048     -46.7329    6483.3096       8.6244       8.6244     657.5617     890.4876       6.4605     482.4359     332.2530    6270.4956      -0.0488       2.5364
 5112.1056    5112.1056       8.5000      77.0423     -63.6264    6465.5059       8.6241       8.6241     670.9402     894.7043       6.2792     488.2142     346.5273    6259.7698      -0.0534       2.5319
 5111.9532    5111.9532       8.5000      69.7317     -62.0596    6466.0436       8.6224       8.6224     664.5041     893.6751       6.2467     493.3992     350.9812    6233.7134      -0.0558       2.5334
 5111.8008    5111.8008       8.5000      66.6562     -63.5745    6463.5518       8.6208       8.6208     649.3451     893.5868       6.3251     494.7844     342.2351    6222.3861      -0.0548       2.5370
 5111.6484    5111.6484       8.5000      67.5705     -88.1041    6437.7368       8.6209       8.6209     641.3986     890.9109       6.4026     492.2023     333.2462    6238.1359      -0.0507       2.5397
 5111.4960    5111.4960       8.5000      67.7312    -110.6465    6413.4255       8.6221       8.6221     640.6846     887.5567       6.4831     490.8296     330.5874    6247.9201      -0.0486       2.5412
 5111.3436    5111.3436       8.5000      66.2328    -114.8474    6407.3056       8.6238       8.6238     637.2612     878.8165       6.3698     489.7969     332.1606    6233.6437      -0.0485       2.5446
 5111.1912    5111.1912       8.5000      66.1027    -111.6086    6408.7619       8.6258       8.6258     632.0198     855.3334       5.9487     492.3290     339.9140    6216.9806      -0.0457       2.5514
 5111.0388    5111.0388       8.5000      67.4795    -109.3371    6409.3313       8.6276       8.6276     630.7198     831.8404       5.5393     500.2298     348.9479    6212.0351      -0.0419       2.5571
 5110.8864    5110.8864       8.5000      67.7261    -104.9884    6411.9289       8.6278       8.6278     632.2518     835.0511       5.5284     509.1628     349.7360    6222.7342      -0.0412       2.5561
 5110.7340    5110.7340       8.5000      66.7895     -97.9864    6417.1811       8.6270       8.6270     642.6659     853.2279       5.8057     515.0368     343.3712    6250.8639      -0.0424       2.5495
 5110.5816    5110.5816       8.5000      66.4321     -93.0325    6420.4868       8.6267       8.6267     659.5699     862.9478       5.9871     519.2564     339.8616    6271.1412      -0.0442       2.5427
 5110.4292    5110.4292       8.5000      67.4389     -94.4100    6417.5499       8.6266       8.6266     665.4478     875.4940       5.9725     523.8135     342.9203    6264.1524      -0.0485       2.5381
 5110.2768    5110.2768       8.5000      69.9058    -104.1033    6406.2426       8.6256       8.6256     652.7595     899.6173       5.9224     526.5118     349.4734    6256.6104      -0.0515       2.5359
 5110.1244    5110.1244       8.5000      73.2147    -122.0574    6386.4320       8.6252       8.6252     641.0139     911.2675       5.9171     526.0667     356.6652    6251.9423      -0.0522       2.5366
 5109.9720    5109.9720       8.5000      75.8536    -136.4573    6369.8789       8.6260       8.6260     643.4224     901.8273       5.8426     523.0061     363.8067    6242.5143      -0.0523       2.5389
 5109.8196    5109.8196       8.5000      76.8493    -132.7519    6371.3603       8.6265       8.6265     649.6156     892.4741       5.6774     521.2099     367.6940    6248.7417      -0.0509       2.5412
 5109.6672    5109.6672       8.5000      76.8924    -121.2174    6380.8512       8.6263       8.6263     644.7993     877.3361       5.5645     516.1758     363.8042    6256.5379      -0.0462       2.5486
 5109.5148    5109.5148       8.5000      76.7769    -118.2224    6381.9526       8.6268       8.6268     623.1352     830.8684       5.4873     493.9287     349.0835    6190.2131      -0.0435       2.5679
 5109.3624    5109.3624       8.5000      74.7753    -112.2900    6386.0636       8.6282       8.6282     584.6096     771.5476       5.6018     453.2246     321.7240    6045.1842      -0.0461       2.5952
 5109.2100    5109.2100       8.5000      68.9811     -97.7352    6398.9634       8.6287       8.6287     546.5670     742.9597       6.1107     419.8506     291.2471    5962.5325      -0.0449       2.6144
 5109.0576    5109.0576       8.5000      64.4366     -93.6174    6401.5299       8.6281       8.6281     537.4090     759.9665       6.6906     414.4909     278.0820    6029.0340      -0.0365       2.6130
 5108.9052    5108.9052       8.5000      65.5930    -102.3968    6391.1160       8.6276       8.6276     557.6023     799.9413       6.8179     432.9948     289.1089    6140.6114      -0.0322       2.5967
 5108.7528    5108.7528       8.5000      69.1965    -105.8822    6385.8899       8.6279       8.6279     580.9864     829.2641       6.4437     458.7467     312.7063    6199.1373      -0.0340       2.5812
 5108.6004    5108.6004       8.5000      70.6992    -105.7303    6384.2718       8.6288       8.6288     598.8625     837.8146       5.9247     480.1887     335.3082    6224.9860      -0.0352       2.5721
 5108.4480    5108.4480       8.5000      70.9880    -108.9394    6379.2361       8.6294       8.6294     614.3573     840.8012       5.6168     492.9652     349.1735    6234.2096      -0.0373       2.5659
 5108.2956    5108.2956       8.5000      70.4633    -103.1935    6383.1736       8.6279       8.6279     621.2975     851.6313       5.5758     499.9449     354.4248    6210.9113      -0.0440       2.5606
 5108.1432    5108.1432       8.5000      68.1803     -86.8749    6397.9197       8.6245       8.6245     618.4556     865.9463       5.5600     507.7929     358.7054    6188.3735      -0.0493       2.5573
