~VERSION INFORMATION
VERS.           2.0   :CWLS Log ASCII Standard - VERSION 2.0
WRAP.           YES   :Multiple lines per depth step
PROD.  Schlumberger   :LAS Producer
PROG.  DLIS to ASCII 2.3                               :LAS Program name and version
CREA.        2023/07/14 00:15                          :LAS Creation date {YYYY/MM/DD hh:mm}
DLIS_CREA.  2023-Jul-14 00:11                          :DLIS Creation date and time {YYYY-MMM-DD hh:mm}
SOURCE.     LIS_007.dlis                               :DLIS File Name
FILE-ID.     LIS   .003                                :File Identification Number
#--------------------------------------------------
~WELL INFORMATION
#MNEM.UNIT      DATA             DESCRIPTION
#---- ------ --------------   -----------------------------
STRT .M      5238.7500       :START DEPTH     
STOP .M      4241.4444       :STOP DEPTH     
STEP .M        -0.1524       :STEP     
NULL .          -999.25      :NULL VALUE
COMP .        PETROBRAS S.A.                           :COMPANY
WELL .        3-BRSA-293D-SPS                          :WELL
FLD  .        BS-400                                   :FIELD
LOC  .        BASE SAD 69:                             :LOCATION
CNTY .        SANTOS                                   :COUNTY
STAT .        BRASIL                                   :STATE
CTRY .        SANTOS                                   :COUNTRY
API  .                                                 :API NUMBER
UWI  .                                                 :UNIQUE WELL ID
DATE .        23/10/2004                               :LOG DATE
SRVC .        Schlumberger                             :SERVICE COMPANY
LATI .DEG                                              :LATITUDE
LONG .DEG                                              :LONGITUDE
GDAT .                                                 :GeoDetic Datum
#-----------------------------------------------------------------------------
~PARAMETER INFORMATION
#MNEM.UNIT    VALUE                      DESCRIPTION
#---- -----   --------------------       ------------------------
APD  .M               24                 :
BHT  .DEGF           280                 :
BLI  .M             5230                 :
BS   .IN         8.50000                 :
CN   .        PETROBRAS S.A.             :
COUN .        SANTOS                     :
CS   .IN         9.62500                 :
DATE .        23/10/2004                 :
DFD  .LB/G      12.30000                 :
DFL  .C3               2                 :
DFPH .        N/A                        :
DFT  .        SINTETICO                  :
DFV  .S               87                 :
DMF  .        MESA ROTATIVA              :
EDF  .M               24                 :
EGL  .M             -500                 :
EKB  .        N/A                        :
ENGI .        HERNANDEZ/LOCK             :
FL1  .        X   7292392.00 M LAT 24 28 47.189 S :
FL2  .        Y    584087.00 M LON 44 10 12.698 W :
FL3  .        MC  45 GRAUS               :
FN   .        BS-400                     :
LMF  .        MESA ROTATIVA              :
LUL  .        MACAE                      :
MCSS .        PRENSA                     :
MCST .DEGF            80                 :
MFSS .        PRENSA                     :
MFST .DEGF            80                 :
MSS  .        LINHA DE FLUXO             :
MST  .DEGF            80                 :
PDAT .        NIVEL DO MAR               :
R1   .        01. APRESENTAÇÃO DE ACORDO COM REQUERIMENTO DO CLIENTE :
R2   .        02. TEMPERATURA MÁXIMA DO POÇO T1=T2= 260 DEGF @  5180 M :
R3   .        03. INICIO DA CIRCULAÇÃO  13 45 H 21/10/2004 :
R4   .        04. FINAL DA CIRCULAÇÃO   16 00 H 21/10/2004 :
R5   .        05. TEMPO TOTAL DE CIRCULAÇÃO  02 15 H :
R6   .        06. FLUIDO DE PERFURAÇÃO  SINTETICO (BR-MUL  BR-MI)  65% TEOR DO OLEO :
R7   .        07. SALINIDADE DA LAMA  266377 PPM NACL NA FASE DE AGUA :
R8   .        08. INCLINAÇÃO MÁXIMA DO POÇO  37.37 GRAUS @ 5100 M :
R9   .        09. PRIMEIRAS E ULTIMAS LEITURAS  :
RMB  .OHMM    > 10                       :
RMCS .OHMM    > 10                       :
RMFS .OHMM    > 10                       :
RMS  .OHMM    > 10                       :
RUN  .                 1                 :
STAT .        BRASIL                     :
TCS  .        16 00 H                    :
TDD  .M             5230                 :
TDL  .M             5231                 :
TLAB .        N/A                        :
TLI  .M             4277                 :
WITN .        ALCIDIO/VLADIMIR           :
WN   .        3-BRSA-293D-SPS            :
LUN  .              8808                 :
HIDE .        3-SPS-41D                  :
HID2 .        COMPENSATED Z-DENSILOG     :
HID3 .        COMPENSATED NEUTRON LOG    :
HID4 .        GAMMA RAY LOG              :
HID5 .        TTRM SUB                   :
CLAB .        BACIA                      :
SLAB .        PAIS                       :
CMT1 .        ESC  1 1000                :
CMT2 .        PROF. MEDIDA               :
CMT4 .        SONDA  SS-43               :
HDAT .        SAD 69                     :
FL   .        BASE SAD 69                :
OS1  .        HDIL/XMAC/SL/GR            :
OS3  .        MREX/GR                    :
OS5  .        SL/GR                      :
LNAM .        MREX/ZDL/CN/XMAC/HDIL/3DEX/RCI/SL/GR :
TOOL .        MREX/ZDL/CN/XMAC/HDIL/3DEX/RCI/SL/GR :
LSOU .        PETROBRAS                  :
LSRV .        OH WIRELINE                :
LTYP .        RAW                        :
EPD  .M                0                 :
LDAT .        23/10/2004                 :
TRIP .                 1                 :
SON  .            772317                 :
CBDR .M             4277                 :
CBLO .M             4277                 :
CBL1 .M             4277                 :
STEM .DEGF    N/A                        :
BSAL .            266377                 :
BARI .        OFF                        :
DLAB .        21/10/2004                 :
MRT  .DEGF           280                 :
TSTR .        ZDL/CN/GR/TTRM             :
TSTG .        N/A                        :
STUS .        FINAL                      :
LCNM .        BAKER ATLAS                :
LCC  .               150                 :
NATI .        SANTOS                     :
OPMD .        OH.WIRELINE                :
PANA .        HERNANDEZ/LOCK             :
PCON .        BAKER ATLAS                :
R11  .        GR     5222.5 M/4277.0 M   :
R12  .        ZDL    5230.0 M/4277.0 M   :
R13  .        CN     5224.0 M/4277.0 M   :
R15  .        10. PONTO FRACO UTILIZADO  10K :
R17  .        12. DECLINAÇÃO MAGNETICA  -20.9 GRAUS :
R18  .        13. COORDENADAS BASE       :
R21  .        Y    583936.00 M           :
R22  .        MC  45 GRAUS               :
PVER .           4.10000                 :
WDFN .        /space/expusr/3-SPS-41D/i77bf07_4spf.xtf :
OCT  .        i77bf                      :
0S2  .        3DEX/GR                    :
OS4  .        RCI/GR                     :
R16  .        11. CNC CORREGIDO PELO CALIPER E SALINIDADE  PRESENTADO MATRIZ CARBONATO :
R20  .        X   7292512.00 M           :
R24  .        14. CADASTRO ANP  86316021017 :
#-----------------------------------------------------------------------------
~CURVE INFORMATION
#MNEM.UNIT   API CODE                                  DESCRIPTION
#---- -----  --------                                  -----------------------
DEPT .M                                                :DEPTH (BOREHOLE) {F10.4}
DEPT .M                                                : {F13.4}
BIT  .IN                                               : {F13.4}
DEPM .M                                                : {F13.4}
GR   .GAPI                                             : {F13.4}
SPD  .M/MN                                             : {F13.4}
TEN  .LBF                                              : {F13.4}
TTEN .LBF                                              : {F13.4}
CAL  .IN                                               : {F13.4}
CALX .IN                                               : {F13.4}
HRD1 .HZ                                               : {F13.4}
HRD2 .HZ                                               : {F13.4}
PE   .B/E                                              : {F13.4}
SFT2 .HZ                                               : {F13.4}
SOFT .HZ                                               : {F13.4}
SSD  .HZ                                               : {F13.4}
ZCOR .G/C3                                             : {F13.4}
ZDEN .G/C3                                             : {F13.4}
CNC  .PU                                               : {F13.4}
CN   .PU                                               : {F13.4}
LSN  .HZ                                               : {F13.4}
SSN  .HZ                                               : {F13.4}
CNCF .PU                                               : {F13.4}
#-----------------------------------------------------------------------------
# DEPT       
#     DEPT         BIT          DEPM         GR           SPD          TEN          
#     TTEN         CAL          CALX         HRD1         HRD2         PE           
#     SFT2         SOFT         SSD          ZCOR         ZDEN         CNC          
#     CN           LSN          SSN          CNCF         
~A  
# ...
4257.2940
   4257.2939       8.5000    4256.7607      38.8348       6.4559     -51.8384
   5264.4834       8.6413       8.6413     214.1784     385.9736      17.1567
     97.3575      65.2733    2039.6638      -0.8040       2.1866      29.7699
     30.0323     581.0161    1821.5901      29.7699
4257.1416
   4257.1416       8.5000    4256.6084      39.1915       6.4488     -27.0343
   5288.8203       8.6427       8.6427     221.5247     386.2508      17.1231
     98.1144      69.7478    2043.7756      -0.8056       2.1800      29.8762
     30.1394     581.5520    1826.5627      29.8762
4256.9892
   4256.9893       8.5000    4256.4551      39.9324       6.4427     -11.0712
   5304.5742       8.6421       8.6421     212.9107     380.0727      17.0960
     98.3166      65.0274    2013.6226      -0.8123       2.1871      30.3756
     30.6342     578.3267    1831.4504      30.3756
4256.8368
   4256.8368       8.5000    4256.3026      41.0305       6.4422     -18.7595
   5296.6838       8.6405       8.6405     207.1675     370.3292      17.0816
     96.7600      52.6161    1984.0670      -0.8185       2.1967      30.7085
     30.9625     577.1480    1837.5496      30.7085
4256.6844
   4256.6844       8.5000    4256.1502      41.1358       6.4598     -32.1299
   5282.9484       8.6405       8.6405     211.5303     352.0229      17.0802
     94.7663      43.1726    1972.8368      -0.8170       2.2064      29.9771
     30.2371     586.7320    1845.8582      29.9771
4256.5320
   4256.5320       8.5000    4255.9978      40.2723       6.4930     -31.1208
   5283.5310       8.6425       8.6425     205.5443     336.0350      17.0559
     91.3995      42.9073    1961.7763      -0.8114       2.2216      28.6481
     28.9193     606.4299    1864.9587      28.6481
4256.3796
   4256.3796       8.5000    4255.8464      39.8857       6.5100     -15.9882
   5298.3643       8.6441       8.6441     188.2246     324.9645      17.0049
     86.0212      47.9990    1933.6541      -0.8098       2.2423      27.1284
     27.4084     636.5868    1904.1243      27.1284
4256.2272
   4256.2272       8.5000    4255.6940      40.4138       6.4905      -3.7310
   5310.4816       8.6431       8.6431     177.5197     310.7656      16.9887
     81.5037      52.2108    1894.8879      -0.8147       2.2609      25.4956
     25.7791     674.2388    1953.0340      25.4956
4256.0748
   4256.0748       8.5000    4255.5416      41.6477       6.4607      -7.4712
   5306.6203       8.6391       8.6391     178.0952     302.1606      17.0691
     83.0264      53.6967    1871.6625      -0.8213       2.2670      25.1411
     25.4213     688.8597    1980.7388      25.1411
4255.9224
   4255.9224       8.5000    4255.3892      42.9671       6.4458     -15.3515
   5298.5522       8.6343       8.6343     181.7873     306.9798      17.2277
     89.4066      53.9788    1871.2803      -0.8262       2.2599      26.6347
     26.9066     664.2369    1967.7744      26.6347
4255.7700
   4255.7700       8.5000    4255.2368      43.2680       6.4412     -15.5987
   5298.1134       8.6332       8.6332     185.3670     316.1461      17.3063
     91.2339      51.0432    1869.9623      -0.8338       2.2486      28.3507
     28.6139     629.2331    1924.5490      28.3507
4255.6176
   4255.6176       8.5000    4255.0844      42.3930       6.4382     -18.7166
   5294.7988       8.6368       8.6368     186.4717     324.3471      17.2983
     87.2071      46.7685    1860.9397      -0.8431       2.2404      28.5344
     28.8003     611.5329    1876.6751      28.5344
4255.4652
   4255.4652       8.5000    4254.9320      41.2218       6.4397     -29.1580
   5284.0475       8.6401       8.6401     187.0102     327.9393      17.3754
     86.5457      46.5507    1863.3981      -0.8441       2.2365      28.3904
     28.6605     603.2269    1846.5585      28.3904
4255.3128
   4255.3128       8.5000    4254.7796      40.5948       6.4585     -29.9638
   5282.8739       8.6392       8.6392     191.4803     321.2134      17.4810
     92.0506      50.5861    1876.3533      -0.8366       2.2372      28.8980
     29.1642     596.8559    1843.4719      28.8980
4255.1604
   4255.1604       8.5000    4254.6272      41.1001       6.4968     -15.9923
   5296.6364       8.6362       8.6362     190.8916     313.4781      17.5876
     97.9258      53.8257    1885.9749      -0.8276       2.2425      28.5872
     28.8521     607.9782    1867.4896      28.5872
4255.0080
   4255.0080       8.5000    4254.4748      41.7830       6.5178      -7.4359
   5305.1573       8.6335       8.6335     180.0490     314.7380      17.7057
     99.2697      50.2369    1886.4630      -0.8222       2.2506      26.6270
     26.8982     648.7813    1921.6791      26.6270
4254.8556
   4254.8556       8.5000    4254.3224      40.7290       6.4874     -13.8365
   5298.6830       8.6308       8.6308     170.5886     314.0489      17.8141
     94.6356      40.6169    1870.9171      -0.8241       2.2607      24.4490
     24.7221     708.7974    2008.2101      24.4490
4254.7032
   4254.7032       8.5000    4254.1700      37.8277       6.4415     -23.9794
   5288.3014       8.6284       8.6284     170.0953     304.5226      17.9439
     87.5420      33.5875    1847.6553      -0.8297       2.2718      23.2489
     23.5199     760.1163    2097.2959      23.2489
4254.5508
   4254.5508       8.5000    4254.0166      35.1033       6.4312     -24.5730
   5287.3789       8.6278       8.6278     171.8911     290.5081      18.1149
     85.5039      34.2586    1835.2261      -0.8288       2.2834      23.0748
     23.3452     773.6493    2126.1665      23.0748
4254.3984
   4254.3984       8.5000    4253.8643      34.5366       6.4456     -12.7008
   5299.0137       8.6290       8.6290     175.1096     280.3857      18.2673
     87.1030      37.6655    1837.9377      -0.8234       2.2897      23.8153
     24.0870     737.8988    2061.9780      23.8153
4254.2460
   4254.2460       8.5000    4253.7118      36.2497       6.4516       3.9813
   5315.6869       8.6298       8.6298     179.3789     283.6413      18.3215
     88.9157      40.2307    1841.5948      -0.8260       2.2886      25.2601
     25.5312     677.1131    1951.3998      25.2601
4254.0936
   4254.0936       8.5000    4253.5594      38.4657       6.4482       7.2384
   5319.0630       8.6309       8.6309     179.3849     301.9485    -999.2500
     91.5847      39.9478    1847.3679      -0.8336    -999.2500      26.6910
     26.9594     631.3413    1872.2456      26.6910
4253.9412
   4253.9412       8.5000    4253.4070      39.4010       6.4593      -7.1924
   5304.6131       8.6326       8.6326     175.2975     314.3158    -999.2500
     93.1134      37.3416    1871.0514      -0.8268    -999.2500      27.6822
     27.9482     612.4019    1850.4368      27.6822
4253.7888
   4253.7888       8.5000    4253.2556      39.2521    -999.2500    -999.2500
   -999.2500       8.6320       8.6320     174.2534     306.3342    -999.2500
     91.7524      35.8046    1903.6295      -0.8062    -999.2500      28.7246
     28.9843     603.8359    1859.1231      28.7246
4253.6364
   4253.6364       8.5000    4253.1032      40.0462    -999.2500    -999.2500
   -999.2500       8.6293       8.6293     176.8626     296.4343    -999.2500
     87.4810      36.5116    1922.3299      -0.7933    -999.2500      29.8685
     30.1174     596.6758    1873.3703      29.8685
4253.4840
   4253.4840       8.5000    4252.9508      41.6199    -999.2500    -999.2500
   -999.2500       8.6288       8.6288     174.2627     298.9193    -999.2500
     81.9628      36.9884    1911.5979      -0.7983    -999.2500      30.3323
     30.5770     596.3374    1886.7058      30.3323
4253.3316
   4253.3316    -999.2500    -999.2500      42.0118    -999.2500    -999.2500
   -999.2500       8.6307       8.6312     165.7092     305.2663    -999.2500
     79.9919      37.4095    1884.8430      -0.8097    -999.2500      30.4699
     30.7331     597.3313    1894.7076      30.4699
4253.1792
   4253.1792    -999.2500    -999.2500      41.4061    -999.2500    -999.2500
   -999.2500    -999.2500       8.6346     169.5084     303.2850    -999.2500
     83.2051      38.7337    1868.6942      -0.8185    -999.2500    -999.2500
     31.0973     594.2913    1896.2593    -999.2500
