~VERSION INFORMATION
VERS.           2.0   :CWLS Log ASCII Standard - VERSION 2.0
WRAP.           NO    :One Line per depth step
PROD.  Schlumberger   :LAS Producer
PROG.  DLIS to ASCII 2.3                               :LAS Program name and version
CREA.        2023/07/14 00:15                          :LAS Creation date {YYYY/MM/DD hh:mm}
DLIS_CREA.  2023-Jul-14 00:11                          :DLIS Creation date and time {YYYY-MMM-DD hh:mm}
SOURCE.     LIS_009.dlis                               :DLIS File Name
FILE-ID.     LIS   .002                                :File Identification Number
#--------------------------------------------------
~WELL INFORMATION
#MNEM.UNIT      DATA             DESCRIPTION
#---- ------ --------------   -----------------------------
STRT .M      5301.9960       :START DEPTH     
STOP .M      5058.6132       :STOP DEPTH     
STEP .M        -0.1524       :STEP     
NULL .          -999.25      :NULL VALUE
COMP .        PETROBRAS S.A.                           :COMPANY
WELL .        3-BRSA-293D-SPS                          :WELL
FLD  .        BS-400                                   :FIELD
LOC  .        BASE SAD 69:                             :LOCATION
CNTY .        SANTOS                                   :COUNTY
STAT .        BRASIL                                   :STATE
CTRY .        BRASIL                                   :COUNTRY
API  .                                                 :API NUMBER
UWI  .                                                 :UNIQUE WELL ID
DATE .        15/11/2004                               :LOG DATE
SRVC .        Schlumberger                             :SERVICE COMPANY
LATI .DEG                                              :LATITUDE
LONG .DEG                                              :LONGITUDE
GDAT .                                                 :GeoDetic Datum
#-----------------------------------------------------------------------------
~PARAMETER INFORMATION
#MNEM.UNIT    VALUE                      DESCRIPTION
#---- -----   --------------------       ------------------------
APD  .M               24                 :
BHT  .DEGF           260                 :
BLI  .M             5289                 :
BS   .IN         8.50000                 :
CN   .        PETROBRAS S.A.             :
COUN .        SANTOS                     :
CS   .IN         9.62500                 :
DATE .        15/11/2004                 :
DFD  .LB/G      12.30000                 :
DFL  .C3               2                 :
DFPH .        N/A                        :
DFT  .        SINTETICO                  :
DFV  .S               95                 :
DMF  .        MESA ROTATIVA              :
EDF  .M               24                 :
EGL  .M             -500                 :
EKB  .        N/A                        :
ENGI .        HERNANDEZ / LOCK           :
FL1  .        X   7292392.00 M LAT 24 28 47.189 S :
FL2  .        Y    584087.00 M LON 44 10 12.698 W :
FL3  .        MC  45 GRAUS               :
FN   .        BS-400                     :
LMF  .        MESA ROTATIVA              :
LUL  .        MACAE                      :
MCSS .        PRENSA                     :
MCST .DEGF            80                 :
MFSS .        PRENSA                     :
MFST .DEGF            80                 :
MSS  .        LINHA DE FLUXO             :
MST  .DEGF            80                 :
PDAT .        NIVEL DO MAR               :
R1   .        01. APRESENTAÇÃO DE ACORDO COM REQUERIMENTO DO CLIENTE :
R2   .        02. TEMPERATURA MÁXIMA DO POÇO T1=T2= 290 DEGF @  5275 M :
R3   .        03. INICIO DA CIRCULAÇÃO  12/11/2004 09 00 H :
R4   .        04. FINAL DA CIRCULAÇÃO   12/11/2004 18 00 H :
R5   .        05. TEMPO TOTAL DE CIRCULAÇÃO   09 00 H :
R6   .        06. FLUIDO DE PERFURAÇÃO  SINTETICO (BR-MUL  BR-MI)  60% TEOR DO OLEO :
R7   .        07. SALINIDADE DA LAMA  254762 PPM NACL NA FASE DE AGUA :
R8   .        08. INCLINAÇÃO MÁXIMA DO POÇO  37.37 GRAUS @ 5100 M :
R9   .        09. PRIMEIRAS E ULTIMAS LEITURAS  :
RMB  .OHMM    > 10                       :
RMCS .OHMM    > 10                       :
RMFS .OHMM    > 10                       :
RMS  .OHMM    >10                        :
RUN  .                 2                 :
STAT .        BRASIL                     :
TCS  .        18 00 H                    :
TDD  .M             5288                 :
TDL  .M             5293                 :
TLAB .        N/A                        :
TLI  .M             5000                 :
WITN .        ERNANI / ZE MARIA          :
WN   .        3-BRSA-293D-SPS            :
LUN  .              8808                 :
HIDE .        3-SPS-41D                  :
HID2 .        HIGH DEFINITION INDUCTION LOG :
HID3 .        X-MULTIPOLE ARRAY ACOUSTILOG :
HID4 .        GAMMA RAY LOG              :
HID5 .        TTRM SUB                   :
CLAB .        BACIA                      :
SLAB .        PAIS                       :
CMT1 .        ESC  1 200                 :
CMT2 .        PROF. MEDIDA               :
CMT4 .        SONDA  SS-43               :
HDAT .        SAD 69                     :
FL   .        BASE SAD 69                :
OS1  .        RCI/GR                     :
OS2  .        CHECK SHOT                 :
OS3  .        GR/CN/ZDL                  :
OS5  .        RCOR/GR                    :
LNAM .        ZDL/CN/XMAC/HDIL/EARTH IMAGER/RCI/RCOR/CHECK SHOT/GR :
TOOL .        ZDL/CN/XMAC/HDIL/EARTH IMAGER/RCI/RCOR/CHECK SHOT/GR :
LSOU .        PETROBRAS                  :
LSRV .        OH WIRELINE                :
LTYP .        RAW                        :
EPD  .M                0                 :
LDAT .        15/11/2004                 :
TRIP .                 3                 :
SON  .            786588                 :
CBDR .M             4277                 :
CBLO .        NR                         :
CBL1 .        NR                         :
STEM .DEGF    N/A                        :
BSAL .            254762                 :
BARI .        OFF                        :
DLAB .        12/11/2004                 :
MRT  .DEGF           290                 :
TSTR .        HDIL/XMAC/GR/TTRM          :
TSTG .        N/A                        :
STUS .        FINAL                      :
LCNM .        BAKER ATLAS                :
LCC  .               150                 :
NATI .        BRASIL                     :
OPMD .        OH.WIRELINE                :
PANA .        HERNANDEZ / LOCK           :
PCON .        BAKER ATLAS                :
R11  .        SL     5268.3 M / 5000.0 M :
R12  .        GR     5268.3 M / 5000.0 M :
R13  .        XMAC   5279.5 M / 5000.0 M :
R14  .        HDIL   5289.0 M / 5000.0 M :
R17  .        11. DECLINAÇÃO MAGNETICA  -20.9 GRAUS :
R18  .        12. COORDENADAS BASE       :
R21  .        Y    583936.00 M           :
R22  .        MC  45 GRAUS               :
PVER .           4.10000                 :
WDFN .        /space/expusr/3-SPS-41D_RUN2/i77bf01_4spf.xtf :
OCT  .        i77bf                      :
OS4  .        EARTH IMAGER               :
R16  .        10. PONTO FRACO UTILIZADO  10K :
R20  .        X   7292512.00 M           :
R24  .        13. CADASTRO ANP  86316021017 :
#-----------------------------------------------------------------------------
~CURVE INFORMATION
#MNEM.UNIT   API CODE                                  DESCRIPTION
#---- -----  --------                                  -----------------------
DEPT .M                                                :DEPTH (BOREHOLE) {F10.4}
DEPT .M                                                : {F13.4}
BIT  .IN                                               : {F13.4}
GR   .GAPI                                             : {F13.4}
M2R1 .OHMM                                             : {F13.4}
M2R2 .OHMM                                             : {F13.4}
M2R3 .OHMM                                             : {F13.4}
M2R6 .OHMM                                             : {F13.4}
M2R9 .OHMM                                             : {F13.4}
M2RX .OHMM                                             : {F13.4}
SPD  .M/MN                                             : {F13.4}
TEN  .LBF                                              : {F13.4}
TTEN .LBF                                              : {F13.4}
#-----------------------------------------------------------------------------
# 
#     DEPT        DEPT         BIT          GR           M2R1         M2R2         M2R3         M2R6         M2R9         M2RX         SPD          TEN          TTEN
#
~A  
# ...
 5199.5832    5199.5832       8.5000      55.8159       5.5028       6.6398       7.3074       7.8104       7.9200       8.0603       4.7571    -103.2564    7527.7916
 5199.4308    5199.4308       8.5000      57.1142       5.0323       6.1554       6.7700       7.2330       7.3355       7.4570       4.7562     -66.1375    7563.2784
 5199.2784    5199.2784       8.5000      58.3267       4.4901       5.5211       6.0564       6.4619       6.5554       6.6586       4.7523     -40.4253    7588.0270
 5199.1260    5199.1260       8.5000      59.4304       4.1141       5.0494       5.5164       5.8727       5.9605       6.0516       4.7451     -48.7796    7578.7793
 5198.9736    5198.9736       8.5000      60.1788       3.9292       4.7995       5.2208       5.5430       5.6292       5.7149       4.7409     -66.6085    7559.7080
 5198.8212    5198.8212       8.5000      60.3482       3.8848       4.7308       5.1293       5.4319       5.5201       5.6057       4.7492     -69.7856    7555.0812
 5198.6688    5198.6688       8.5000      60.3779       3.9224       4.7881       5.1874       5.4839       5.5771       5.6673       4.7632     -64.7966    7558.6847
 5198.5164    5198.5164       8.5000      60.3461       3.9493       4.8659       5.2874       5.5893       5.6889       5.7871       4.7682     -60.0155    7562.2201
 5198.3640    5198.3640       8.5000      60.6462       3.8896       4.8628       5.3217       5.6365       5.7417       5.8493       4.7575     -38.5251    7582.7876
 5198.2116    5198.2116       8.5000      62.0273       3.7921       4.8204       5.3337       5.6736       5.7848       5.9041       4.7411      -4.6815    7616.3858
 5198.0592    5198.0592       8.5000      63.8098       3.7654       4.8601       5.4521       5.8372       5.9579       6.0941       4.7348       8.0469    7629.4077
 5197.9068    5197.9068       8.5000      66.5673       3.8463       5.0277       5.7271       6.1829       6.3185       6.4793       4.7369     -17.7919    7603.6774
 5197.7544    5197.7544       8.5000      74.3377       3.9693       5.2426       6.0663       6.6127       6.7684       6.9599       4.7389     -56.4133    7564.4150
 5197.6020    5197.6020       8.5000      87.6687       4.1035       5.4719       6.4278       7.0789       7.2593       7.4862       4.7526     -75.6688    7543.9186
 5197.4496    5197.4496       8.5000      97.6347       4.4081       5.9298       7.0591       7.8528       8.0709       8.3468       4.7689     -78.3855    7539.7542
 5197.2972    5197.2972       8.5000      94.2189       4.8918       6.6187       7.9627       8.9398       9.2100       9.5494       4.7490     -71.4924    7545.2382
 5197.1448    5197.1448       8.5000      79.1764       5.3475       7.2322       8.7610       9.9136      10.2363      10.6357       4.7022     -63.8282    7551.6721
 5196.9924    5196.9924       8.5000      64.9789       6.0656       8.1462       9.9036      11.2762      11.6648      12.1369       4.6687     -69.6559    7544.7011
 5196.8400    5196.8400       8.5000      62.7969       7.1436       9.4708      11.5111      13.1538      13.6172      14.1737       4.6578     -91.3865    7521.5942
 5196.6876    5196.6876       8.5000      73.8504       7.0581       9.2957      11.2942      12.9375      13.3932      13.9336       4.6559    -108.4055    7502.8116
 5196.5352    5196.5352       8.5000      89.0981       5.5544       7.3681       8.9561      10.2729      10.6291      11.0445       4.6563    -109.6261    7499.5967
 5196.3828    5196.3828       8.5000      97.2426       4.3258       5.8268       7.0743       8.0998       8.3659       8.6742       4.6537     -99.1168    7508.1123
 5196.2304    5196.2304       8.5000      95.0537       3.7893       5.2004       6.2979       7.1784       7.3965       7.6487       4.6523     -70.4617    7535.1106
 5196.0780    5196.0780       8.5000      89.1022       3.5993       5.0097       6.0388       6.8359       7.0238       7.2416       4.6575     -30.5385    7574.0759
 5195.9256    5195.9256       8.5000      87.6903       3.4974       4.8949       5.8594       6.5762       6.7366       6.9240       4.6639     -19.0989    7585.0468
 5195.7732    5195.7732       8.5000      91.4939       3.4109       4.7621       5.6526       6.2849       6.4187       6.5776       4.6661     -47.3135    7556.1040
 5195.6208    5195.6208       8.5000      95.2553       3.3488       4.6447       5.4667       6.0228       6.1338       6.2687       4.6647     -67.3334    7534.8854
 5195.4684    5195.4684       8.5000      95.6308       3.3220       4.5760       5.3491       5.8464       5.9394       6.0559       4.6609     -55.0553    7545.9528
 5195.3160    5195.3160       8.5000      93.2759       3.3339       4.5665       5.3147       5.7731       5.8530       5.9566       4.6527     -35.0384    7565.0691
 5195.1636    5195.1636       8.5000      89.7996       3.3643       4.5853       5.3242       5.7655       5.8359       5.9309       4.6444     -21.7472    7577.7514
 5195.0112    5195.0112       8.5000      87.7974       3.3949       4.6015       5.3463       5.7818       5.8465       5.9364       4.6495     -13.5367    7585.5764
 5194.8588    5194.8588       8.5000      87.4348       3.4625       4.6624       5.4301       5.8788       5.9414       6.0304       4.6655     -34.2055    7564.4011
 5194.7064    5194.7064       8.5000      85.0301       3.6358       4.8587       5.6834       6.1694       6.2349       6.3289       4.6717     -81.5405    7515.8911
 5194.5540    5194.5540       8.5000      81.0622       3.9184       5.1956       6.1137       6.6645       6.7379       6.8433       4.6654    -111.1312    7484.4504
 5194.4016    5194.4016       8.5000      80.5461       4.1790       5.5161       6.5351       7.1622       7.2464       7.3669       4.6606    -101.5725    7492.0712
 5194.2492    5194.2492       8.5000      84.7048       4.3019       5.7052       6.8075       7.5010       7.5963       7.7323       4.6573     -66.5520    7525.5704
 5194.0968    5194.0968       8.5000      89.9302       4.3048       5.7996       6.9610       7.7044       7.8102       7.9617       4.6498      -4.1874    7587.2977
 5193.9444    5193.9444       8.5000      94.5803       4.1578       5.7170       6.8856       7.6432       7.7552       7.9177       4.6423      56.9119    7648.9628
 5193.7920    5193.7920       8.5000      97.7593       3.8532       5.3857       6.4908       7.2121       7.3231       7.4877       4.6364      61.1448    7654.3555
 5193.6396    5193.6396       8.5000      98.5648       3.5272       4.9717       5.9806       6.6390       6.7440       6.9043       4.6397      14.9005    7608.7656
 5193.4872    5193.4872       8.5000      98.9380       3.2748       4.6193       5.5357       6.1296       6.2269       6.3814       4.6546     -29.5843    7564.0393
 5193.3348    5193.3348       8.5000     101.2516       3.1086       4.3582       5.1960       5.7338       5.8236       5.9718       4.6666     -41.7536    7551.1318
 5193.1824    5193.1824       8.5000     103.1525       3.0532       4.2294       5.0114       5.5100       5.5936       5.7373       4.6651     -16.7814    7575.5330
 5193.0300    5193.0300       8.5000     101.2148       3.1203       4.2550       5.0083       5.4882       5.5678       5.7098       4.6588      13.5188    7605.7978
 5192.8776    5192.8776       8.5000      95.5067       3.2571       4.3697       5.1116       5.5860       5.6629       5.8039       4.6569       7.8738    7600.2646
 5192.7252    5192.7252       8.5000      89.8717       3.3853       4.4803       5.2166       5.6894       5.7634       5.9012       4.6587     -18.8484    7573.2954
 5192.5728    5192.5728       8.5000      88.1640       3.5025       4.5963       5.3378       5.8128       5.8843       6.0174       4.6667     -26.9666    7564.6950
 5192.4204    5192.4204       8.5000      91.2182       3.6187       4.7394       5.5017       5.9840       6.0535       6.1813       4.6924     -11.0365    7580.3329
