~VERSION INFORMATION
VERS.           2.0   :CWLS Log ASCII Standard - VERSION 2.0
WRAP.           YES   :Multiple lines per depth step
PROD.  Schlumberger   :LAS Producer
PROG.  DLIS to ASCII 2.3                               :LAS Program name and version
CREA.        2023/07/14 00:15                          :LAS Creation date {YYYY/MM/DD hh:mm}
DLIS_CREA.  2023-Jul-14 00:11                          :DLIS Creation date and time {YYYY-MMM-DD hh:mm}
SOURCE.     LIS_007.dlis                               :DLIS File Name
FILE-ID.     LIS   .003                                :File Identification Number
#--------------------------------------------------
~WELL INFORMATION
#MNEM.UNIT      DATA             DESCRIPTION
#---- ------ --------------   -----------------------------
STRT .M      5238.7500       :START DEPTH     
STOP .M      4241.4444       :STOP DEPTH     
STEP .M        -0.1524       :STEP     
NULL .          -999.25      :NULL VALUE
COMP .        PETROBRAS S.A.                           :COMPANY
WELL .        3-BRSA-293D-SPS                          :WELL
FLD  .        BS-400                                   :FIELD
LOC  .        BASE SAD 69:                             :LOCATION
CNTY .        SANTOS                                   :COUNTY
STAT .        BRASIL                                   :STATE
CTRY .        SANTOS                                   :COUNTRY
API  .                                                 :API NUMBER
UWI  .                                                 :UNIQUE WELL ID
DATE .        23/10/2004                               :LOG DATE
SRVC .        Schlumberger                             :SERVICE COMPANY
LATI .DEG                                              :LATITUDE
LONG .DEG                                              :LONGITUDE
GDAT .                                                 :GeoDetic Datum
#-----------------------------------------------------------------------------
~PARAMETER INFORMATION
#MNEM.UNIT    VALUE                      DESCRIPTION
#---- -----   --------------------       ------------------------
APD  .M               24                 :
BHT  .DEGF           280                 :
BLI  .M             5230                 :
BS   .IN         8.50000                 :
CN   .        PETROBRAS S.A.             :
COUN .        SANTOS                     :
CS   .IN         9.62500                 :
DATE .        23/10/2004                 :
DFD  .LB/G      12.30000                 :
DFL  .C3               2                 :
DFPH .        N/A                        :
DFT  .        SINTETICO                  :
DFV  .S               87                 :
DMF  .        MESA ROTATIVA              :
EDF  .M               24                 :
EGL  .M             -500                 :
EKB  .        N/A                        :
ENGI .        HERNANDEZ/LOCK             :
FL1  .        X   7292392.00 M LAT 24 28 47.189 S :
FL2  .        Y    584087.00 M LON 44 10 12.698 W :
FL3  .        MC  45 GRAUS               :
FN   .        BS-400                     :
LMF  .        MESA ROTATIVA              :
LUL  .        MACAE                      :
MCSS .        PRENSA                     :
MCST .DEGF            80                 :
MFSS .        PRENSA                     :
MFST .DEGF            80                 :
MSS  .        LINHA DE FLUXO             :
MST  .DEGF            80                 :
PDAT .        NIVEL DO MAR               :
R1   .        01. APRESENTAÇÃO DE ACORDO COM REQUERIMENTO DO CLIENTE :
R2   .        02. TEMPERATURA MÁXIMA DO POÇO T1=T2= 260 DEGF @  5180 M :
R3   .        03. INICIO DA CIRCULAÇÃO  13 45 H 21/10/2004 :
R4   .        04. FINAL DA CIRCULAÇÃO   16 00 H 21/10/2004 :
R5   .        05. TEMPO TOTAL DE CIRCULAÇÃO  02 15 H :
R6   .        06. FLUIDO DE PERFURAÇÃO  SINTETICO (BR-MUL  BR-MI)  65% TEOR DO OLEO :
R7   .        07. SALINIDADE DA LAMA  266377 PPM NACL NA FASE DE AGUA :
R8   .        08. INCLINAÇÃO MÁXIMA DO POÇO  37.37 GRAUS @ 5100 M :
R9   .        09. PRIMEIRAS E ULTIMAS LEITURAS  :
RMB  .OHMM    > 10                       :
RMCS .OHMM    > 10                       :
RMFS .OHMM    > 10                       :
RMS  .OHMM    > 10                       :
RUN  .                 1                 :
STAT .        BRASIL                     :
TCS  .        16 00 H                    :
TDD  .M             5230                 :
TDL  .M             5231                 :
TLAB .        N/A                        :
TLI  .M             4277                 :
WITN .        ALCIDIO/VLADIMIR           :
WN   .        3-BRSA-293D-SPS            :
LUN  .              8808                 :
HIDE .        3-SPS-41D                  :
HID2 .        COMPENSATED Z-DENSILOG     :
HID3 .        COMPENSATED NEUTRON LOG    :
HID4 .        GAMMA RAY LOG              :
HID5 .        TTRM SUB                   :
CLAB .        BACIA                      :
SLAB .        PAIS                       :
CMT1 .        ESC  1 1000                :
CMT2 .        PROF. MEDIDA               :
CMT4 .        SONDA  SS-43               :
HDAT .        SAD 69                     :
FL   .        BASE SAD 69                :
OS1  .        HDIL/XMAC/SL/GR            :
OS3  .        MREX/GR                    :
OS5  .        SL/GR                      :
LNAM .        MREX/ZDL/CN/XMAC/HDIL/3DEX/RCI/SL/GR :
TOOL .        MREX/ZDL/CN/XMAC/HDIL/3DEX/RCI/SL/GR :
LSOU .        PETROBRAS                  :
LSRV .        OH WIRELINE                :
LTYP .        RAW                        :
EPD  .M                0                 :
LDAT .        23/10/2004                 :
TRIP .                 1                 :
SON  .            772317                 :
CBDR .M             4277                 :
CBLO .M             4277                 :
CBL1 .M             4277                 :
STEM .DEGF    N/A                        :
BSAL .            266377                 :
BARI .        OFF                        :
DLAB .        21/10/2004                 :
MRT  .DEGF           280                 :
TSTR .        ZDL/CN/GR/TTRM             :
TSTG .        N/A                        :
STUS .        FINAL                      :
LCNM .        BAKER ATLAS                :
LCC  .               150                 :
NATI .        SANTOS                     :
OPMD .        OH.WIRELINE                :
PANA .        HERNANDEZ/LOCK             :
PCON .        BAKER ATLAS                :
R11  .        GR     5222.5 M/4277.0 M   :
R12  .        ZDL    5230.0 M/4277.0 M   :
R13  .        CN     5224.0 M/4277.0 M   :
R15  .        10. PONTO FRACO UTILIZADO  10K :
R17  .        12. DECLINAÇÃO MAGNETICA  -20.9 GRAUS :
R18  .        13. COORDENADAS BASE       :
R21  .        Y    583936.00 M           :
R22  .        MC  45 GRAUS               :
PVER .           4.10000                 :
WDFN .        /space/expusr/3-SPS-41D/i77bf07_4spf.xtf :
OCT  .        i77bf                      :
0S2  .        3DEX/GR                    :
OS4  .        RCI/GR                     :
R16  .        11. CNC CORREGIDO PELO CALIPER E SALINIDADE  PRESENTADO MATRIZ CARBONATO :
R20  .        X   7292512.00 M           :
R24  .        14. CADASTRO ANP  86316021017 :
#-----------------------------------------------------------------------------
~CURVE INFORMATION
#MNEM.UNIT   API CODE                                  DESCRIPTION
#---- -----  --------                                  -----------------------
DEPT .M                                                :DEPTH (BOREHOLE) {F10.4}
DEPT .M                                                : {F13.4}
BIT  .IN                                               : {F13.4}
DEPM .M                                                : {F13.4}
GR   .GAPI                                             : {F13.4}
SPD  .M/MN                                             : {F13.4}
TEN  .LBF                                              : {F13.4}
TTEN .LBF                                              : {F13.4}
CAL  .IN                                               : {F13.4}
CALX .IN                                               : {F13.4}
HRD1 .HZ                                               : {F13.4}
HRD2 .HZ                                               : {F13.4}
PE   .B/E                                              : {F13.4}
SFT2 .HZ                                               : {F13.4}
SOFT .HZ                                               : {F13.4}
SSD  .HZ                                               : {F13.4}
ZCOR .G/C3                                             : {F13.4}
ZDEN .G/C3                                             : {F13.4}
CNC  .PU                                               : {F13.4}
CN   .PU                                               : {F13.4}
LSN  .HZ                                               : {F13.4}
SSN  .HZ                                               : {F13.4}
CNCF .PU                                               : {F13.4}
#-----------------------------------------------------------------------------
# DEPT       
#     DEPT         BIT          DEPM         GR           SPD          TEN          
#     TTEN         CAL          CALX         HRD1         HRD2         PE           
#     SFT2         SOFT         SSD          ZCOR         ZDEN         CNC          
#     CN           LSN          SSN          CNCF         
~A  
# ...
4321.3020
   4321.3020       8.5000    4320.7688      63.5865       6.5062       3.9718
   5444.6525       8.5701       8.5701     655.6783     896.0353       4.8755
    530.8547     399.8973    6428.6445      -0.0270       2.5513      18.7749
     18.9874    1168.0104    2874.4197      18.7749
4321.1496
   4321.1496       8.5000    4320.6164      63.8533       6.4809      13.5912
   5454.4381       8.5695       8.5695     656.5549     890.3077       4.8619
    541.7191     402.5308    6474.2813      -0.0198       2.5521      19.4323
     19.6463    1147.9057    2876.7960      19.4323
4320.9972
   4320.9972       8.5000    4320.4630      63.2071       6.4661      21.1777
   5462.2637       8.5695       8.5695     681.8707     903.7727       4.8537
    553.7283     415.0068    6536.8765      -0.0178       2.5424      19.6085
     19.8230    1137.4439    2864.2406      19.6085
4320.8448
   4320.8448       8.5000    4320.3106      62.2736       6.4656      35.0006
   5476.4605       8.5695       8.5695     717.1169     936.9908       4.8418
    566.4605     424.5833    6563.6002      -0.0255       2.5262      19.2491
     19.4626    1140.3553    2843.5840      19.2491
4320.6924
   4320.6924       8.5000    4320.1582      62.2950       6.4666      54.0407
   5496.1260       8.5695       8.5695     742.2458     974.2703       4.8223
    582.9391     434.8909    6560.3867      -0.0360       2.5120      18.7745
     18.9865    1147.1592    2823.0347      18.7745
4320.5400
   4320.5400       8.5000    4320.0068      63.2832       6.4657      54.0334
   5496.8711       8.5693       8.5693     751.1987     988.3684       4.8152
    590.9089     446.2817    6580.7305      -0.0368       2.5069      18.4193
     18.6299    1151.1572    2804.4341      18.4193
4320.3876
   4320.3876       8.5000    4319.8534      64.8998       6.4677      28.8089
   5472.1923       8.5687       8.5687     749.1075     975.1293       4.8181
    584.6331     447.1837    6625.1722      -0.0283       2.5110      18.4140
     18.6242    1144.6347    2788.0853      18.4140
4320.2352
   4320.2352       8.5000    4319.7010      67.0426       6.4899       2.2194
   5445.7622       8.5683       8.5683     737.5625     952.5586       4.8101
    576.0606     437.5321    6624.2655      -0.0231       2.5204      18.9482
     19.1599    1121.4171    2773.0774      18.9482
4320.0828
   4320.0828       8.5000    4319.5486      68.8162       6.5161      -6.4415
   5437.0011       8.5687       8.5687     715.4900     937.0460       4.8045
    570.9459     428.9951    6590.4540      -0.0216       2.5308      19.8488
     20.0632    1088.5811    2758.8950      19.8488
4319.9304
   4319.9304       8.5000    4319.3972      69.9947       6.5080      -2.0197
   5441.2810       8.5694       8.5694     695.7332     930.7244       4.8022
    560.7459     419.2254    6571.8082      -0.0199       2.5380      20.5133
     20.7297    1068.0071    2754.4703      20.5133
4319.7780
   4319.7780       8.5000    4319.2448      70.0105       6.4768       4.9053
   5448.1495       8.5698       8.5698     694.3880     925.6974       4.7965
    547.5282     410.0263    6563.1638      -0.0200       2.5393      20.4376
     20.6541    1076.7249    2771.5369      20.4376
4319.6256
   4319.6256       8.5000    4319.0924      68.3856       6.4620       3.6984
   5446.9395       8.5696       8.5696     720.1015     927.1406       4.8001
    552.8881     412.9651    6576.0676      -0.0227       2.5318      19.6534
     19.8680    1111.9916    2803.5398      19.6534
4319.4732
   4319.4732       8.5000    4318.9400      65.9048       6.4599      -4.2840
   5438.8844       8.5692       8.5692     769.2104     948.3440       4.8039
    579.2014     426.9989    6645.2826      -0.0246       2.5158      18.7100
     18.9216    1153.5795    2833.6563      18.7100
4319.3208
   4319.3208       8.5000    4318.7876      63.7471       6.4523      -4.6909
   5438.3545       8.5696       8.5696     809.4313     978.2105       4.8098
    605.9291     445.6618    6736.5659      -0.0231       2.5008      18.0753
     18.2849    1186.1847    2861.2145      18.0753
4319.1684
   4319.1684       8.5000    4318.6352      62.6978       6.4471       0.7528
   5443.7289       8.5705       8.5705     814.2913     995.0295       4.8185
    618.9117     460.7945    6800.9664      -0.0177       2.4947      17.8242
     18.0335    1207.7260    2891.8698      17.8242
4319.0160
   4319.0160       8.5000    4318.4828      63.8608       6.4589      -9.7506
   5433.1211       8.5705       8.5705     798.1688    1007.6506       4.8077
    622.2714     463.4933    6835.0867      -0.0127       2.4942      17.9022
     18.1119    1215.0534    2916.1077      17.9022
4318.8636
   4318.8636       8.5000    4318.3304      65.9367       6.4864     -34.1376
   5408.3778       8.5699       8.5699     783.8884    1020.1351       4.7989
    624.2254     457.7879    6839.0070      -0.0119       2.4950      18.2477
     18.4582    1207.7701    2927.9069      18.2477
4318.7112
   4318.7112       8.5000    4318.1780      66.1542       6.5041     -43.2439
   5398.7319       8.5695       8.5695     769.7457    1022.1199       4.8127
    626.6274     459.2000    6803.8655      -0.0147       2.4985      18.8055
     19.0176    1192.0534    2936.0688      18.8055
4318.5588
   4318.5588       8.5000    4318.0256      65.1998       6.4879     -32.0320
   5409.4711       8.5695       8.5695     754.6312    1005.8391       4.8144
    623.7538     462.0618    6739.9232      -0.0185       2.5060      19.0502
     19.2630    1187.0536    2943.8034      19.0502
4318.4064
   4318.4064       8.5000    4317.8732      64.7416       6.4554     -21.4985
   5419.6487       8.5694       8.5694     741.5371     983.9510       4.8245
    616.4836     451.1324    6671.8906      -0.0222       2.5137      18.5748
     18.7861    1204.2812    2946.9120      18.5748
4318.2540
   4318.2540       8.5000    4317.7208      64.2091       6.4401     -21.1767
   5419.6085       8.5690       8.5690     738.5958     975.5251       4.9086
    611.2235     433.6246    6643.7239      -0.0242       2.5160      17.9772
     18.1859    1222.5868    2940.5420      17.9772
4318.1016
   4318.1016       8.5000    4317.5684      64.7588       6.4426     -20.3800
   5420.0244       8.5686       8.5686     753.4102     983.3529       4.9456
    606.3689     431.0750    6657.8369      -0.0259       2.5118      18.1144
     18.3234    1203.3743    2905.9204      18.1144
4317.9492
   4317.9492       8.5000    4317.4150      69.9317       6.4423     -14.6929
   5425.4170       8.5691       8.5691     769.4427     984.6559       4.9547
    599.8707     438.7017    6648.6816      -0.0298       2.5096      18.9294
     19.1417    1143.8076    2827.0156      18.9294
4317.7968
   4317.7968       8.5000    4317.2626      77.8285       6.4370     -12.4112
   5427.4976       8.5697       8.5697     753.9547     961.9119       4.9635
    594.0445     432.4081    6595.0738      -0.0311       2.5175      19.6195
     19.8342    1084.8357    2732.5921      19.6195
4317.6444
   4317.6444       8.5000    4317.1102      81.5901       6.4461     -19.2932
   5420.3868       8.5691       8.5691     721.8278     933.7520       5.0675
    586.1431     409.6429    6579.9106      -0.0236       2.5293      19.7961
     20.0108    1061.7942    2687.2478      19.7961
4317.4920
   4317.4920       8.5000    4316.9578      78.5283       6.4808     -29.1458
   5410.1859       8.5681       8.5681     711.4325     929.8741       5.2127
    582.1823     397.9561    6626.8887      -0.0148       2.5315      19.7487
     19.9624    1076.7611    2721.6033      19.7487
4317.3396
   4317.3396       8.5000    4316.8064      73.5761       6.5061     -30.5734
   5408.3458       8.5679       8.5679     733.8809     949.2616       5.1332
    589.9936     411.2848    6665.5310      -0.0164       2.5226      19.6017
     19.8149    1108.3100    2790.2693      19.6017
4317.1872
   4317.1872       8.5000    4316.6540      71.3763       6.4838     -21.5603
   5417.0104       8.5684       8.5684     762.3135     960.6770       4.8283
    602.4667     433.7023    6660.7669      -0.0233       2.5143      19.4821
     19.6953    1124.3022    2821.3961      19.4821
