~VERSION INFORMATION
VERS.           2.0   :CWLS Log ASCII Standard - VERSION 2.0
WRAP.           YES   :Multiple lines per depth step
PROD.  Schlumberger   :LAS Producer
PROG.  DLIS to ASCII 2.3                               :LAS Program name and version
CREA.        2023/07/14 00:15                          :LAS Creation date {YYYY/MM/DD hh:mm}
DLIS_CREA.  2023-Jul-14 00:11                          :DLIS Creation date and time {YYYY-MMM-DD hh:mm}
SOURCE.     LIS_012.dlis                               :DLIS File Name
FILE-ID.     LIS   .001                                :File Identification Number
#--------------------------------------------------
~WELL INFORMATION
#MNEM.UNIT      DATA             DESCRIPTION
#---- ------ --------------   -----------------------------
STRT .M      5265.1152       :START DEPTH     
STOP .M      5185.4100       :STOP DEPTH     
STEP .M        -0.1524       :STEP     
NULL .          -999.25      :NULL VALUE
COMP .        PETROBRAS S.A.                           :COMPANY
WELL .        3-BRSA-293D-SPS                          :WELL
FLD  .        BS-400                                   :FIELD
LOC  .        BASE SAD 69:                             :LOCATION
CNTY .        SANTOS                                   :COUNTY
STAT .        BRASIL                                   :STATE
CTRY .        BRASIL                                   :COUNTRY
API  .                                                 :API NUMBER
UWI  .                                                 :UNIQUE WELL ID
DATE .        15/11/2004                               :LOG DATE
SRVC .        Schlumberger                             :SERVICE COMPANY
LATI .DEG                                              :LATITUDE
LONG .DEG                                              :LONGITUDE
GDAT .                                                 :GeoDetic Datum
#-----------------------------------------------------------------------------
~PARAMETER INFORMATION
#MNEM.UNIT    VALUE                      DESCRIPTION
#---- -----   --------------------       ------------------------
APD  .M               24                 :
BHT  .DEGF           260                 :
BLI  .M             5289                 :
BS   .IN         8.50000                 :
CN   .        PETROBRAS S.A.             :
COUN .        SANTOS                     :
CS   .IN         9.62500                 :
DATE .        15/11/2004                 :
DFD  .LB/G      12.30000                 :
DFL  .C3               2                 :
DFPH .        N/A                        :
DFT  .        SINTETICO                  :
DFV  .S               95                 :
DMF  .        MESA ROTATIVA              :
EDF  .M               24                 :
EGL  .M             -500                 :
EKB  .        N/A                        :
ENGI .        HERNANDEZ / LOCK           :
FL1  .        X   7292392.00 M LAT 24 28 47.189 S :
FL2  .        Y    584087.00 M LON 44 10 12.698 W :
FL3  .        MC  45 GRAUS               :
FN   .        BS-400                     :
LMF  .        MESA ROTATIVA              :
LUL  .        MACAE                      :
MCSS .        PRENSA                     :
MCST .DEGF            80                 :
MFSS .        PRENSA                     :
MFST .DEGF            80                 :
MSS  .        LINHA DE FLUXO             :
MST  .DEGF            80                 :
PDAT .        NIVEL DO MAR               :
R1   .        01. APRESENTAÇÃO DE ACORDO COM REQUERIMENTO DO CLIENTE :
R2   .        02. TEMPERATURA MÁXIMA DO POÇO T1=T2= 292 DEGF @  5277 M :
R3   .        03. INICIO DA CIRCULAÇÃO  12/11/2004 09 00 H :
R4   .        04. FINAL DA CIRCULAÇÃO   12/11/2004 18 00 H :
R5   .        05. TEMPO TOTAL DE CIRCULAÇÃO   09 00 H :
R6   .        06. FLUIDO DE PERFURAÇÃO  SINTETICO (BR-MUL  BR-MI)  60% TEOR DO OLEO :
R7   .        07. SALINIDADE DA LAMA  254762 PPM NACL NA FASE DE AGUA :
R8   .        08. INCLINAÇÃO MÁXIMA DO POÇO  37.37 GRAUS @ 5100 M :
R9   .        09. PRIMEIRAS E ULTIMAS LEITURAS  :
RMB  .OHMM    > 10                       :
RMCS .OHMM    > 10                       :
RMFS .OHMM    > 10                       :
RMS  .OHMM    >10                        :
RUN  .                 2                 :
STAT .        BRASIL                     :
TCS  .        18 00 H                    :
TDD  .M             5288                 :
TDL  .M             5293                 :
TLAB .        N/A                        :
TLI  .M             4277                 :
WITN .        ERNANI / ZE MARIA          :
WN   .        3-BRSA-293D-SPS            :
LUN  .              8808                 :
HIDE .        3-SPS-41D                  :
HID2 .        COMPENSATED Z-DENSILOG     :
HID3 .        COMPENSATED NEUTRON LOG    :
HID4 .        GAMMA RAY LOG              :
HID5 .        TTRM SUB                   :
CLAB .        BACIA                      :
SLAB .        PAIS                       :
CMT1 .        ESC  1 1000                :
CMT2 .        PROF. MEDIDA               :
CMT4 .        SONDA  SS-43               :
HDAT .        SAD 69                     :
FL   .        BASE SAD 69                :
OS1  .        RCI/GR                     :
OS2  .        CHECK SHOT                 :
OS3  .        GR/XMAC/HDIL               :
OS5  .        RCOR/GR                    :
LNAM .        ZDL/CN/XMAC/HDIL/EARTH IMAGER/RCI/RCOR/CHECK SHOT/GR :
TOOL .        ZDL/CN/XMAC/HDIL/EARTH IMAGER/RCI/RCOR/CHECK SHOT/GR :
LSOU .        PETROBRAS                  :
LSRV .        OH WIRELINE                :
LTYP .        RAW                        :
EPD  .M                0                 :
LDAT .        15/11/2004                 :
TRIP .                 4                 :
SON  .            786588                 :
CBDR .M             4277                 :
CBLO .        NR                         :
CBL1 .        NR                         :
STEM .DEGF    N/A                        :
BSAL .            254762                 :
BARI .        OFF                        :
DLAB .        12/11/2004                 :
MRT  .DEGF           292                 :
TSTR .        ZDL/CN/GR/TTRM             :
TSTG .        N/A                        :
STUS .        FINAL                      :
LCNM .        BAKER ATLAS                :
LCC  .               150                 :
NATI .        BRASIL                     :
OPMD .        OH.WIRELINE                :
PANA .        HERNANDEZ / LOCK           :
PCON .        BAKER ATLAS                :
R11  .        GR     5268.3 M / 4277.0 M :
R12  .        CN     5286.5 M / 5128.0 M (FERRAMENTA PERDEU LEITURA ACIMA DE 5128M) :
R13  .        ZDL    5292.0 M / 4277.0 M :
R15  .        10. PONTO FRACO UTILIZADO  10K :
R17  .        12. COORDENADAS BASE       :
R19  .        X   7292512.00 M           :
R21  .        MC  45 GRAUS               :
R23  .        13. CADASTRO ANP  86316021017 :
PVER .           4.10000                 :
WDFN .        /space/expusr/3-SPS-41D_RUN2/i77bf03_8spf.xtf :
OCT  .        i77bf                      :
OS4  .        EARTH IMAGER               :
R16  .        11. DECLINAÇÃO MAGNETICA  -20.9 GRAUS :
R20  .        Y    583936.00 M           :
#-----------------------------------------------------------------------------
~CURVE INFORMATION
#MNEM.UNIT   API CODE                                  DESCRIPTION
#---- -----  --------                                  -----------------------
DEPT .M                                                :DEPTH (BOREHOLE) {F10.4}
DEPT .M                                                : {F13.4}
BIT  .IN                                               : {F13.4}
DEPM .M                                                : {F13.4}
GR   .GAPI                                             : {F13.4}
SPD  .M/MN                                             : {F13.4}
TTEN .LBF                                              : {F13.4}
CAL  .IN                                               : {F13.4}
CALX .IN                                               : {F13.4}
HRD1 .HZ                                               : {F13.4}
HRD2 .HZ                                               : {F13.4}
PE   .B/E                                              : {F13.4}
SFT2 .HZ                                               : {F13.4}
SOFT .HZ                                               : {F13.4}
SSD  .HZ                                               : {F13.4}
ZCOR .G/C3                                             : {F13.4}
ZDEN .G/C3                                             : {F13.4}
CNC  .PU                                               : {F13.4}
CN   .PU                                               : {F13.4}
LSN  .HZ                                               : {F13.4}
SSN  .HZ                                               : {F13.4}
CNCF .PU                                               : {F13.4}
MMRK .MN                                               : {F13.4}
#-----------------------------------------------------------------------------
# DEPT       
#     DEPT         BIT          DEPM         GR           SPD          TTEN         
#     CAL          CALX         HRD1         HRD2         PE           SFT2         
#     SOFT         SSD          ZCOR         ZDEN         CNC          CN           
#     LSN          SSN          CNCF         MMRK         
~A  
# ...
5209.6416
   5209.6416       8.5000    5209.3486      63.1060       6.0075    7302.2578
      9.0595       9.0577     806.2133    1008.3673       3.7107     674.3984
    536.1156    7276.6768      -0.0217       2.4857      10.0171      10.4785
   2546.7959    4668.9033      10.0171       0.0000
5209.4892
   5209.4893       8.5000    5209.1953      61.6609       5.9680    7287.1260
      9.0578       9.0586     810.2820    1047.9302       4.0042     698.6584
    525.8336    7354.2881      -0.0144       2.4731       9.7050      10.1107
   2531.3740    4579.6211       9.7050       0.0000
5209.3368
   5209.3368       8.5000    5209.0429      60.2773       5.9453    7282.0816
      9.0568       9.0581     842.3276    1046.1948       3.9173     732.3628
    539.8754    7434.8451      -0.0145       2.4665       9.7526      10.1570
   2517.8432    4550.9597       9.7526       0.0000
5209.1844
   5209.1844       8.5000    5208.8905      59.0885       5.9703    7274.7635
      9.0577       9.0556     853.3020    1072.6122       3.8559     734.0772
    552.2023    7535.7580       0.0006       2.4577       9.9787      10.3577
   2507.7424    4578.1535       9.9787       0.0000
5209.0320
   5209.0320       8.5000    5208.7381      58.9574       5.9812    7266.1707
      9.0656       9.0618     851.2275    1082.4903       3.8299     712.4721
    564.5700    7416.0779      -0.0157       2.4559       9.9663      10.4165
   2539.5095    4622.5075       9.9663       0.0000
5208.8796
   5208.8796       8.5000    5208.5866      60.1074       5.9927    7261.6407
      9.0679       9.0679     865.0456    1090.3056       3.7993     700.8226
    580.5743    7456.2898      -0.0152       2.4538       9.5647      10.0017
   2620.6008    4683.5452       9.5647       0.0000
5208.7272
   5208.7272       8.5000    5208.4342      61.6381       5.9959    7255.4342
      9.0632       9.0655     816.6981    1073.8085       3.9312     708.2172
    546.5662    7356.1791      -0.0154       2.4665       9.3789       9.8126
   2671.2051    4736.9465       9.3789       0.0000
5208.5748
   5208.5748       8.5000    5208.2818      63.7413       5.9867    7254.0266
      9.0617       9.0615     837.7437    1015.6826       3.4256     710.1500
    567.2781    7354.2694      -0.0144       2.4730       9.4285       9.7670
   2658.5828    4747.3174       9.4285       0.0000
5208.4224
   5208.4224       8.5000    5208.1294      66.1675       5.9829    7254.0213
      9.0676       9.0651     819.1622    1056.8418       3.7264     701.5377
    558.0633    7421.0537      -0.0104       2.4663      10.2384      10.5696
   2547.2911    4727.3129      10.2384       0.0000
5208.2700
   5208.2700       8.5000    5207.9770      66.2352       5.9934    7237.1542
      9.0607       9.0650     824.0161    1099.4218       4.1077     718.7964
    551.8889    7460.8561      -0.0127       2.4513      10.9839      11.3799
   2442.8714    4679.6234      10.9839       0.0000
5208.1176
   5208.1176       8.5000    5207.8246      62.9180       5.9784    7213.9951
      9.0637       9.0603     881.3719    1202.7235       4.4424     740.5946
    573.6210    7575.0619      -0.0188       2.4170      10.7376      11.2065
   2438.2843    4613.6808      10.7376       0.0000
5207.9652
   5207.9652       8.5000    5207.6722      59.9106       5.9399    7208.0907
      9.0667       9.0670     888.7355    1194.3243       4.5596     746.3045
    563.9026    7479.2698      -0.0273       2.4150      10.8407      11.2786
   2418.6297    4583.1566      10.8407       0.0000
5207.8128
   5207.8128       8.5000    5207.5198      60.4874       5.9203    7218.8660
      9.0638       9.0642     832.1523    1128.2974       4.5970     688.0357
    524.8394    7357.6478      -0.0194       2.4390      10.0673      10.6095
   2563.3013    4663.3026      10.0673       0.0000
5207.6604
   5207.6604       8.5000    5207.3674      63.2784       5.9357    7235.2041
      9.0604       9.0638     794.1032    1052.1267       4.5970     686.3702
    502.0125    7039.8839      -0.0477       2.4645       9.9124      10.2501
   2613.6267    4764.7565       9.9124       0.0000
5207.5080
   5207.5080       8.5000    5207.2150      65.9076       5.9483    7260.9700
      9.0588       9.0572     782.5474    1069.6060       4.8662     688.0695
    481.1316    7278.9244      -0.0341       2.4614      10.6996      11.0531
   2471.5164    4702.0239      10.6996       0.0000
5207.3556
   5207.3556       8.5000    5207.0626      67.8218       5.9520    7298.6229
      9.0668       9.0632     855.0869    1131.7884       4.2787     722.3275
    555.3222    7489.0672      -0.0181       2.4336      11.3503      11.7121
   2291.5003    4492.9412      11.3503       0.0000
5207.2032
   5207.2032       8.5000    5206.9102      68.5839       5.9406    7320.5718
      9.0666       9.0679     882.7583    1152.7305       3.8907     745.9943
    597.7434    7528.7720      -0.0183       2.4249      11.9080      12.3755
   2165.6119    4314.9961      11.9080       0.0000
5207.0508
   5207.0508       8.5000    5206.7568      68.1583       5.9746    7296.5771
      9.0635       9.0643     879.4497    1166.4160       4.1454     750.9663
    578.7522    7503.5313      -0.0185       2.4263      11.4413      11.8978
   2192.9419    4263.8330      11.4413       0.0000
5206.8984
   5206.8984       8.5000    5206.6045      67.4252       5.9803    7247.7734
      9.0656       9.0648     882.8372    1116.2273       4.1350     739.6199
    555.0403    7399.4531      -0.0276       2.4406      11.7188      12.1759
   2213.6938    4333.5703      11.7188       0.0000
5206.7460
   5206.7460       8.5000    5206.4521      66.4262       5.9351    7221.1030
      9.0610       9.0636     844.9098    1062.2795       3.6326     728.7523
    572.0961    7467.3753      -0.0076       2.4634      11.5297      11.9833
   2291.9135    4458.5495      11.5297       0.0000
5206.5936
   5206.5936       8.5000    5206.3006      65.9410       5.9120    7222.5602
      9.0593       9.0597     804.8456    1063.4919       3.8124     718.6928
    555.4978    7459.7751      -0.0041       2.4740      11.6345      12.0921
   2302.1871    4515.4823      11.6345       0.3463
5206.4412
   5206.4412       8.5000    5206.1473      67.6483       5.9075    7229.4236
      9.0609       9.0598     818.4923    1071.7648       3.8139     708.3741
    557.5612    7459.6234      -0.0031       2.4704      10.9594      11.5202
   2339.8687    4462.6959      10.9594       0.0000
5206.2888
   5206.2888       8.5000    5205.9949      69.9274       5.9477    7243.7236
      9.0612       9.0613     834.2680    1018.6820       3.3327     722.0707
    576.8192    7431.1230      -0.0046       2.4789       9.7427      10.2892
   2443.5866    4400.1474       9.7427       0.0000
5206.1364
   5206.1364       8.5000    5205.8434      69.1011       5.9364    7269.7860
      9.0597       9.0607     768.6297     967.4783       3.4714     686.6895
    530.3747    7288.1547       0.0064       2.5061       9.3925       9.7227
   2522.0454    4467.0915       9.3925       0.0000
5205.9840
   5205.9840       8.5000    5205.6910      64.8031       5.9489    7282.4139
      9.0591       9.0587     755.3082     876.2861       3.5102     652.8856
    482.3755    7070.6491      -0.0163       2.5276      10.2508      10.6246
   2504.4496    4618.1544      10.2508       0.0000
5205.8316
   5205.8316       8.5000    5205.5386      60.4275       5.9723    7265.5619
      9.0566       9.0589     832.9187    1035.9278       3.5842     702.1449
    560.2977    7359.6402      -0.0232       2.4743       9.8774      10.3438
   2562.4760    4657.3073       9.8774       0.0000
5205.6792
   5205.6792       8.5000    5205.3862      58.5275       5.9359    7245.5922
      9.0562       9.0549     901.1894    1113.5484       3.7716     720.3079
    585.0790    7435.9871      -0.0274       2.4404       9.5484      10.0033
   2579.7482    4618.0412       9.5484       0.0000
5205.5268
   5205.5268       8.5000    5205.2338      58.4809       5.9210    7257.1038
      9.0560       9.0573     919.1677    1119.1375       4.0890     711.8722
    560.1331    7559.8458      -0.0171       2.4332       9.3322       9.6700
   2602.9534    4619.5823       9.3322       0.0000
