~VERSION INFORMATION
VERS.           2.0   :CWLS Log ASCII Standard - VERSION 2.0
WRAP.           NO    :One Line per depth step
PROD.  Schlumberger   :LAS Producer
PROG.  DLIS to ASCII 2.3                               :LAS Program name and version
CREA.        2023/07/14 00:15                          :LAS Creation date {YYYY/MM/DD hh:mm}
DLIS_CREA.  2023-Jul-14 00:11                          :DLIS Creation date and time {YYYY-MMM-DD hh:mm}
SOURCE.     LIS_005.dlis                               :DLIS File Name
FILE-ID.     LIS   .001                                :File Identification Number
#--------------------------------------------------
~WELL INFORMATION
#MNEM.UNIT      DATA             DESCRIPTION
#---- ------ --------------   -----------------------------
STRT .M      5238.7500       :START DEPTH     
STOP .M      5087.2644       :STOP DEPTH     
STEP .M        -0.1524       :STEP     
NULL .          -999.25      :NULL VALUE
COMP .        PETROBRAS S.A.                           :COMPANY
WELL .        3-BRSA-293D-SPS                          :WELL
FLD  .        BS-400                                   :FIELD
LOC  .        BASE SAD 69:                             :LOCATION
CNTY .        SANTOS                                   :COUNTY
STAT .        BRASIL                                   :STATE
CTRY .        SANTOS                                   :COUNTRY
API  .                                                 :API NUMBER
UWI  .                                                 :UNIQUE WELL ID
DATE .        23/10/2004                               :LOG DATE
SRVC .        Schlumberger                             :SERVICE COMPANY
LATI .DEG                                              :LATITUDE
LONG .DEG                                              :LONGITUDE
GDAT .                                                 :GeoDetic Datum
#-----------------------------------------------------------------------------
~PARAMETER INFORMATION
#MNEM.UNIT    VALUE                      DESCRIPTION
#---- -----   --------------------       ------------------------
APD  .M               24                 :
BHT  .DEGF           280                 :
BLI  .M             5230                 :
BS   .IN         8.50000                 :
CN   .        PETROBRAS S.A.             :
COUN .        SANTOS                     :
CS   .IN         9.62500                 :
DATE .        23/10/2004                 :
DFD  .LB/G      12.30000                 :
DFL  .C3               2                 :
DFPH .        N/A                        :
DFT  .        SINTETICO                  :
DFV  .S               87                 :
DMF  .        MESA ROTATIVA              :
EDF  .M               24                 :
EGL  .M             -500                 :
EKB  .        N/A                        :
ENGI .        HERNANDEZ/LOCK             :
FL1  .        X   7292392.00 M LAT 24 28 47.189 S :
FL2  .        Y    584087.00 M LON 44 10 12.698 W :
FL3  .        MC  45 GRAUS               :
FN   .        BS-400                     :
LMF  .        MESA ROTATIVA              :
LUL  .        MACAE                      :
MCSS .        PRENSA                     :
MCST .DEGF            80                 :
MFSS .        PRENSA                     :
MFST .DEGF            80                 :
MSS  .        LINHA DE FLUXO             :
MST  .DEGF            80                 :
PDAT .        NIVEL DO MAR               :
R1   .        01. APRESENTAÇÃO DE ACORDO COM REQUERIMENTO DO CLIENTE :
R2   .        02. TEMPERATURA MÁXIMA DO POÇO T1=T2= 260 DEGF @  5180 M :
R3   .        03. INICIO DA CIRCULAÇÃO  13 45 H 21/10/2004 :
R4   .        04. FINAL DA CIRCULAÇÃO   16 00 H 21/10/2004 :
R5   .        05. TEMPO TOTAL DE CIRCULAÇÃO  02 15 H :
R6   .        06. FLUIDO DE PERFURAÇÃO  SINTETICO (BR-MUL  BR-MI)  65% TEOR DO OLEO :
R7   .        07. SALINIDADE DA LAMA  266377 PPM NACL NA FASE DE AGUA :
R8   .        08. INCLINAÇÃO MÁXIMA DO POÇO  37.37 GRAUS @ 5100 M :
R9   .        09. PRIMEIRAS E ULTIMAS LEITURAS  :
RMB  .OHMM    > 10                       :
RMCS .OHMM    > 10                       :
RMFS .OHMM    > 10                       :
RMS  .OHMM    > 10                       :
RUN  .                 1                 :
STAT .        BRASIL                     :
TCS  .        16 00 H                    :
TDD  .M             5230                 :
TDL  .M             5231                 :
TLAB .        N/A                        :
TLI  .M             4277                 :
WITN .        ALCIDIO/VLADIMIR           :
WN   .        3-BRSA-293D-SPS            :
LUN  .              8808                 :
HIDE .        3-SPS-41D                  :
HID2 .        COMPENSATED Z-DENSILOG     :
HID3 .        COMPENSATED NEUTRON LOG    :
HID4 .        GAMMA RAY LOG              :
HID5 .        TTRM SUB                   :
CLAB .        BACIA                      :
SLAB .        PAIS                       :
CMT1 .        ESC  1 1000                :
CMT2 .        PROF. MEDIDA               :
CMT4 .        SONDA  SS-43               :
HDAT .        SAD 69                     :
FL   .        BASE SAD 69                :
OS1  .        HDIL/XMAC/SL/GR            :
OS3  .        MREX/GR                    :
OS5  .        SL/GR                      :
LNAM .        MREX/ZDL/CN/XMAC/HDIL/3DEX/RCI/SL/GR :
TOOL .        MREX/ZDL/CN/XMAC/HDIL/3DEX/RCI/SL/GR :
LSOU .        PETROBRAS                  :
LSRV .        OH WIRELINE                :
LTYP .        RAW                        :
EPD  .M                0                 :
LDAT .        23/10/2004                 :
TRIP .                 1                 :
SON  .            772317                 :
CBDR .M             4277                 :
CBLO .M             4277                 :
CBL1 .M             4277                 :
STEM .DEGF    N/A                        :
BSAL .            266377                 :
BARI .        OFF                        :
DLAB .        21/10/2004                 :
MRT  .DEGF           280                 :
TSTR .        ZDL/CN/GR/TTRM             :
TSTG .        N/A                        :
STUS .        FINAL                      :
LCNM .        BAKER ATLAS                :
LCC  .               150                 :
NATI .        SANTOS                     :
OPMD .        OH.WIRELINE                :
PANA .        HERNANDEZ/LOCK             :
PCON .        BAKER ATLAS                :
R11  .        GR     5222.5 M/4277.0 M   :
R12  .        ZDL    5230.0 M/4277.0 M   :
R13  .        CN     5224.0 M/4277.0 M   :
R15  .        10. PONTO FRACO UTILIZADO  10K :
R17  .        12. DECLINAÇÃO MAGNETICA  -20.9 GRAUS :
R18  .        13. COORDENADAS BASE       :
R21  .        Y    583936.00 M           :
R22  .        MC  45 GRAUS               :
PVER .           4.10000                 :
WDFN .        /space/expusr/3-SPS-41D/i77bf06_8spf.xtf :
OCT  .        i77bf                      :
0S2  .        3DEX/GR                    :
OS4  .        RCI/GR                     :
R16  .        11. CNC CORREGIDO PELO CALIPER E SALINIDADE  PRESENTADO MATRIZ CARBONATO :
R20  .        X   7292512.00 M           :
R24  .        14. CADASTRO ANP  86316021017 :
#-----------------------------------------------------------------------------
~CURVE INFORMATION
#MNEM.UNIT   API CODE                                  DESCRIPTION
#---- -----  --------                                  -----------------------
DEPT .M                                                :DEPTH (BOREHOLE) {F10.4}
DEPT .M                                                : {F13.4}
BIT  .IN                                               : {F13.4}
GR   .GAPI                                             : {F13.4}
TEN  .LBF                                              : {F13.4}
TTEN .LBF                                              : {F13.4}
CAL  .IN                                               : {F13.4}
CALX .IN                                               : {F13.4}
HRD1 .HZ                                               : {F13.4}
HRD2 .HZ                                               : {F13.4}
PE   .B/E                                              : {F13.4}
SFT2 .HZ                                               : {F13.4}
SOFT .HZ                                               : {F13.4}
SSD  .HZ                                               : {F13.4}
ZCOR .G/C3                                             : {F13.4}
ZDEN .G/C3                                             : {F13.4}
#-----------------------------------------------------------------------------
# 
#     DEPT        DEPT         BIT          GR           TEN          TTEN         CAL          CALX         HRD1         HRD2         PE           SFT2         SOFT         SSD          ZCOR         ZDEN
#
~A  
# ...
 5102.0472    5102.0472       8.5000      76.1152     594.6837    7126.7870       8.6190       8.6190     550.8302     770.9603       6.5950     419.9753     288.6646    5968.0602      -0.0507       2.5982
 5101.8948    5101.8948       8.5000      77.0236     634.2609    7178.2737       8.6186       8.6186     554.1308     780.3617       6.5614     417.8076     294.5581    5958.9972      -0.0547       2.5949
 5101.7424    5101.7424       8.5000      78.0182     669.9829    7226.9013       8.6180       8.6180     557.1349     778.5718       6.5451     422.8131     297.3501    5963.1257      -0.0543       2.5940
 5101.5900    5101.5900       8.5000      77.6394     695.6173    7266.3980       8.6183       8.6183     552.8992     769.0688       6.5543     426.2724     292.7986    5973.5376      -0.0499       2.5967
 5101.4376    5101.4376       8.5000      76.9239     716.1705    7301.6700       8.6193       8.6193     549.8666     765.5887       6.5692     424.6528     284.8404    5985.0768      -0.0469       2.5981
 5101.2852    5101.2852       8.5000      76.5153     748.5082    7349.8551       8.6198       8.6198     554.0436     773.6567       6.5847     419.8151     281.1085    5982.3301      -0.0498       2.5952
 5101.1328    5101.1328       8.5000      75.2829     796.8440    7415.9632       8.6201       8.6201     558.2785     785.6882       6.6386     419.5892     284.6293    5969.8290      -0.0549       2.5908
 5100.9804    5100.9804       8.5000      74.5178     840.2338    7478.9522       8.6208       8.6208     559.9430     790.0180       6.5417     425.9799     294.7637    5962.8877      -0.0572       2.5885
 5100.8280    5100.8280       8.5000      75.2828     868.9393    7528.8289       8.6214       8.6214     565.9177     785.7987       6.2689     432.5846     304.0010    5943.4185      -0.0605       2.5875
 5100.6756    5100.6756       8.5000      76.1894     873.5874    7558.8459       8.6210       8.6210     572.1627     780.4602       6.2184     435.8911     304.6402    5913.4939      -0.0652       2.5873
 5100.5232    5100.5232       8.5000      76.6889     838.5401    7560.6306       8.6204       8.6204     569.6124     779.5002       6.4193     436.0095     296.0265    5915.0558      -0.0642       2.5885
 5100.3708    5100.3708       8.5000      77.1942     801.9347    7571.6423       8.6199       8.6199     564.1024     776.8496       6.6463     430.2682     283.7832    5951.3650      -0.0571       2.5912
 5100.2184    5100.2184       8.5000      76.7882     819.7100    7635.4657       8.6190       8.6190     565.1263     766.6788       6.7173     420.4325     276.6374    5976.2743      -0.0515       2.5940
 5100.0660    5100.0660       8.5000      75.3244     875.2185    7727.0123       8.6185       8.6185     568.1837     757.5608    -999.2500     413.7384     281.1222    5975.5722      -0.0504    -999.2500
 5099.9136    5099.9136       8.5000      73.4602     916.8925    7798.8313       8.6187       8.6187     565.4424     754.5372    -999.2500     413.4617     294.6506    5972.5242      -0.0497    -999.2500
 5099.7612    5099.7612       8.5000      70.7878     927.1427    7821.2158       8.6187       8.6187     560.7117     754.4232    -999.2500     417.9653     305.7555    5958.3577      -0.0508    -999.2500
 5099.6088    5099.6088       8.5000      68.2097    -999.2500    -999.2500       8.6183       8.6183     559.9664     754.5575    -999.2500     426.1966     305.3530    5926.9690      -0.0554    -999.2500
 5099.4564    5099.4564       8.5000      67.6643    -999.2500    -999.2500       8.6184       8.6184     558.6124     756.5164    -999.2500     433.4526     296.9293    5920.5993      -0.0565    -999.2500
 5099.3040    5099.3040    -999.2500      68.7288    -999.2500    -999.2500       8.6189       8.6190     553.0073     760.2350    -999.2500     434.7034     290.1532    5955.1699      -0.0509    -999.2500
 5099.1516    5099.1516    -999.2500      70.0665    -999.2500    -999.2500    -999.2500       8.6198     549.5948     760.0388    -999.2500     432.5075     286.5105    5986.9547      -0.0454    -999.2500
 5098.9992    5098.9992    -999.2500      71.8602    -999.2500    -999.2500    -999.2500       8.6198     555.1303     756.3406    -999.2500     435.5863     285.6779    5993.8664      -0.0447    -999.2500
 5098.8468    5098.8468    -999.2500      74.0775    -999.2500    -999.2500    -999.2500       8.6188     565.9642     754.7392    -999.2500     444.5729     289.6245    5981.5246      -0.0484    -999.2500
 5098.6944    5098.6944    -999.2500      75.4318    -999.2500    -999.2500    -999.2500    -999.2500    -999.2500    -999.2500    -999.2500    -999.2500    -999.2500    5972.4824    -999.2500    -999.2500
 5098.5420    5098.5420    -999.2500      75.2689    -999.2500    -999.2500    -999.2500    -999.2500    -999.2500    -999.2500    -999.2500    -999.2500    -999.2500    -999.2500    -999.2500    -999.2500
 5098.3896    5098.3896    -999.2500      74.4783    -999.2500    -999.2500    -999.2500    -999.2500    -999.2500    -999.2500    -999.2500    -999.2500    -999.2500    -999.2500    -999.2500    -999.2500
 5098.2372    5098.2372    -999.2500      74.2080    -999.2500    -999.2500    -999.2500    -999.2500    -999.2500    -999.2500    -999.2500    -999.2500    -999.2500    -999.2500    -999.2500    -999.2500
 5098.0848    5098.0848    -999.2500      73.8966    -999.2500    -999.2500    -999.2500    -999.2500    -999.2500    -999.2500    -999.2500    -999.2500    -999.2500    -999.2500    -999.2500    -999.2500
 5097.9324    5097.9324    -999.2500      73.2766    -999.2500    -999.2500    -999.2500    -999.2500    -999.2500    -999.2500    -999.2500    -999.2500    -999.2500    -999.2500    -999.2500    -999.2500
 5097.7800    5097.7800    -999.2500      73.6055    -999.2500    -999.2500    -999.2500    -999.2500    -999.2500    -999.2500    -999.2500    -999.2500    -999.2500    -999.2500    -999.2500    -999.2500
 5097.6276    5097.6276    -999.2500      75.0076    -999.2500    -999.2500    -999.2500    -999.2500    -999.2500    -999.2500    -999.2500    -999.2500    -999.2500    -999.2500    -999.2500    -999.2500
 5097.4752    5097.4752    -999.2500      75.4201    -999.2500    -999.2500    -999.2500    -999.2500    -999.2500    -999.2500    -999.2500    -999.2500    -999.2500    -999.2500    -999.2500    -999.2500
 5097.3228    5097.3228    -999.2500      74.5847    -999.2500    -999.2500    -999.2500    -999.2500    -999.2500    -999.2500    -999.2500    -999.2500    -999.2500    -999.2500    -999.2500    -999.2500
 5097.1704    5097.1704    -999.2500      74.4776    -999.2500    -999.2500    -999.2500    -999.2500    -999.2500    -999.2500    -999.2500    -999.2500    -999.2500    -999.2500    -999.2500    -999.2500
 5097.0180    5097.0180    -999.2500      75.6685    -999.2500    -999.2500    -999.2500    -999.2500    -999.2500    -999.2500    -999.2500    -999.2500    -999.2500    -999.2500    -999.2500    -999.2500
 5096.8656    5096.8656    -999.2500      77.3679    -999.2500    -999.2500    -999.2500    -999.2500    -999.2500    -999.2500    -999.2500    -999.2500    -999.2500    -999.2500    -999.2500    -999.2500
 5096.7132    5096.7132    -999.2500      79.8094    -999.2500    -999.2500    -999.2500    -999.2500    -999.2500    -999.2500    -999.2500    -999.2500    -999.2500    -999.2500    -999.2500    -999.2500
 5096.5608    5096.5608    -999.2500      83.6330    -999.2500    -999.2500    -999.2500    -999.2500    -999.2500    -999.2500    -999.2500    -999.2500    -999.2500    -999.2500    -999.2500    -999.2500
 5096.4084    5096.4084    -999.2500      85.9916    -999.2500    -999.2500    -999.2500    -999.2500    -999.2500    -999.2500    -999.2500    -999.2500    -999.2500    -999.2500    -999.2500    -999.2500
 5096.2560    5096.2560    -999.2500      83.2975    -999.2500    -999.2500    -999.2500    -999.2500    -999.2500    -999.2500    -999.2500    -999.2500    -999.2500    -999.2500    -999.2500    -999.2500
