~VERSION INFORMATION
VERS.           2.0   :CWLS Log ASCII Standard - VERSION 2.0
WRAP.           NO    :One Line per depth step
PROD.  Schlumberger   :LAS Producer
PROG.  DLIS to ASCII 2.3                               :LAS Program name and version
CREA.        2023/07/14 00:15                          :LAS Creation date {YYYY/MM/DD hh:mm}
DLIS_CREA.  2023-Jul-14 00:11                          :DLIS Creation date and time {YYYY-MMM-DD hh:mm}
SOURCE.     LIS_003.dlis                               :DLIS File Name
FILE-ID.     LIS   .003                                :File Identification Number
#--------------------------------------------------
~WELL INFORMATION
#MNEM.UNIT      DATA             DESCRIPTION
#---- ------ --------------   -----------------------------
STRT .M      5239.8168       :START DEPTH     
STOP .M      3827.6784       :STOP DEPTH     
STEP .M        -0.1524       :STEP     
NULL .          -999.25      :NULL VALUE
COMP .        PETROBRAS S.A.                           :COMPANY
WELL .        3-BRSA-293D-SPS                          :WELL
FLD  .        BS-400                                   :FIELD
LOC  .        BASE SAD 69:                             :LOCATION
CNTY .        SANTOS                                   :COUNTY
STAT .        BRASIL                                   :STATE
CTRY .        BRASIL                                   :COUNTRY
API  .                                                 :API NUMBER
UWI  .                                                 :UNIQUE WELL ID
DATE .        22/10/2004                               :LOG DATE
SRVC .        Schlumberger                             :SERVICE COMPANY
LATI .DEG                                              :LATITUDE
LONG .DEG                                              :LONGITUDE
GDAT .                                                 :GeoDetic Datum
#-----------------------------------------------------------------------------
~PARAMETER INFORMATION
#MNEM.UNIT    VALUE                      DESCRIPTION
#---- -----   --------------------       ------------------------
APD  .M               24                 :
BHT  .DEGF           260                 :
BLI  .M       5227.50000                 :
BS   .IN         8.50000                 :
CN   .        PETROBRAS S.A.             :
COUN .        SANTOS                     :
CS   .IN         9.62500                 :
DATE .        22/10/2004                 :
DFD  .LB/G      12.30000                 :
DFL  .C3               2                 :
DFPH .        N/A                        :
DFT  .        SINTETICO                  :
DFV  .S               87                 :
DMF  .        MESA ROTATIVA              :
EDF  .M               24                 :
EGL  .M             -500                 :
EKB  .        N/A                        :
ENGI .        HERNANDEZ/LOCK             :
FL1  .        X   7292392.00 M LAT 24 28 47.189 S :
FL2  .        Y    584087.00 M LON 44 10 12.698 W :
FL3  .        MC  45 GRAUS               :
FN   .        BS-400                     :
LMF  .        MESA ROTATIVA              :
LUL  .        MACAE                      :
MCSS .        PRENSA                     :
MCST .DEGF            80                 :
MFSS .        PRENSA                     :
MFST .DEGF            80                 :
MSS  .        LINHA DE FLUXO             :
MST  .DEGF            80                 :
PDAT .        NIVEL DO MAR               :
R1   .        01. APRESENTAÇÃO DE ACORDO COM REQUERIMENTO DO CLIENTE :
R2   .        02. TEMPERATURA MÁXIMA DO POÇO T1=T2= 260 DEGF @  5180 M :
R3   .        03. INICIO DA CIRCULAÇÃO  13 45 H 21/10/2004 :
R4   .        04. FINAL DA CIRCULAÇÃO   16 00 H 21/10/2004 :
R5   .        05. TEMPO TOTAL DE CIRCULAÇÃO  02 15 H :
R6   .        06. FLUIDO DE PERFURAÇÃO  SINTETICO (BR-MUL  BR-MI)  65% TEOR DO OLEO :
R7   .        07. SALINIDADE DA LAMA  266377 PPM NACL NA FASE DE AGUA :
R8   .        08. INCLINAÇÃO MÁXIMA DO POÇO  37.37 GRAUS @ 5100 M :
R9   .        09. PRIMEIRAS E ULTIMAS LEITURAS  :
RMB  .OHMM    > 10                       :
RMCS .OHMM    > 10                       :
RMFS .OHMM    > 10                       :
RMS  .OHMM    > 10                       :
RUN  .                 1                 :
STAT .        BRASIL                     :
TCS  .        16 00 H                    :
TDD  .M             5230                 :
TDL  .M             5231                 :
TLAB .        N/A                        :
TLI  .M             3850                 :
WITN .        ALCIDIO/VLADIMIR           :
WN   .        3-BRSA-293D-SPS            :
LUN  .              8808                 :
HIDE .        3-SPS-41D                  :
HID2 .        HIGH DEFINITION INDUCTION LOG :
HID3 .        X-MULTIPOLE ARRAY ACOUSTILOG :
HID4 .        GAMMA RAY LOG              :
HID5 .        TTRM SUB                   :
CLAB .        BACIA                      :
SLAB .        PAIS                       :
CMT1 .        ESC  1 1000                :
CMT2 .        PROF. MEDIDA               :
CMT4 .        SONDA  SS-43               :
HDAT .        SAD 69                     :
FL   .        BASE SAD 69                :
OS1  .        GR/CN/ZDL                  :
OS2  .        MREX/GR                    :
OS3  .        RCI/GR                     :
0S4  .        3DEX/GR                    :
OS5  .        SL/GR                      :
LNAM .        MREX/ZDL/CN/XMAC/HDIL/RCI/3DEX/SL/GR :
TOOL .        MREX/ZDL/CN/XMAC/HDIL/RCI/3DEX/SL/GR :
LSOU .        PETROBRAS                  :
LSRV .        OH WIRELINE                :
LTYP .        RAW                        :
EPD  .M                0                 :
LDAT .        22/10/2004                 :
TRIP .                 1                 :
SON  .            772317                 :
CBDR .M             4277                 :
CBLO .M             4277                 :
CBL1 .M             4277                 :
STEM .DEGF    N/A                        :
BSAL .            266377                 :
BARI .        OFF                        :
DLAB .        21/10/2004                 :
MRT  .DEGF           260                 :
TSTR .        HDIL/XMAC/GR/TTRM          :
TSTG .        N/A                        :
STUS .        FINAL                      :
LCNM .        BAKER ATLAS                :
LCC  .               150                 :
NATI .        BRASIL                     :
OPMD .        OH.WIRELINE                :
PANA .        HERNANDEZ/LOCK             :
PCON .        BAKER ATLAS                :
R11  .        SL     5196.0 M/4960.0 M   :
R12  .        GR     4960.0 M/4277.0 M   :
R13  .        XMAC   5202.0 M/3850.0 M   :
R14  .        HDIL   5227.5 M/4277.0 M   :
R15  .        3DEX   5217.0 M/4960.0 M   :
R17  .        10. PONTO FRACO UTILIZADO  10K :
R18  .        11. DECLINAÇÃO MAGNETICA  -20.9 GRAUS :
R19  .        12. COORDENADAS ARATU      :
R21  .        X   7292512.00 M           :
R22  .        Y    583936.00 M           :
R23  .        MC  45 GRAUS               :
R25  .        13. CADASTRO ANP  86316021017 :
PVER .           4.10000                 :
WDFN .        /space/expusr/3-SPS-41D/i77bf03_2spf.xtf :
OCT  .        i77bf                      :
#-----------------------------------------------------------------------------
~CURVE INFORMATION
#MNEM.UNIT   API CODE                                  DESCRIPTION
#---- -----  --------                                  -----------------------
DEPT .M                                                :DEPTH (BOREHOLE) {F10.4}
DEPT .M                                                : {F13.4}
DT   .US/F                                             : {F13.4}
SFN1 .US                                               : {F13.4}
SFN2 .US                                               : {F13.4}
SFN3 .US                                               : {F13.4}
SFN4 .US                                               : {F13.4}
TT   .MS                                               : {F13.4}
#-----------------------------------------------------------------------------
# 
#     DEPT        DEPT         DT           SFN1         SFN2         SFN3         SFN4         TT
#
~A  
# ...
 4577.6388    4577.6388      68.4147     720.1245     752.3755     788.5003     822.8759     141.9429
 4577.4864    4577.4864      68.5595     719.7502     753.3745     787.5005     822.1254     141.9772
 4577.3340    4577.3340      68.5977     719.6250     752.2500     788.8750     822.0000     142.0115
 4577.1816    4577.1816      68.5992     719.3750     752.0000     787.1250     821.8750     142.0458
 4577.0292    4577.0292      68.6121     717.9994     751.8748     786.8748     820.4997     142.0801
 4576.8768    4576.8768      68.6408     717.1230     751.4980     786.6234     819.9992     142.1144
 4576.7244    4576.7244      68.7101     715.1250     749.4985     784.9990     819.2486     142.1488
 4576.5720    4576.5720      68.8674     715.1243     748.3752     784.2496     818.2487     142.1833
 4576.4196    4576.4196      69.0769     714.7479     748.4987     783.9992     817.4969     142.2178
 4576.2672    4576.2672      69.2192     713.7539     747.8774     783.6265     816.0059     142.2522
 4576.1148    4576.1148      69.1993     712.0062     746.5049     783.7496     816.8719     142.2868
 4575.9624    4575.9624      69.0038     712.1246     746.2508     783.8746     816.6258     142.3213
 4575.8100    4575.8100      68.7269     711.5018     744.6296     781.5067     816.0018     142.3557
 4575.6576    4575.6576      68.5103     711.2506     744.0015     780.8765     814.7531     142.3900
 4575.5052    4575.5052      68.4357     711.9984     743.7505     778.6297     814.2510     142.4242
 4575.3528    4575.3528      68.5198     712.0000     743.9996     778.3754     812.3782     142.4585
 4575.2004    4575.2004      68.7387     710.8765     744.0000     779.1240     812.1253     142.4928
 4575.0480    4575.0480      68.9814     710.8750     744.0000     780.4987     813.7484     142.5273
 4574.8956    4574.8956      69.1234     710.5002     743.6252     779.0009     814.2497     142.5619
 4574.7432    4574.7432      69.1519     709.8750     743.6250     779.1250     814.2500     142.5965
 4574.5908    4574.5908      69.1833     709.7500     744.0000     779.2500     812.7500     142.6311
 4574.4384    4574.4384      69.4129     706.3746     741.2496     777.3746     811.7496     142.6659
 4574.2860    4574.2860      69.9353     705.5010     740.4998     776.6252     810.8762     142.7008
 4574.1336    4574.1336      70.5723     706.6255     740.2514     776.8748     812.2492     142.7361
 4573.9812    4573.9812      70.9681     707.0018     741.3758     776.7520     811.6262     142.7716
 4573.8288    4573.8288      70.8822     708.1228     741.8752     778.0015     812.3787     142.8071
 4573.6764    4573.6764      70.3557     706.9962     741.9959     778.7468     814.2462     142.8422
 4573.5240    4573.5240      69.6533     705.3810     740.2564     777.3800     812.6310     142.8769
 4573.3716    4573.3716      69.0406     704.5029     738.2566     776.0046     811.7529     142.9114
 4573.2192    4573.2192      68.6241     705.3724     738.0007     776.0000     810.2544     142.9457
 4573.0668    4573.0668      68.3660     705.2503     737.6260     775.5013     808.5045     142.9799
 4572.9144    4572.9144      68.2147     704.0028     737.5003     775.8742     808.1258     143.0140
 4572.7620    4572.7620      68.1299     704.7486     737.6248     775.2512     808.8736     143.0481
 4572.6096    4572.6096      68.0764     704.9996     737.9994     775.9989     808.9998     143.0822
 4572.4572    4572.4572      68.0411     706.6232     739.9978     776.1249     810.2486     143.1162
 4572.3048    4572.3048      68.0775     706.0005     740.9993     777.3741     811.4991     143.1502
 4572.1524    4572.1523      68.2785     706.7500     740.2500     777.3750     812.7500     143.1844
 4572.0000    4572.0000      68.6114     704.8750     740.0000     776.0000     809.3750     143.2187
 4571.8476    4571.8477      68.8690     706.5000     740.0000     777.2500     812.0000     143.2531
 4571.6952    4571.6952      68.8289     707.6243     740.7514     776.8761     811.8756     143.2876
 4571.5428    4571.5428      68.4984     706.6236     742.6225     778.3758     812.6260     143.3218
 4571.3904    4571.3904      68.1726     705.3737     740.3737     779.1209     813.4996     143.3559
 4571.2380    4571.2380      68.1786     704.5021     739.4975     776.3743     813.2465     143.3900
 4571.0856    4571.0856      68.5832     705.6242     738.1269     776.0000     811.3775     143.4244
 4570.9332    4570.9332      69.1431     705.2514     738.9967     776.0000     812.4957     143.4587
 4570.7808    4570.7808      69.6082     707.8659     739.9965     776.2491     811.5035     143.4935
 4570.6284    4570.6284      69.8925     708.3735     741.3708     776.3746     811.1262     143.5285
 4570.4760    4570.4760      70.0524     710.4942     743.8682     779.3668     812.7456     143.5635
 4570.3236    4570.3236      70.1723     712.1212     743.9997     782.2432     815.7430     143.5986
 4570.1712    4570.1712      70.2411     716.7408     747.4931     783.8718     815.9995     143.6338
 4570.0188    4570.0188      70.2282     719.9948     751.9928     785.8718     818.9952     143.6689
 4569.8664    4569.8664      70.1711     720.4994     752.0000     787.7477     819.3745     143.7040
 4569.7140    4569.7140      70.1342     723.3725     754.4978     790.2478     823.2466     143.7390
 4569.5616    4569.5616      70.1237     727.9977     758.8728     792.1241     824.1246     143.7741
 4569.4092    4569.4092      70.0719     730.2500     763.8750     797.5000     828.7500     143.8092
 4569.2568    4569.2568      69.8930     731.1250     765.1250     801.0000     832.0000     143.8441
 4569.1044    4569.1044      69.5528     732.3752     765.7501     801.5003     835.4994     143.8789
 4568.9520    4568.9520      69.1475     732.6299     765.8739     801.9995     834.5000     143.9135
 4568.7996    4568.7996      68.8083     737.6255     764.7572     801.4997     834.5005     143.9479
 4568.6472    4568.6472      68.6187     738.0000     770.1250     801.2560     834.8746     143.9822
 4568.4948    4568.4948      68.6611     738.0005     770.1278     804.7521     834.6330     144.0166
 4568.3424    4568.3424      68.9386     738.2490     771.4946     805.7461     838.4848     144.0509
 4568.1900    4568.1900      69.3455     738.0009     770.2545     805.6254     838.6246     144.0855
 4568.0376    4568.0376      69.7980     739.2460     771.1222     805.3758     841.3661     144.1204
 4567.8852    4567.8852      70.2847     739.4993     772.2468     805.7489     841.6243     144.1556
 4567.7328    4567.7328      70.8426     738.8766     771.7512     806.1241     841.8744     144.1910
 4567.5804    4567.5804      71.4885     738.5008     772.1242     806.2497     843.3718     144.2268
 4567.4280    4567.4280      72.0384     741.7443     773.9967     812.6139     843.4998     144.2628
 4567.2756    4567.2756      72.0641     741.1259     772.7517     810.0036     843.9993     144.2989
 4567.1232    4567.1232      71.1359     739.1270     772.2505     809.8751     843.1259     144.3344
 4566.9708    4566.9708      69.2217     738.6253     770.3762     806.6271     842.0007     144.3691
 4566.8184    4566.8184      66.9029     737.8750     769.3750     804.6250     841.7500     144.4025
 4566.6660    4566.6660      65.1939     731.1250     765.0000     801.7500     835.3750     144.4351
 4566.5136    4566.5136      64.9437     724.8749     756.5006     794.8752     827.0008     144.4676
 4566.3612    4566.3612      66.2220     724.6265     757.8788     795.2512     828.7508     144.5007
 4566.2088    4566.2088      68.2451     726.3798     762.3764     796.6258     829.7554     144.5349
 4566.0564    4566.0564      69.9203     730.3760     763.5004     797.2516     834.2512     144.5698
 4565.9040    4565.9040      70.5646     731.0000     763.7505     798.2571     835.0002     144.6051
 4565.7516    4565.7516      70.2292     730.9997     763.9988     801.8744     835.1250     144.6402
