~VERSION INFORMATION
VERS.           2.0   :CWLS Log ASCII Standard - VERSION 2.0
WRAP.           YES   :Multiple lines per depth step
PROD.  Schlumberger   :LAS Producer
PROG.  DLIS to ASCII 2.3                               :LAS Program name and version
CREA.        2023/07/14 00:15                          :LAS Creation date {YYYY/MM/DD hh:mm}
DLIS_CREA.  2023-Jul-14 00:11                          :DLIS Creation date and time {YYYY-MMM-DD hh:mm}
SOURCE.     LIS_012.dlis                               :DLIS File Name
FILE-ID.     LIS   .001                                :File Identification Number
#--------------------------------------------------
~WELL INFORMATION
#MNEM.UNIT      DATA             DESCRIPTION
#---- ------ --------------   -----------------------------
STRT .M      5265.1152       :START DEPTH     
STOP .M      5185.4100       :STOP DEPTH     
STEP .M        -0.1524       :STEP     
NULL .          -999.25      :NULL VALUE
COMP .        PETROBRAS S.A.                           :COMPANY
WELL .        3-BRSA-293D-SPS                          :WELL
FLD  .        BS-400                                   :FIELD
LOC  .        BASE SAD 69:                             :LOCATION
CNTY .        SANTOS                                   :COUNTY
STAT .        BRASIL                                   :STATE
CTRY .        BRASIL                                   :COUNTRY
API  .                                                 :API NUMBER
UWI  .                                                 :UNIQUE WELL ID
DATE .        15/11/2004                               :LOG DATE
SRVC .        Schlumberger                             :SERVICE COMPANY
LATI .DEG                                              :LATITUDE
LONG .DEG                                              :LONGITUDE
GDAT .                                                 :GeoDetic Datum
#-----------------------------------------------------------------------------
~PARAMETER INFORMATION
#MNEM.UNIT    VALUE                      DESCRIPTION
#---- -----   --------------------       ------------------------
APD  .M               24                 :
BHT  .DEGF           260                 :
BLI  .M             5289                 :
BS   .IN         8.50000                 :
CN   .        PETROBRAS S.A.             :
COUN .        SANTOS                     :
CS   .IN         9.62500                 :
DATE .        15/11/2004                 :
DFD  .LB/G      12.30000                 :
DFL  .C3               2                 :
DFPH .        N/A                        :
DFT  .        SINTETICO                  :
DFV  .S               95                 :
DMF  .        MESA ROTATIVA              :
EDF  .M               24                 :
EGL  .M             -500                 :
EKB  .        N/A                        :
ENGI .        HERNANDEZ / LOCK           :
FL1  .        X   7292392.00 M LAT 24 28 47.189 S :
FL2  .        Y    584087.00 M LON 44 10 12.698 W :
FL3  .        MC  45 GRAUS               :
FN   .        BS-400                     :
LMF  .        MESA ROTATIVA              :
LUL  .        MACAE                      :
MCSS .        PRENSA                     :
MCST .DEGF            80                 :
MFSS .        PRENSA                     :
MFST .DEGF            80                 :
MSS  .        LINHA DE FLUXO             :
MST  .DEGF            80                 :
PDAT .        NIVEL DO MAR               :
R1   .        01. APRESENTAÇÃO DE ACORDO COM REQUERIMENTO DO CLIENTE :
R2   .        02. TEMPERATURA MÁXIMA DO POÇO T1=T2= 292 DEGF @  5277 M :
R3   .        03. INICIO DA CIRCULAÇÃO  12/11/2004 09 00 H :
R4   .        04. FINAL DA CIRCULAÇÃO   12/11/2004 18 00 H :
R5   .        05. TEMPO TOTAL DE CIRCULAÇÃO   09 00 H :
R6   .        06. FLUIDO DE PERFURAÇÃO  SINTETICO (BR-MUL  BR-MI)  60% TEOR DO OLEO :
R7   .        07. SALINIDADE DA LAMA  254762 PPM NACL NA FASE DE AGUA :
R8   .        08. INCLINAÇÃO MÁXIMA DO POÇO  37.37 GRAUS @ 5100 M :
R9   .        09. PRIMEIRAS E ULTIMAS LEITURAS  :
RMB  .OHMM    > 10                       :
RMCS .OHMM    > 10                       :
RMFS .OHMM    > 10                       :
RMS  .OHMM    >10                        :
RUN  .                 2                 :
STAT .        BRASIL                     :
TCS  .        18 00 H                    :
TDD  .M             5288                 :
TDL  .M             5293                 :
TLAB .        N/A                        :
TLI  .M             4277                 :
WITN .        ERNANI / ZE MARIA          :
WN   .        3-BRSA-293D-SPS            :
LUN  .              8808                 :
HIDE .        3-SPS-41D                  :
HID2 .        COMPENSATED Z-DENSILOG     :
HID3 .        COMPENSATED NEUTRON LOG    :
HID4 .        GAMMA RAY LOG              :
HID5 .        TTRM SUB                   :
CLAB .        BACIA                      :
SLAB .        PAIS                       :
CMT1 .        ESC  1 1000                :
CMT2 .        PROF. MEDIDA               :
CMT4 .        SONDA  SS-43               :
HDAT .        SAD 69                     :
FL   .        BASE SAD 69                :
OS1  .        RCI/GR                     :
OS2  .        CHECK SHOT                 :
OS3  .        GR/XMAC/HDIL               :
OS5  .        RCOR/GR                    :
LNAM .        ZDL/CN/XMAC/HDIL/EARTH IMAGER/RCI/RCOR/CHECK SHOT/GR :
TOOL .        ZDL/CN/XMAC/HDIL/EARTH IMAGER/RCI/RCOR/CHECK SHOT/GR :
LSOU .        PETROBRAS                  :
LSRV .        OH WIRELINE                :
LTYP .        RAW                        :
EPD  .M                0                 :
LDAT .        15/11/2004                 :
TRIP .                 4                 :
SON  .            786588                 :
CBDR .M             4277                 :
CBLO .        NR                         :
CBL1 .        NR                         :
STEM .DEGF    N/A                        :
BSAL .            254762                 :
BARI .        OFF                        :
DLAB .        12/11/2004                 :
MRT  .DEGF           292                 :
TSTR .        ZDL/CN/GR/TTRM             :
TSTG .        N/A                        :
STUS .        FINAL                      :
LCNM .        BAKER ATLAS                :
LCC  .               150                 :
NATI .        BRASIL                     :
OPMD .        OH.WIRELINE                :
PANA .        HERNANDEZ / LOCK           :
PCON .        BAKER ATLAS                :
R11  .        GR     5268.3 M / 4277.0 M :
R12  .        CN     5286.5 M / 5128.0 M (FERRAMENTA PERDEU LEITURA ACIMA DE 5128M) :
R13  .        ZDL    5292.0 M / 4277.0 M :
R15  .        10. PONTO FRACO UTILIZADO  10K :
R17  .        12. COORDENADAS BASE       :
R19  .        X   7292512.00 M           :
R21  .        MC  45 GRAUS               :
R23  .        13. CADASTRO ANP  86316021017 :
PVER .           4.10000                 :
WDFN .        /space/expusr/3-SPS-41D_RUN2/i77bf03_8spf.xtf :
OCT  .        i77bf                      :
OS4  .        EARTH IMAGER               :
R16  .        11. DECLINAÇÃO MAGNETICA  -20.9 GRAUS :
R20  .        Y    583936.00 M           :
#-----------------------------------------------------------------------------
~CURVE INFORMATION
#MNEM.UNIT   API CODE                                  DESCRIPTION
#---- -----  --------                                  -----------------------
DEPT .M                                                :DEPTH (BOREHOLE) {F10.4}
DEPT .M                                                : {F13.4}
BIT  .IN                                               : {F13.4}
DEPM .M                                                : {F13.4}
GR   .GAPI                                             : {F13.4}
SPD  .M/MN                                             : {F13.4}
TTEN .LBF                                              : {F13.4}
CAL  .IN                                               : {F13.4}
CALX .IN                                               : {F13.4}
HRD1 .HZ                                               : {F13.4}
HRD2 .HZ                                               : {F13.4}
PE   .B/E                                              : {F13.4}
SFT2 .HZ                                               : {F13.4}
SOFT .HZ                                               : {F13.4}
SSD  .HZ                                               : {F13.4}
ZCOR .G/C3                                             : {F13.4}
ZDEN .G/C3                                             : {F13.4}
CNC  .PU                                               : {F13.4}
CN   .PU                                               : {F13.4}
LSN  .HZ                                               : {F13.4}
SSN  .HZ                                               : {F13.4}
CNCF .PU                                               : {F13.4}
MMRK .MN                                               : {F13.4}
#-----------------------------------------------------------------------------
# DEPT       
#     DEPT         BIT          DEPM         GR           SPD          TTEN         
#     CAL          CALX         HRD1         HRD2         PE           SFT2         
#     SOFT         SSD          ZCOR         ZDEN         CNC          CN           
#     LSN          SSN          CNCF         MMRK         
~A  
# ...
5213.9088
   5213.9088       8.5000    5213.6158      51.6592       6.0298    7274.1394
      9.0591       9.0589     649.6471     853.1723       4.7701     516.6484
    393.0697    6948.8248      -0.0118       2.5570       6.6716       6.8418
   3710.6195    5908.5190       6.6716       0.0000
5213.7564
   5213.7564       8.5000    5213.4634      61.0637       6.0549    7255.5272
      9.0589       9.0593     680.2888     892.1304       4.4645     523.8524
    427.3448    6816.9409      -0.0326       2.5439       7.2638       7.5350
   3271.7761    5320.9314       7.2638       0.0000
5213.6040
   5213.6040       8.5000    5213.3110      68.7626       6.0316    7234.5792
      9.0632       9.0598     679.8313     855.5508       4.1802     551.3034
    425.3660    6865.7369      -0.0329       2.5519       8.3120       8.5778
   2971.1948    5055.4490       8.3120       0.0000
5213.4516
   5213.4516       8.5000    5213.1586      70.2250       5.9901    7230.3258
      9.0624       9.0651     748.1829     920.9547       3.7784     629.4010
    483.0109    7190.7695      -0.0187       2.5209       8.8268       9.1669
   2866.9393    4980.4802       8.8268       0.0000
5213.2992
   5213.2992       8.5000    5213.0062      67.4359       5.9664    7239.8243
      9.0616       9.0592     762.9932     973.6663       3.3569     691.7904
    547.1684    7441.2556       0.0134       2.5012       9.5642       9.8791
   2720.8238    4909.6011       9.5642       0.0000
5213.1468
   5213.1468       8.5000    5212.8538      64.4013       5.9837    7253.0744
      9.0787       9.0694     783.9388     990.6303       3.3156     695.7182
    563.3977    7326.5990      -0.0000       2.4923       9.5733      10.0407
   2671.1448    4801.4037       9.5733       0.0000
5212.9944
   5212.9944       8.5000    5212.7014      62.7169       6.0061    7262.5615
      9.0905       9.0868     791.3321    1011.2096       3.3550     708.1908
    558.5239    7274.6598      -0.0174       2.4872       9.6043       9.9590
   2619.7767    4727.6283       9.6043       0.0000
5212.8420
   5212.8420       8.5000    5212.5490      62.2742       6.0170    7268.4006
      9.0742       9.0854     826.1997    1019.2141       3.0330     717.1973
    602.7823    7327.1120      -0.0162       2.4800       9.8265      10.2925
   2556.9104    4653.5036       9.8265       0.0000
5212.6896
   5212.6896       8.5000    5212.3966      62.0933       6.0199    7278.7910
      9.0659       9.0659     837.0267    1005.0162       3.0479     724.0000
    593.1021    7252.9687      -0.0201       2.4807       9.1214       9.5901
   2588.3635    4548.5825       9.1214       0.0000
5212.5372
   5212.5372       8.5000    5212.2442      62.0648       6.0186    7301.5652
      9.0794       9.0719     820.5262     978.2066       3.6734     689.5666
    520.1176    7177.5421      -0.0287       2.4898       9.2608       9.5783
   2567.9283    4540.0700       9.2608       0.6557
5212.3848
   5212.3848       8.5000    5212.0918      62.5336       6.0084    7320.8135
      9.0805       9.0829     752.3597     958.1379       3.7163     648.2709
    504.5992    7283.3623      -0.0036       2.5059      10.1478      10.5041
   2519.8789    4633.8389      10.1478       0.0000
5212.2324
   5212.2324       8.5000    5211.9395      62.5307       6.0529    7315.6035
      9.0715       9.0755     783.6735     958.3387       3.1612     669.9922
    558.6384    7320.1563      -0.0014       2.4981      10.4223      10.8457
   2513.1865    4682.7344      10.4223       0.0000
5212.0800
   5212.0800       8.5000    5211.7870      61.1508       6.0347    7283.2721
      9.0675       9.0692     760.7773     989.9813       3.1961     689.8232
    568.1524    7306.8853      -0.0019       2.4942      10.3445      10.8030
   2530.7926    4693.0509      10.3445       0.0000
5211.9276
   5211.9276       8.5000    5211.6337      59.0308       6.0098    7248.3762
      9.0654       9.0662     791.9191     965.0039       3.2460     676.7670
    551.4481    7109.5045      -0.0237       2.4941      10.1751      10.5863
   2575.1611    4735.6169      10.1751       0.0000
5211.7752
   5211.7752       8.5000    5211.4813      57.8353       5.9691    7241.0085
      9.0666       9.0655     769.7456     931.7133       3.3605     642.6746
    524.4259    6995.1837      -0.0339       2.5042       9.9873      10.4781
   2611.9879    4767.1057       9.9873       0.0000
5211.6228
   5211.6228       8.5000    5211.3289      57.9964       5.9757    7265.5402
      9.0673       9.0679     769.4535     982.3537       4.1323     670.1416
    489.4247    7111.2465      -0.0381       2.4917       9.7988      10.1419
   2613.2002    4750.4041       9.7988       0.0000
5211.4704
   5211.4704       8.5000    5211.1774      59.0325       6.0194    7298.0738
      9.0638       9.0652     795.6025    1039.1120       4.4240     677.0805
    496.7246    7328.8982      -0.0171       2.4705      10.7983      11.1564
   2470.3675    4701.1689      10.7983       0.0000
5211.3180
   5211.3180       8.5000    5211.0250      60.3919       6.0280    7317.4886
      9.0684       9.0655     839.5832    1058.9801       3.7996     719.4629
    554.7912    7337.7867      -0.0222       2.4548      10.9429      11.3819
   2406.0678    4609.5892      10.9429       0.0000
5211.1656
   5211.1656       8.5000    5210.8726      61.3744       6.0210    7321.3885
      9.0643       9.0681     874.8143    1103.1031       3.2832     749.0276
    626.0604    7422.6314      -0.0272       2.4403      10.7119      11.2288
   2382.8902    4497.6297      10.7119       0.0000
5211.0132
   5211.0132       8.5000    5210.7202      61.5445       6.0006    7310.0585
      9.0585       9.0602     870.5034    1090.8240       3.3141     776.8322
    616.0219    7488.6597      -0.0111       2.4453      10.4085      10.7907
   2405.6091    4478.4965      10.4085       0.0000
5210.8608
   5210.8608       8.5000    5210.5678      61.2217       6.0159    7291.1322
      9.0576       9.0585     850.4962    1078.8053       3.4828     760.1547
    587.1149    7465.7970      -0.0106       2.4545      10.7834      11.2058
   2404.0533    4539.3575      10.7834       0.0000
5210.7084
   5210.7084       8.5000    5210.4154      60.7121       5.9919    7276.4463
      9.0577       9.0568     863.4857    1046.7792       3.5107     711.4723
    577.0038    7394.2757      -0.0132       2.4602      10.8847      11.3292
   2407.9527    4573.5233      10.8847       0.0000
5210.5560
   5210.5560       8.5000    5210.2630      59.9639       5.9893    7266.5917
      9.0606       9.0594     852.4233    1044.1367       3.7118     682.9621
    545.9086    7372.6234      -0.0192       2.4637      10.6003      11.0576
   2467.9965    4613.4440      10.6003       0.0000
5210.4036
   5210.4036       8.5000    5210.1106      59.5004       5.9765    7250.2969
      9.0600       9.0612     848.0364    1072.4068       3.7173     711.4892
    571.4831    7457.9755      -0.0115       2.4607       9.8135      10.3981
   2650.8277    4751.6165       9.8135       0.0000
5210.2512
   5210.2512       8.5000    5209.9582      60.1389       5.9997    7235.3862
      9.0575       9.0580     814.7644    1035.5529       3.7045     701.1171
    536.2615    7374.3499      -0.0060       2.4748       8.7369       9.1412
   2826.5451    4867.1787       8.7369       0.0000
5210.0988
   5210.0988       8.5000    5209.8058      61.6808       5.9817    7247.8010
      9.0601       9.0588     756.9917    1011.2569       3.7119     639.3214
    540.2142    7165.8489      -0.0183       2.4945       9.0413       9.4125
   2728.8702    4799.2473       9.0413       0.0000
5209.9464
   5209.9464       8.5000    5209.6534      63.2742       5.9711    7287.3460
      9.0598       9.0605     727.0686     953.3763       3.6703     610.9841
    510.0822    7164.0812      -0.0136       2.5148       9.1229       9.4802
   2671.2062    4702.5914       9.1229       0.0000
5209.7940
   5209.7939       8.5000    5209.5010      63.8471       5.9926    7311.9629
      9.0557       9.0574     767.3926     941.4858       3.6178     660.6708
    510.5778    7187.4893      -0.0129       2.5105       9.8303      10.1523
   2583.7124    4699.0771       9.8303       0.0000
